Time,header.seq,header.stamp.secs,header.stamp.nsecs,header.frame_id,wrench.force.x,wrench.force.y,wrench.force.z,wrench.torque.x,wrench.torque.y,wrench.torque.z
1772794195.2414155,42269,1772794195,241250536,,-1.0,-1.0,-4.0,6.0,3.0,2.0
1772794195.242561,42270,1772794195,242263333,,0.0,0.0,1.0,14.0,3.0,3.0
1772794195.2435045,42271,1772794195,243266293,,-1.0,-1.0,-1.0,23.0,-8.0,6.0
1772794195.2445657,42272,1772794195,244266685,,-1.0,-1.0,-1.0,23.0,-8.0,6.0
1772794195.2456617,42273,1772794195,245260272,,-1.0,-1.0,-1.0,23.0,-8.0,6.0
1772794195.246598,42274,1772794195,246265729,,-2.0,0.0,2.0,7.0,-16.0,1.0
1772794195.247746,42275,1772794195,247261735,,1.0,0.0,10.0,15.0,3.0,1.0
1772794195.2486608,42276,1772794195,248259489,,1.0,0.0,10.0,15.0,3.0,1.0
1772794195.2497382,42277,1772794195,249262452,,1.0,0.0,10.0,15.0,3.0,1.0
1772794195.25067,42278,1772794195,250259297,,1.0,0.0,10.0,15.0,3.0,1.0
1772794195.25177,42279,1772794195,251263321,,1.0,0.0,8.0,14.0,-1.0,0.0
1772794195.2526665,42280,1772794195,252263610,,0.0,-1.0,7.0,19.0,-7.0,-1.0
1772794195.2536106,42281,1772794195,253261341,,0.0,-1.0,7.0,19.0,-7.0,-1.0
1772794195.2549684,42282,1772794195,254262931,,0.0,-1.0,3.0,-8.0,5.0,-3.0
1772794195.2558525,42283,1772794195,255263425,,-1.0,-1.0,2.0,18.0,-7.0,1.0
1772794195.256786,42284,1772794195,256261709,,-1.0,-1.0,2.0,18.0,-7.0,1.0
1772794195.2575438,42285,1772794195,257261332,,-1.0,-1.0,2.0,18.0,-7.0,1.0
1772794195.2587357,42286,1772794195,258263152,,0.0,1.0,2.0,11.0,-7.0,1.0
1772794195.259438,42287,1772794195,259264271,,0.0,2.0,4.0,17.0,-5.0,-1.0
1772794195.260584,42288,1772794195,260259819,,0.0,2.0,4.0,17.0,-5.0,-1.0
1772794195.2629945,42289,1772794195,261259703,,0.0,2.0,4.0,17.0,-5.0,-1.0
1772794195.2634034,42290,1772794195,262263508,,-2.0,-1.0,7.0,22.0,-7.0,-2.0
1772794195.2637453,42291,1772794195,263261146,,-1.0,0.0,2.0,3.0,-4.0,3.0
1772794195.2646961,42292,1772794195,264259128,,-1.0,0.0,2.0,3.0,-4.0,3.0
1772794195.2655709,42293,1772794195,265260933,,-1.0,0.0,2.0,3.0,-4.0,3.0
1772794195.2668276,42294,1772794195,266263002,,1.0,0.0,9.0,10.0,2.0,3.0
1772794195.2676802,42295,1772794195,267260350,,1.0,0.0,9.0,10.0,2.0,3.0
1772794195.268629,42296,1772794195,268264155,,-1.0,-2.0,2.0,6.0,6.0,0.0
1772794195.269673,42297,1772794195,269260398,,-1.0,-2.0,2.0,6.0,6.0,0.0
1772794195.27076,42298,1772794195,270266000,,0.0,-1.0,-2.0,-3.0,21.0,0.0
1772794195.2715652,42299,1772794195,271264112,,-1.0,0.0,-1.0,4.0,22.0,2.0
1772794195.272558,42300,1772794195,272261140,,-1.0,0.0,-1.0,4.0,22.0,2.0
1772794195.2735589,42301,1772794195,273260980,,-1.0,0.0,-1.0,4.0,22.0,2.0
1772794195.2745788,42302,1772794195,274264229,,-1.0,-1.0,8.0,14.0,-7.0,1.0
1772794195.2755587,42303,1772794195,275264601,,-1.0,-1.0,1.0,9.0,0.0,-7.0
1772794195.2765877,42304,1772794195,276261470,,-1.0,-1.0,1.0,9.0,0.0,-7.0
1772794195.2775173,42305,1772794195,277260372,,-1.0,-1.0,1.0,9.0,0.0,-7.0
1772794195.2785919,42306,1772794195,278264058,,-3.0,0.0,3.0,-11.0,-7.0,-7.0
1772794195.27957,42307,1772794195,279261144,,-3.0,0.0,3.0,-11.0,-7.0,-7.0
1772794195.2805777,42308,1772794195,280263484,,1.0,-1.0,0.0,-20.0,7.0,3.0
1772794195.281525,42309,1772794195,281259713,,1.0,-1.0,0.0,-20.0,7.0,3.0
1772794195.2825704,42310,1772794195,282263602,,-1.0,-2.0,-1.0,-31.0,7.0,-1.0
1772794195.2834847,42311,1772794195,283262035,,-1.0,-2.0,-1.0,-31.0,7.0,-1.0
1772794195.2845936,42312,1772794195,284268319,,1.0,-3.0,6.0,-3.0,11.0,-1.0
1772794195.2855747,42313,1772794195,285261120,,1.0,-3.0,6.0,-3.0,11.0,-1.0
1772794195.2866054,42314,1772794195,286265509,,-2.0,-3.0,5.0,5.0,-11.0,-7.0
1772794195.287558,42315,1772794195,287264125,,-2.0,-1.0,-1.0,-11.0,1.0,-7.0
1772794195.2886398,42316,1772794195,288260753,,-2.0,-1.0,-1.0,-11.0,1.0,-7.0
1772794195.289534,42317,1772794195,289260767,,-2.0,-1.0,-1.0,-11.0,1.0,-7.0
1772794195.2904394,42318,1772794195,290263498,,1.0,-2.0,-5.0,-16.0,18.0,-6.0
1772794195.2917216,42319,1772794195,291265042,,2.0,0.0,6.0,-16.0,-1.0,-6.0
1772794195.2926104,42320,1772794195,292261743,,2.0,0.0,6.0,-16.0,-1.0,-6.0
1772794195.2934222,42321,1772794195,293261687,,2.0,0.0,6.0,-16.0,-1.0,-6.0
1772794195.2946076,42322,1772794195,294262155,,2.0,0.0,6.0,-16.0,-1.0,-6.0
1772794195.295445,42323,1772794195,295263995,,1.0,0.0,8.0,-18.0,2.0,-1.0
1772794195.2964416,42324,1772794195,296263769,,-1.0,0.0,4.0,11.0,-4.0,0.0
1772794195.297523,42325,1772794195,297259908,,-1.0,0.0,4.0,11.0,-4.0,0.0
1772794195.2984319,42326,1772794195,298264488,,-3.0,-1.0,-6.0,-4.0,12.0,-4.0
1772794195.2994132,42327,1772794195,299263419,,1.0,0.0,2.0,20.0,-6.0,2.0
1772794195.300507,42328,1772794195,300259521,,1.0,0.0,2.0,20.0,-6.0,2.0
1772794195.3014076,42329,1772794195,301259393,,1.0,0.0,2.0,20.0,-6.0,2.0
1772794195.3024154,42330,1772794195,302262254,,3.0,1.0,6.0,14.0,10.0,8.0
1772794195.3035676,42331,1772794195,303263003,,3.0,0.0,2.0,9.0,8.0,4.0
1772794195.3044336,42332,1772794195,304260328,,3.0,0.0,2.0,9.0,8.0,4.0
1772794195.3054202,42333,1772794195,305261014,,3.0,0.0,2.0,9.0,8.0,4.0
1772794195.3066084,42334,1772794195,306264159,,-1.0,-1.0,7.0,23.0,-3.0,1.0
1772794195.3074338,42335,1772794195,307263119,,0.0,-1.0,9.0,5.0,9.0,0.0
1772794195.308433,42336,1772794195,308261032,,0.0,-1.0,9.0,5.0,9.0,0.0
1772794195.3095462,42337,1772794195,309260302,,0.0,-1.0,9.0,5.0,9.0,0.0
1772794195.3104281,42338,1772794195,310260272,,0.0,-1.0,9.0,5.0,9.0,0.0
1772794195.3114326,42339,1772794195,311263848,,0.0,-3.0,8.0,-7.0,20.0,-2.0
1772794195.3128736,42340,1772794195,312264039,,2.0,-2.0,11.0,-1.0,21.0,0.0
1772794195.3134313,42341,1772794195,313261327,,2.0,-2.0,11.0,-1.0,21.0,0.0
1772794195.314417,42342,1772794195,314263494,,4.0,0.0,13.0,12.0,13.0,2.0
1772794195.315557,42343,1772794195,315264048,,1.0,0.0,8.0,11.0,1.0,-5.0
1772794195.3165176,42344,1772794195,316259343,,1.0,0.0,8.0,11.0,1.0,-5.0
1772794195.317392,42345,1772794195,317259797,,1.0,0.0,8.0,11.0,1.0,-5.0
1772794195.3185596,42346,1772794195,318264509,,0.0,1.0,6.0,17.0,7.0,2.0
1772794195.3195925,42347,1772794195,319268834,,1.0,0.0,1.0,10.0,26.0,-4.0
1772794195.320432,42348,1772794195,320260862,,1.0,0.0,1.0,10.0,26.0,-4.0
1772794195.3215597,42349,1772794195,321260783,,1.0,0.0,1.0,10.0,26.0,-4.0
1772794195.3224242,42350,1772794195,322264822,,1.0,-2.0,3.0,-2.0,23.0,-4.0
1772794195.3234234,42351,1772794195,323263710,,0.0,0.0,4.0,10.0,5.0,0.0
1772794195.3245869,42352,1772794195,324260286,,0.0,0.0,4.0,10.0,5.0,0.0
1772794195.3254187,42353,1772794195,325260315,,0.0,0.0,4.0,10.0,5.0,0.0
1772794195.3264332,42354,1772794195,326264287,,2.0,1.0,4.0,12.0,12.0,-2.0
1772794195.32741,42355,1772794195,327261046,,2.0,1.0,4.0,12.0,12.0,-2.0
1772794195.328443,42356,1772794195,328264323,,0.0,2.0,4.0,-1.0,4.0,0.0
1772794195.3294103,42357,1772794195,329261325,,0.0,2.0,4.0,-1.0,4.0,0.0
1772794195.3305502,42358,1772794195,330263049,,1.0,-1.0,2.0,-2.0,22.0,-5.0
1772794195.3314044,42359,1772794195,331263086,,1.0,-1.0,2.0,-2.0,22.0,-5.0
1772794195.3324072,42360,1772794195,332263131,,1.0,0.0,4.0,-8.0,12.0,1.0
1772794195.3335524,42361,1772794195,333260535,,1.0,0.0,4.0,-8.0,12.0,1.0
1772794195.334417,42362,1772794195,334263110,,1.0,-2.0,-4.0,-26.0,21.0,-3.0
1772794195.335405,42363,1772794195,335263233,,1.0,-2.0,-4.0,-26.0,21.0,-3.0
1772794195.3365574,42364,1772794195,336263523,,1.0,0.0,1.0,-9.0,11.0,-2.0
1772794195.337418,42365,1772794195,337261146,,1.0,0.0,1.0,-9.0,11.0,-2.0
1772794195.3384213,42366,1772794195,338263914,,1.0,1.0,1.0,2.0,15.0,-2.0
1772794195.339563,42367,1772794195,339261891,,1.0,1.0,1.0,2.0,15.0,-2.0
1772794195.340434,42368,1772794195,340260643,,1.0,1.0,1.0,2.0,15.0,-2.0
1772794195.34141,42369,1772794195,341255859,,-1.0,0.0,2.0,3.0,-3.0,-8.0
1772794195.3425786,42370,1772794195,342263368,,0.0,-1.0,9.0,6.0,2.0,-6.0
1772794195.343417,42371,1772794195,343260863,,0.0,-1.0,9.0,6.0,2.0,-6.0
1772794195.3444262,42372,1772794195,344260519,,1.0,0.0,-3.0,-2.0,9.0,-3.0
1772794195.3453827,42373,1772794195,345250474,,1.0,0.0,-3.0,-2.0,9.0,-3.0
1772794195.3464015,42374,1772794195,346265113,,-1.0,-2.0,8.0,11.0,7.0,2.0
1772794195.3474064,42375,1772794195,347260112,,-1.0,-2.0,8.0,11.0,7.0,2.0
1772794195.348387,42376,1772794195,348264932,,-1.0,0.0,12.0,9.0,-10.0,-2.0
1772794195.349401,42377,1772794195,349270539,,1.0,1.0,10.0,21.0,7.0,-5.0
1772794195.350412,42378,1772794195,350257702,,1.0,1.0,10.0,21.0,7.0,-5.0
1772794195.351391,42379,1772794195,351258387,,1.0,1.0,10.0,21.0,7.0,-5.0
1772794195.3524,42380,1772794195,352257968,,0.0,0.0,4.0,23.0,-4.0,-2.0
1772794195.353383,42381,1772794195,353259289,,-1.0,0.0,-1.0,-15.0,-3.0,2.0
1772794195.35442,42382,1772794195,354258713,,-1.0,0.0,-1.0,-15.0,-3.0,2.0
1772794195.355421,42383,1772794195,355256733,,-1.0,0.0,-1.0,-15.0,-3.0,2.0
1772794195.3564022,42384,1772794195,356262340,,-1.0,0.0,-1.0,-15.0,-3.0,2.0
1772794195.3574097,42385,1772794195,357258227,,0.0,1.0,4.0,19.0,-7.0,4.0
1772794195.3585303,42386,1772794195,358260761,,-1.0,1.0,6.0,0.0,1.0,-1.0
1772794195.3593955,42387,1772794195,359260394,,-1.0,1.0,6.0,0.0,1.0,-1.0
1772794195.3604198,42388,1772794195,360263715,,0.0,-1.0,7.0,8.0,1.0,-13.0
1772794195.361525,42389,1772794195,361249725,,0.0,-1.0,9.0,8.0,4.0,-6.0
1772794195.362404,42390,1772794195,362259914,,0.0,-1.0,9.0,8.0,4.0,-6.0
1772794195.3633833,42391,1772794195,363259306,,0.0,-1.0,9.0,8.0,4.0,-6.0
1772794195.3644433,42392,1772794195,364247178,,1.0,-1.0,6.0,9.0,11.0,-5.0
1772794195.3654015,42393,1772794195,365262786,,1.0,-2.0,4.0,-4.0,14.0,-2.0
1772794195.3663993,42394,1772794195,366257732,,1.0,-2.0,4.0,-4.0,14.0,-2.0
1772794195.3675027,42395,1772794195,367257975,,1.0,-2.0,4.0,-4.0,14.0,-2.0
1772794195.3684165,42396,1772794195,368260972,,0.0,-1.0,5.0,-11.0,21.0,-2.0
1772794195.3693645,42397,1772794195,369258000,,0.0,-1.0,5.0,-11.0,21.0,-2.0
1772794195.370397,42398,1772794195,370260212,,2.0,-3.0,8.0,-9.0,13.0,0.0
1772794195.371425,42399,1772794195,371258560,,2.0,-3.0,8.0,-9.0,13.0,0.0
1772794195.3723981,42400,1772794195,372258310,,2.0,-3.0,8.0,-9.0,13.0,0.0
1772794195.373418,42401,1772794195,373261293,,3.0,-4.0,16.0,12.0,6.0,2.0
1772794195.3744054,42402,1772794195,374261217,,1.0,-2.0,14.0,4.0,12.0,-2.0
1772794195.375434,42403,1772794195,375259741,,1.0,-2.0,14.0,4.0,12.0,-2.0
1772794195.3764048,42404,1772794195,376262691,,1.0,-1.0,3.0,-15.0,14.0,1.0
1772794195.377426,42405,1772794195,377257517,,1.0,-1.0,3.0,-15.0,14.0,1.0
1772794195.3784304,42406,1772794195,378265859,,0.0,1.0,2.0,11.0,12.0,-1.0
1772794195.3795207,42407,1772794195,379262388,,0.0,1.0,2.0,11.0,12.0,-1.0
1772794195.3803766,42408,1772794195,380258505,,0.0,0.0,5.0,14.0,1.0,-3.0
1772794195.3813813,42409,1772794195,381258790,,0.0,0.0,5.0,14.0,1.0,-3.0
1772794195.3823798,42410,1772794195,382262126,,2.0,-1.0,1.0,-20.0,15.0,0.0
1772794195.3834014,42411,1772794195,383259394,,2.0,-1.0,1.0,-20.0,15.0,0.0
1772794195.3844032,42412,1772794195,384258351,,2.0,-1.0,4.0,-23.0,14.0,1.0
1772794195.3854072,42413,1772794195,385257963,,2.0,-1.0,4.0,-23.0,14.0,1.0
1772794195.3864038,42414,1772794195,386261411,,1.0,2.0,5.0,7.0,-9.0,0.0
1772794195.38739,42415,1772794195,387256998,,1.0,2.0,5.0,7.0,-9.0,0.0
1772794195.388398,42416,1772794195,388258308,,1.0,2.0,5.0,7.0,-9.0,0.0
1772794195.389401,42417,1772794195,389260345,,1.0,0.0,4.0,-4.0,13.0,-2.0
1772794195.3904016,42418,1772794195,390258804,,1.0,0.0,1.0,21.0,8.0,-1.0
1772794195.39143,42419,1772794195,391261162,,1.0,0.0,1.0,21.0,8.0,-1.0
1772794195.3925216,42420,1772794195,392260890,,3.0,1.0,13.0,20.0,24.0,1.0
1772794195.3933928,42421,1772794195,393256291,,3.0,1.0,13.0,20.0,24.0,1.0
1772794195.3943834,42422,1772794195,394257847,,2.0,1.0,2.0,8.0,27.0,5.0
1772794195.3954012,42423,1772794195,395262855,,2.0,1.0,2.0,8.0,27.0,5.0
1772794195.3963923,42424,1772794195,396261758,,1.0,0.0,1.0,13.0,-1.0,0.0
1772794195.397358,42425,1772794195,397256069,,1.0,0.0,1.0,13.0,-1.0,0.0
1772794195.398381,42426,1772794195,398260712,,0.0,1.0,-1.0,-8.0,5.0,0.0
1772794195.399395,42427,1772794195,399258495,,0.0,1.0,-1.0,-8.0,5.0,0.0
1772794195.4004967,42428,1772794195,400351752,,-2.0,-1.0,5.0,-6.0,4.0,-3.0
1772794195.4013946,42429,1772794195,401272629,,-2.0,-1.0,5.0,-6.0,4.0,-3.0
1772794195.4023821,42430,1772794195,402261140,,-2.0,-1.0,5.0,-6.0,4.0,-3.0
1772794195.4033916,42431,1772794195,403269670,,0.0,1.0,2.0,0.0,21.0,3.0
1772794195.4044101,42432,1772794195,404264984,,0.0,2.0,2.0,7.0,18.0,3.0
1772794195.4055307,42433,1772794195,405262976,,0.0,2.0,2.0,7.0,18.0,3.0
1772794195.4064245,42434,1772794195,406264714,,-3.0,0.0,-3.0,8.0,4.0,-1.0
1772794195.4074225,42435,1772794195,407263351,,-3.0,0.0,-3.0,8.0,4.0,-1.0
1772794195.4085217,42436,1772794195,408263720,,-1.0,-1.0,-2.0,-4.0,17.0,-3.0
1772794195.4094145,42437,1772794195,409261847,,-1.0,-1.0,-2.0,-4.0,17.0,-3.0
1772794195.410395,42438,1772794195,410263977,,-1.0,-3.0,8.0,2.0,3.0,-6.0
1772794195.4118416,42439,1772794195,411374813,,-1.0,-3.0,8.0,2.0,3.0,-6.0
1772794195.4124408,42440,1772794195,412308990,,-2.0,-1.0,3.0,-5.0,2.0,-5.0
1772794195.4134161,42441,1772794195,413263208,,-1.0,0.0,3.0,10.0,-5.0,-2.0
1772794195.4144166,42442,1772794195,414259465,,-1.0,0.0,3.0,10.0,-5.0,-2.0
1772794195.4153864,42443,1772794195,415258854,,-1.0,0.0,3.0,10.0,-5.0,-2.0
1772794195.4164157,42444,1772794195,416263403,,0.0,2.0,-4.0,13.0,-2.0,3.0
1772794195.417371,42445,1772794195,417259255,,0.0,2.0,-4.0,13.0,-2.0,3.0
1772794195.418414,42446,1772794195,418262325,,6.0,0.0,-1.0,18.0,18.0,0.0
1772794195.4194236,42447,1772794195,419259688,,6.0,0.0,-1.0,18.0,18.0,0.0
1772794195.420434,42448,1772794195,420263055,,2.0,-1.0,-2.0,-7.0,15.0,-5.0
1772794195.421418,42449,1772794195,421259267,,2.0,-1.0,-2.0,-7.0,15.0,-5.0
1772794195.4224513,42450,1772794195,422264588,,1.0,-2.0,7.0,25.0,8.0,-1.0
1772794195.42345,42451,1772794195,423261100,,1.0,-2.0,7.0,25.0,8.0,-1.0
1772794195.4244142,42452,1772794195,424263447,,0.0,-1.0,1.0,19.0,-1.0,1.0
1772794195.4254608,42453,1772794195,425263799,,1.0,1.0,4.0,-1.0,7.0,4.0
1772794195.4264412,42454,1772794195,426262083,,1.0,1.0,4.0,-1.0,7.0,4.0
1772794195.4275422,42455,1772794195,427261268,,1.0,1.0,4.0,-1.0,7.0,4.0
1772794195.428795,42456,1772794195,428465719,,3.0,1.0,7.0,4.0,9.0,-3.0
1772794195.4297397,42457,1772794195,429397473,,2.0,0.0,6.0,17.0,6.0,-4.0
1772794195.4303567,42458,1772794195,430248744,,2.0,0.0,6.0,17.0,6.0,-4.0
1772794195.4314265,42459,1772794195,431260123,,2.0,0.0,6.0,17.0,6.0,-4.0
1772794195.4324145,42460,1772794195,432261413,,2.0,0.0,6.0,17.0,6.0,-4.0
1772794195.4334416,42461,1772794195,433262836,,0.0,0.0,-2.0,-3.0,6.0,-2.0
1772794195.4344182,42462,1772794195,434262048,,0.0,0.0,2.0,-8.0,9.0,-5.0
1772794195.4354236,42463,1772794195,435260117,,0.0,0.0,2.0,-8.0,9.0,-5.0
1772794195.4364069,42464,1772794195,436263574,,-1.0,1.0,-7.0,-14.0,-2.0,-2.0
1772794195.4373977,42465,1772794195,437259520,,-1.0,1.0,-7.0,-14.0,-2.0,-2.0
1772794195.4384267,42466,1772794195,438263273,,-1.0,0.0,1.0,5.0,2.0,-2.0
1772794195.4394438,42467,1772794195,439259588,,-1.0,0.0,1.0,5.0,2.0,-2.0
1772794195.4405463,42468,1772794195,440263242,,1.0,1.0,4.0,13.0,10.0,4.0
1772794195.4414144,42469,1772794195,441263979,,1.0,1.0,8.0,12.0,-4.0,1.0
1772794195.4424453,42470,1772794195,442261695,,1.0,1.0,8.0,12.0,-4.0,1.0
1772794195.4434245,42471,1772794195,443260042,,1.0,1.0,8.0,12.0,-4.0,1.0
1772794195.4444191,42472,1772794195,444262961,,1.0,2.0,5.0,1.0,8.0,-4.0
1772794195.4458733,42473,1772794195,445433244,,1.0,2.0,5.0,1.0,8.0,-4.0
1772794195.446632,42474,1772794195,446352147,,-3.0,0.0,-1.0,-7.0,-13.0,-10.0
1772794195.4473708,42475,1772794195,447263236,,-3.0,0.0,-1.0,-7.0,-13.0,-10.0
1772794195.4483807,42476,1772794195,448252847,,-3.0,0.0,-1.0,-7.0,-13.0,-10.0
1772794195.4495227,42477,1772794195,449269524,,0.0,-2.0,-2.0,-1.0,3.0,-6.0
1772794195.450422,42478,1772794195,450266534,,-1.0,-1.0,-3.0,-7.0,2.0,-11.0
1772794195.451405,42479,1772794195,451261363,,-1.0,-1.0,-3.0,-7.0,2.0,-11.0
1772794195.4525359,42480,1772794195,452263894,,2.0,-1.0,8.0,-11.0,14.0,-3.0
1772794195.453418,42481,1772794195,453259981,,2.0,-1.0,8.0,-11.0,14.0,-3.0
1772794195.4544072,42482,1772794195,454262379,,-1.0,-1.0,2.0,1.0,2.0,-4.0
1772794195.4553988,42483,1772794195,455261383,,-1.0,-1.0,2.0,1.0,2.0,-4.0
1772794195.4564428,42484,1772794195,456263886,,-1.0,-1.0,2.0,-27.0,12.0,-1.0
1772794195.4574294,42485,1772794195,457261541,,-1.0,-1.0,2.0,-27.0,12.0,-1.0
1772794195.458422,42486,1772794195,458265886,,-1.0,0.0,-2.0,3.0,8.0,-2.0
1772794195.4594212,42487,1772794195,459260935,,-1.0,0.0,-2.0,3.0,8.0,-2.0
1772794195.4604018,42488,1772794195,460255494,,0.0,-1.0,1.0,9.0,11.0,-2.0
1772794195.461409,42489,1772794195,461261914,,0.0,-1.0,1.0,9.0,11.0,-2.0
1772794195.4624097,42490,1772794195,462264955,,0.0,1.0,0.0,5.0,4.0,0.0
1772794195.4634337,42491,1772794195,463262292,,0.0,1.0,0.0,5.0,4.0,0.0
1772794195.4644926,42492,1772794195,464249150,,0.0,1.0,0.0,5.0,4.0,0.0
1772794195.4653938,42493,1772794195,465265592,,0.0,-1.0,0.0,6.0,18.0,-4.0
1772794195.4664023,42494,1772794195,466264205,,-3.0,2.0,4.0,10.0,-8.0,-1.0
1772794195.4675095,42495,1772794195,467260808,,-3.0,2.0,4.0,10.0,-8.0,-1.0
1772794195.468408,42496,1772794195,468264305,,-2.0,1.0,3.0,20.0,-6.0,-1.0
1772794195.4694104,42497,1772794195,469261464,,-2.0,1.0,3.0,20.0,-6.0,-1.0
1772794195.4705365,42498,1772794195,470264211,,1.0,-2.0,14.0,17.0,13.0,-8.0
1772794195.4714472,42499,1772794195,471262605,,1.0,-2.0,14.0,17.0,13.0,-8.0
1772794195.47242,42500,1772794195,472266024,,2.0,-1.0,0.0,9.0,13.0,2.0
1772794195.4735336,42501,1772794195,473261761,,2.0,-1.0,0.0,9.0,13.0,2.0
1772794195.4744484,42502,1772794195,474264582,,4.0,-2.0,3.0,-1.0,18.0,4.0
1772794195.4754107,42503,1772794195,475261106,,4.0,-2.0,3.0,-1.0,18.0,4.0
1772794195.4764147,42504,1772794195,476265489,,0.0,0.0,11.0,10.0,5.0,-1.0
1772794195.4774313,42505,1772794195,477261079,,0.0,0.0,11.0,10.0,5.0,-1.0
1772794195.478431,42506,1772794195,478260525,,0.0,0.0,11.0,10.0,5.0,-1.0
1772794195.479419,42507,1772794195,479263945,,2.0,-1.0,15.0,38.0,11.0,7.0
1772794195.480433,42508,1772794195,480261335,,2.0,-1.0,15.0,38.0,11.0,7.0
1772794195.4814258,42509,1772794195,481264618,,0.0,-1.0,4.0,-11.0,1.0,-1.0
1772794195.4824073,42510,1772794195,482263266,,-1.0,0.0,-4.0,-21.0,6.0,-4.0
1772794195.48342,42511,1772794195,483261431,,-1.0,0.0,-4.0,-21.0,6.0,-4.0
1772794195.4844103,42512,1772794195,484265169,,0.0,2.0,-4.0,-9.0,0.0,3.0
1772794195.485423,42513,1772794195,485263765,,0.0,2.0,-4.0,-9.0,0.0,3.0
1772794195.486407,42514,1772794195,486264652,,-1.0,0.0,2.0,13.0,-1.0,1.0
1772794195.4874253,42515,1772794195,487263764,,-1.0,1.0,0.0,14.0,-3.0,3.0
1772794195.4884238,42516,1772794195,488261112,,-1.0,1.0,0.0,14.0,-3.0,3.0
1772794195.4895675,42517,1772794195,489262451,,-1.0,1.0,0.0,14.0,-3.0,3.0
1772794195.4904382,42518,1772794195,490266455,,1.0,1.0,-1.0,7.0,12.0,1.0
1772794195.4914355,42519,1772794195,491261391,,1.0,1.0,-1.0,7.0,12.0,1.0
1772794195.4924052,42520,1772794195,492260803,,1.0,1.0,-1.0,7.0,12.0,1.0
1772794195.4934196,42521,1772794195,493264063,,1.0,-2.0,-3.0,-3.0,18.0,-7.0
1772794195.4944324,42522,1772794195,494260660,,1.0,-2.0,-3.0,-3.0,18.0,-7.0
1772794195.4954298,42523,1772794195,495264791,,0.0,0.0,5.0,20.0,3.0,-4.0
1772794195.4964323,42524,1772794195,496263254,,1.0,0.0,3.0,11.0,18.0,-6.0
1772794195.497427,42525,1772794195,497260117,,1.0,0.0,3.0,11.0,18.0,-6.0
1772794195.498417,42526,1772794195,498262795,,2.0,-1.0,10.0,7.0,27.0,-3.0
1772794195.4994113,42527,1772794195,499259788,,2.0,-1.0,10.0,7.0,27.0,-3.0
1772794195.5004137,42528,1772794195,500263306,,2.0,-1.0,8.0,5.0,23.0,-8.0
1772794195.5014255,42529,1772794195,501261517,,2.0,-1.0,8.0,5.0,23.0,-8.0
1772794195.5025554,42530,1772794195,502264332,,3.0,-1.0,15.0,5.0,18.0,4.0
1772794195.5034256,42531,1772794195,503261389,,3.0,-1.0,15.0,5.0,18.0,4.0
1772794195.5044305,42532,1772794195,504263665,,4.0,1.0,9.0,8.0,25.0,9.0
1772794195.505544,42533,1772794195,505261223,,4.0,1.0,9.0,8.0,25.0,9.0
1772794195.506433,42534,1772794195,506263907,,-1.0,1.0,1.0,2.0,8.0,-2.0
1772794195.5074205,42535,1772794195,507261044,,-1.0,1.0,1.0,2.0,8.0,-2.0
1772794195.5085366,42536,1772794195,508260219,,-1.0,1.0,1.0,2.0,8.0,-2.0
1772794195.5093994,42537,1772794195,509263998,,2.0,-1.0,3.0,-8.0,21.0,-2.0
1772794195.5104387,42538,1772794195,510261225,,2.0,-1.0,3.0,-8.0,21.0,-2.0
1772794195.5115523,42539,1772794195,511264129,,0.0,0.0,4.0,4.0,-3.0,0.0
1772794195.5124369,42540,1772794195,512262271,,0.0,0.0,5.0,3.0,-2.0,9.0
1772794195.5134354,42541,1772794195,513259073,,0.0,0.0,5.0,3.0,-2.0,9.0
1772794195.5144184,42542,1772794195,514261512,,-2.0,0.0,-6.0,-11.0,-18.0,6.0
1772794195.515413,42543,1772794195,515261916,,-2.0,1.0,6.0,15.0,-23.0,0.0
1772794195.5163984,42544,1772794195,516258851,,-2.0,1.0,6.0,15.0,-23.0,0.0
1772794195.5175164,42545,1772794195,517257791,,-2.0,1.0,6.0,15.0,-23.0,0.0
1772794195.5184011,42546,1772794195,518248837,,0.0,0.0,14.0,9.0,-8.0,-7.0
1772794195.5194094,42547,1772794195,519249217,,-1.0,0.0,3.0,2.0,4.0,-5.0
1772794195.520526,42548,1772794195,520249039,,-1.0,0.0,3.0,2.0,4.0,-5.0
1772794195.5215662,42549,1772794195,521351889,,-1.0,0.0,3.0,2.0,4.0,-5.0
1772794195.5224352,42550,1772794195,522278301,,-1.0,0.0,3.0,2.0,4.0,-5.0
1772794195.5234153,42551,1772794195,523278595,,-3.0,3.0,-3.0,-12.0,-11.0,-6.0
1772794195.5244145,42552,1772794195,524267472,,-2.0,-1.0,-6.0,-30.0,0.0,-4.0
1772794195.5254498,42553,1772794195,525261565,,-2.0,-1.0,-6.0,-30.0,0.0,-4.0
1772794195.5265365,42554,1772794195,526265170,,2.0,-1.0,3.0,1.0,6.0,-2.0
1772794195.5274792,42555,1772794195,527263679,,2.0,-1.0,3.0,1.0,6.0,-2.0
1772794195.5287197,42556,1772794195,528384257,,0.0,0.0,0.0,-11.0,8.0,-6.0
1772794195.5297506,42557,1772794195,529427543,,0.0,0.0,0.0,-11.0,8.0,-6.0
1772794195.5304427,42558,1772794195,530303603,,1.0,-1.0,11.0,-4.0,9.0,-4.0
1772794195.5314157,42559,1772794195,531260519,,1.0,-1.0,11.0,-4.0,9.0,-4.0
1772794195.5324297,42560,1772794195,532266557,,1.0,2.0,-2.0,-3.0,7.0,4.0
1772794195.5334218,42561,1772794195,533258544,,1.0,2.0,-2.0,-3.0,7.0,4.0
1772794195.5343971,42562,1772794195,534262120,,1.0,-1.0,12.0,27.0,6.0,1.0
1772794195.5354114,42563,1772794195,535260008,,1.0,-1.0,12.0,27.0,6.0,1.0
1772794195.536413,42564,1772794195,536262397,,0.0,-1.0,3.0,-7.0,8.0,-2.0
1772794195.5374274,42565,1772794195,537262124,,0.0,-1.0,3.0,-7.0,8.0,-2.0
1772794195.5384166,42566,1772794195,538262037,,0.0,-1.0,3.0,-7.0,8.0,-2.0
1772794195.539408,42567,1772794195,539252196,,0.0,0.0,0.0,-10.0,2.0,4.0
1772794195.540417,42568,1772794195,540264955,,1.0,-1.0,8.0,21.0,10.0,6.0
1772794195.5414307,42569,1772794195,541259196,,1.0,-1.0,8.0,21.0,10.0,6.0
1772794195.5425444,42570,1772794195,542261305,,-2.0,-1.0,-2.0,-22.0,9.0,1.0
1772794195.5433886,42571,1772794195,543247768,,-2.0,-1.0,-2.0,-22.0,9.0,1.0
1772794195.5444212,42572,1772794195,544262892,,0.0,-1.0,5.0,-3.0,11.0,0.0
1772794195.545581,42573,1772794195,545330778,,0.0,-1.0,5.0,-3.0,11.0,0.0
1772794195.5463724,42574,1772794195,546249697,,-1.0,0.0,2.0,0.0,6.0,-5.0
1772794195.5474226,42575,1772794195,547259542,,-1.0,0.0,2.0,0.0,6.0,-5.0
1772794195.5485418,42576,1772794195,548261477,,-1.0,0.0,6.0,23.0,-7.0,-1.0
1772794195.5494561,42577,1772794195,549259437,,-1.0,0.0,6.0,23.0,-7.0,-1.0
1772794195.55039,42578,1772794195,550260738,,0.0,0.0,10.0,15.0,-15.0,-5.0
1772794195.5515108,42579,1772794195,551259146,,0.0,0.0,10.0,15.0,-15.0,-5.0
1772794195.5523994,42580,1772794195,552261776,,1.0,0.0,8.0,7.0,4.0,-7.0
1772794195.5534213,42581,1772794195,553258913,,1.0,0.0,8.0,7.0,4.0,-7.0
1772794195.554396,42582,1772794195,554258959,,1.0,0.0,8.0,7.0,4.0,-7.0
1772794195.5554268,42583,1772794195,555261826,,2.0,-2.0,0.0,0.0,17.0,0.0
1772794195.5564342,42584,1772794195,556259730,,2.0,-2.0,0.0,0.0,17.0,0.0
1772794195.5575445,42585,1772794195,557261778,,1.0,0.0,-5.0,-15.0,13.0,-5.0
1772794195.5584364,42586,1772794195,558260333,,0.0,0.0,6.0,-2.0,9.0,1.0
1772794195.5594425,42587,1772794195,559259201,,0.0,0.0,6.0,-2.0,9.0,1.0
1772794195.5604055,42588,1772794195,560261215,,2.0,-2.0,8.0,5.0,14.0,1.0
1772794195.56167,42589,1772794195,561406606,,2.0,-2.0,8.0,5.0,14.0,1.0
1772794195.5624921,42590,1772794195,562312997,,3.0,-2.0,7.0,4.0,19.0,-5.0
1772794195.5636508,42591,1772794195,563264957,,3.0,-2.0,7.0,4.0,19.0,-5.0
1772794195.5645576,42592,1772794195,564263501,,3.0,0.0,4.0,-8.0,14.0,-6.0
1772794195.5655408,42593,1772794195,565261171,,3.0,0.0,4.0,-8.0,14.0,-6.0
1772794195.566724,42594,1772794195,566265204,,-1.0,-2.0,0.0,-21.0,12.0,-6.0
1772794195.5675511,42595,1772794195,567263858,,-1.0,-2.0,0.0,-21.0,12.0,-6.0
1772794195.5685787,42596,1772794195,568259762,,-1.0,-2.0,0.0,-21.0,12.0,-6.0
1772794195.56957,42597,1772794195,569264548,,2.0,-2.0,8.0,1.0,24.0,-7.0
1772794195.5706916,42598,1772794195,570264290,,3.0,-2.0,5.0,-17.0,36.0,-11.0
1772794195.5716422,42599,1772794195,571259844,,3.0,-2.0,5.0,-17.0,36.0,-11.0
1772794195.572594,42600,1772794195,572262176,,-1.0,0.0,-10.0,-26.0,18.0,-7.0
1772794195.5736914,42601,1772794195,573259375,,-1.0,0.0,-10.0,-26.0,18.0,-7.0
1772794195.5746226,42602,1772794195,574252108,,3.0,2.0,5.0,1.0,13.0,4.0
1772794195.5756187,42603,1772794195,575263043,,3.0,2.0,5.0,1.0,13.0,4.0
1772794195.5766375,42604,1772794195,576264905,,2.0,2.0,2.0,1.0,11.0,-6.0
1772794195.5775135,42605,1772794195,577264470,,0.0,0.0,1.0,-6.0,9.0,-8.0
1772794195.5786557,42606,1772794195,578266576,,0.0,0.0,1.0,-6.0,9.0,-8.0
1772794195.5796227,42607,1772794195,579262200,,0.0,0.0,1.0,-6.0,9.0,-8.0
1772794195.5805771,42608,1772794195,580260504,,0.0,0.0,1.0,-6.0,9.0,-8.0
1772794195.5815635,42609,1772794195,581263565,,1.0,0.0,3.0,6.0,4.0,-3.0
1772794195.582548,42610,1772794195,582261625,,-1.0,1.0,2.0,-6.0,10.0,1.0
1772794195.583572,42611,1772794195,583259576,,-1.0,1.0,2.0,-6.0,10.0,1.0
1772794195.584621,42612,1772794195,584261427,,-2.0,1.0,-1.0,2.0,-2.0,-2.0
1772794195.585571,42613,1772794195,585259080,,-2.0,1.0,-1.0,2.0,-2.0,-2.0
1772794195.5866146,42614,1772794195,586261713,,-1.0,2.0,1.0,12.0,7.0,4.0
1772794195.5877187,42615,1772794195,587260372,,-1.0,2.0,1.0,12.0,7.0,4.0
1772794195.5886562,42616,1772794195,588262527,,1.0,1.0,2.0,-5.0,6.0,1.0
1772794195.5897844,42617,1772794195,589262222,,-2.0,-1.0,0.0,1.0,-1.0,-6.0
1772794195.5907052,42618,1772794195,590260309,,-2.0,-1.0,0.0,1.0,-1.0,-6.0
1772794195.5916357,42619,1772794195,591259744,,-2.0,-1.0,0.0,1.0,-1.0,-6.0
1772794195.5926175,42620,1772794195,592260386,,-2.0,-1.0,0.0,1.0,-1.0,-6.0
1772794195.5937757,42621,1772794195,593264636,,0.0,-1.0,5.0,-9.0,5.0,-2.0
1772794195.5946069,42622,1772794195,594262164,,0.0,0.0,6.0,18.0,-10.0,1.0
1772794195.5955932,42623,1772794195,595260277,,0.0,0.0,6.0,18.0,-10.0,1.0
1772794195.5967069,42624,1772794195,596262945,,-1.0,0.0,10.0,-1.0,7.0,-1.0
1772794195.597623,42625,1772794195,597260730,,-1.0,0.0,10.0,-1.0,7.0,-1.0
1772794195.5986018,42626,1772794195,598264045,,-3.0,2.0,1.0,-8.0,-9.0,-2.0
1772794195.599587,42627,1772794195,599263330,,-3.0,2.0,1.0,-8.0,-9.0,-2.0
1772794195.6006627,42628,1772794195,600265123,,-2.0,1.0,8.0,7.0,-5.0,0.0
1772794195.6016645,42629,1772794195,601262933,,-1.0,0.0,2.0,-4.0,9.0,-9.0
1772794195.6027799,42630,1772794195,602260258,,-1.0,0.0,2.0,-4.0,9.0,-9.0
1772794195.6036623,42631,1772794195,603259693,,-1.0,0.0,2.0,-4.0,9.0,-9.0
1772794195.604665,42632,1772794195,604259334,,-1.0,0.0,2.0,-4.0,9.0,-9.0
1772794195.605628,42633,1772794195,605263424,,-1.0,1.0,-4.0,-7.0,7.0,2.0
1772794195.6064365,42634,1772794195,606260264,,-1.0,1.0,-4.0,-7.0,7.0,2.0
1772794195.6076527,42635,1772794195,607263004,,1.0,1.0,0.0,7.0,-2.0,3.0
1772794195.608649,42636,1772794195,608262166,,1.0,3.0,7.0,25.0,-9.0,3.0
1772794195.60967,42637,1772794195,609259296,,1.0,3.0,7.0,25.0,-9.0,3.0
1772794195.6106567,42638,1772794195,610265146,,1.0,2.0,6.0,24.0,-9.0,0.0
1772794195.6116683,42639,1772794195,611259228,,1.0,2.0,6.0,24.0,-9.0,0.0
1772794195.6126218,42640,1772794195,612263454,,1.0,1.0,9.0,17.0,1.0,3.0
1772794195.6136196,42641,1772794195,613259409,,1.0,1.0,9.0,17.0,1.0,3.0
1772794195.6145396,42642,1772794195,614262487,,0.0,-1.0,8.0,16.0,0.0,-7.0
1772794195.6155005,42643,1772794195,615260608,,0.0,-1.0,8.0,16.0,0.0,-7.0
1772794195.6165595,42644,1772794195,616263220,,-1.0,-1.0,11.0,11.0,-9.0,-6.0
1772794195.6175466,42645,1772794195,617263437,,-1.0,-1.0,11.0,11.0,-9.0,-6.0
1772794195.6186445,42646,1772794195,618264967,,4.0,-2.0,10.0,2.0,12.0,2.0
1772794195.6195824,42647,1772794195,619260145,,4.0,-2.0,10.0,2.0,12.0,2.0
1772794195.6203997,42648,1772794195,620262405,,4.0,-2.0,10.0,2.0,12.0,2.0
1772794195.6217318,42649,1772794195,621264432,,0.0,-1.0,-1.0,-9.0,16.0,1.0
1772794195.6226285,42650,1772794195,622262551,,0.0,-1.0,3.0,-7.0,18.0,2.0
1772794195.6236153,42651,1772794195,623260652,,0.0,-1.0,3.0,-7.0,18.0,2.0
1772794195.624785,42652,1772794195,624263701,,0.0,-2.0,13.0,18.0,10.0,0.0
1772794195.6256528,42653,1772794195,625259594,,0.0,-2.0,13.0,18.0,10.0,0.0
1772794195.6264303,42654,1772794195,626262864,,-2.0,1.0,10.0,16.0,-10.0,2.0
1772794195.6275578,42655,1772794195,627260898,,-2.0,1.0,10.0,16.0,-10.0,2.0
1772794195.6284924,42656,1772794195,628262941,,-1.0,0.0,11.0,25.0,-6.0,5.0
1772794195.6296818,42657,1772794195,629263435,,0.0,1.0,6.0,4.0,10.0,5.0
1772794195.6307817,42658,1772794195,630259698,,0.0,1.0,6.0,4.0,10.0,5.0
1772794195.6315036,42659,1772794195,631259700,,0.0,1.0,6.0,4.0,10.0,5.0
1772794195.632587,42660,1772794195,632260145,,0.0,1.0,6.0,4.0,10.0,5.0
1772794195.633647,42661,1772794195,633262798,,-2.0,1.0,2.0,8.0,-5.0,-1.0
1772794195.6346204,42662,1772794195,634263058,,-1.0,-2.0,9.0,2.0,7.0,-8.0
1772794195.635622,42663,1772794195,635259794,,-1.0,-2.0,9.0,2.0,7.0,-8.0
1772794195.6367257,42664,1772794195,636260073,,-1.0,-2.0,9.0,2.0,7.0,-8.0
1772794195.6375408,42665,1772794195,637263102,,-3.0,-1.0,0.0,8.0,-9.0,-9.0
1772794195.6385202,42666,1772794195,638260408,,1.0,0.0,6.0,30.0,5.0,-4.0
1772794195.6397238,42667,1772794195,639249903,,1.0,0.0,6.0,30.0,5.0,-4.0
1772794195.640561,42668,1772794195,640259460,,-1.0,-2.0,-1.0,4.0,16.0,-4.0
1772794195.641542,42669,1772794195,641261656,,0.0,-2.0,7.0,4.0,20.0,-4.0
1772794195.6427388,42670,1772794195,642260472,,0.0,-2.0,7.0,4.0,20.0,-4.0
1772794195.6435995,42671,1772794195,643257759,,0.0,-2.0,7.0,4.0,20.0,-4.0
1772794195.6444545,42672,1772794195,644259382,,0.0,-3.0,10.0,4.0,17.0,-5.0
1772794195.6454902,42673,1772794195,645259656,,-1.0,-3.0,10.0,23.0,5.0,-7.0
1772794195.6465094,42674,1772794195,646256728,,-1.0,-3.0,10.0,23.0,5.0,-7.0
1772794195.6473958,42675,1772794195,647255228,,-1.0,-3.0,10.0,23.0,5.0,-7.0
1772794195.6485107,42676,1772794195,648255731,,-1.0,-3.0,10.0,23.0,5.0,-7.0
1772794195.6495123,42677,1772794195,649258172,,2.0,-3.0,11.0,13.0,20.0,-4.0
1772794195.6504319,42678,1772794195,650257275,,0.0,0.0,10.0,16.0,10.0,-1.0
1772794195.651422,42679,1772794195,651263689,,0.0,0.0,10.0,16.0,10.0,-1.0
1772794195.652392,42680,1772794195,652251124,,0.0,0.0,10.0,16.0,10.0,-1.0
1772794195.6533945,42681,1772794195,653250996,,-2.0,1.0,8.0,8.0,0.0,-6.0
1772794195.6544096,42682,1772794195,654259072,,-4.0,1.0,7.0,14.0,-6.0,1.0
1772794195.655548,42683,1772794195,655258897,,-4.0,1.0,7.0,14.0,-6.0,1.0
1772794195.656432,42684,1772794195,656261990,,-1.0,0.0,9.0,16.0,6.0,0.0
1772794195.6574507,42685,1772794195,657262950,,-1.0,0.0,9.0,16.0,6.0,0.0
1772794195.658489,42686,1772794195,658261957,,0.0,0.0,6.0,18.0,-3.0,2.0
1772794195.6594,42687,1772794195,659248229,,0.0,0.0,6.0,18.0,-3.0,2.0
1772794195.6604185,42688,1772794195,660251744,,2.0,0.0,2.0,4.0,9.0,1.0
1772794195.6614091,42689,1772794195,661249403,,2.0,0.0,2.0,4.0,9.0,1.0
1772794195.6625888,42690,1772794195,662259671,,2.0,0.0,2.0,4.0,9.0,1.0
1772794195.6634626,42691,1772794195,663262972,,0.0,-1.0,8.0,13.0,-5.0,3.0
1772794195.6644816,42692,1772794195,664248953,,0.0,-1.0,8.0,13.0,-5.0,3.0
1772794195.6655157,42693,1772794195,665262467,,3.0,-1.0,0.0,12.0,21.0,3.0
1772794195.6664777,42694,1772794195,666260328,,3.0,-1.0,0.0,12.0,21.0,3.0
1772794195.667415,42695,1772794195,667251184,,3.0,0.0,6.0,19.0,23.0,2.0
1772794195.6684165,42696,1772794195,668251169,,0.0,-1.0,2.0,6.0,15.0,2.0
1772794195.6694224,42697,1772794195,669249116,,0.0,-1.0,2.0,6.0,15.0,2.0
1772794195.670456,42698,1772794195,670250564,,0.0,0.0,3.0,15.0,7.0,0.0
1772794195.6716986,42699,1772794195,671259301,,0.0,0.0,3.0,15.0,7.0,0.0
1772794195.6726255,42700,1772794195,672253044,,3.0,-2.0,9.0,2.0,18.0,-1.0
1772794195.6736856,42701,1772794195,673262016,,-3.0,-1.0,6.0,4.0,-12.0,2.0
1772794195.674613,42702,1772794195,674258300,,-3.0,-1.0,6.0,4.0,-12.0,2.0
1772794195.6756315,42703,1772794195,675257892,,-3.0,-1.0,6.0,4.0,-12.0,2.0
1772794195.6765702,42704,1772794195,676247811,,0.0,0.0,2.0,8.0,-5.0,4.0
1772794195.6775472,42705,1772794195,677258958,,0.0,0.0,2.0,8.0,-5.0,4.0
1772794195.67841,42706,1772794195,678262271,,-2.0,1.0,-3.0,1.0,-13.0,-5.0
1772794195.6794074,42707,1772794195,679259000,,-2.0,1.0,-3.0,1.0,-13.0,-5.0
1772794195.6805117,42708,1772794195,680247385,,-2.0,1.0,-3.0,1.0,-13.0,-5.0
1772794195.6814167,42709,1772794195,681262584,,1.0,0.0,3.0,2.0,17.0,-5.0
1772794195.6824017,42710,1772794195,682252172,,3.0,-1.0,6.0,10.0,23.0,0.0
1772794195.6835496,42711,1772794195,683247672,,3.0,-1.0,6.0,10.0,23.0,0.0
1772794195.6843877,42712,1772794195,684249523,,1.0,-1.0,10.0,19.0,18.0,0.0
1772794195.6853986,42713,1772794195,685248218,,1.0,-1.0,10.0,19.0,18.0,0.0
1772794195.6865094,42714,1772794195,686250869,,2.0,-2.0,9.0,14.0,21.0,-3.0
1772794195.6874313,42715,1772794195,687260934,,2.0,-2.0,9.0,14.0,21.0,-3.0
1772794195.6884134,42716,1772794195,688262834,,1.0,-1.0,7.0,17.0,9.0,-3.0
1772794195.6894288,42717,1772794195,689262570,,-3.0,-1.0,-2.0,1.0,-2.0,-3.0
1772794195.690422,42718,1772794195,690259126,,-3.0,-1.0,-2.0,1.0,-2.0,-3.0
1772794195.6914077,42719,1772794195,691248851,,-3.0,-1.0,-2.0,1.0,-2.0,-3.0
1772794195.692594,42720,1772794195,692259538,,-3.0,-1.0,-2.0,1.0,-2.0,-3.0
1772794195.693437,42721,1772794195,693262587,,-2.0,-4.0,12.0,22.0,-6.0,-2.0
1772794195.6944194,42722,1772794195,694251850,,-1.0,-1.0,6.0,28.0,-18.0,1.0
1772794195.6959953,42723,1772794195,695260874,,-1.0,-1.0,6.0,28.0,-18.0,1.0
1772794195.6963658,42724,1772794195,696251108,,-1.0,-3.0,2.0,6.0,-15.0,-2.0
1772794195.6974263,42725,1772794195,697259761,,-1.0,-3.0,2.0,6.0,-15.0,-2.0
1772794195.6985362,42726,1772794195,698266560,,3.0,-2.0,15.0,6.0,3.0,7.0
1772794195.6994429,42727,1772794195,699261079,,3.0,-2.0,15.0,6.0,3.0,7.0
1772794195.7005486,42728,1772794195,700264154,,2.0,-2.0,9.0,-1.0,17.0,-1.0
1772794195.7014172,42729,1772794195,701263523,,3.0,-1.0,9.0,-10.0,12.0,4.0
1772794195.702559,42730,1772794195,702261566,,3.0,-1.0,9.0,-10.0,12.0,4.0
1772794195.7034893,42731,1772794195,703249588,,3.0,-1.0,9.0,-10.0,12.0,4.0
1772794195.7047243,42732,1772794195,704263394,,3.0,-1.0,9.0,-10.0,12.0,4.0
1772794195.7054598,42733,1772794195,705266362,,1.0,0.0,0.0,-7.0,10.0,-2.0
1772794195.7065942,42734,1772794195,706264280,,0.0,1.0,14.0,2.0,-4.0,-3.0
1772794195.7075548,42735,1772794195,707260761,,0.0,1.0,14.0,2.0,-4.0,-3.0
1772794195.7084339,42736,1772794195,708264797,,-1.0,1.0,6.0,-3.0,-2.0,-3.0
1772794195.7095351,42737,1772794195,709261402,,-1.0,1.0,6.0,-3.0,-2.0,-3.0
1772794195.7106051,42738,1772794195,710265328,,1.0,-1.0,9.0,3.0,23.0,-2.0
1772794195.7114265,42739,1772794195,711260518,,1.0,-1.0,9.0,3.0,23.0,-2.0
1772794195.7124186,42740,1772794195,712264708,,-1.0,1.0,13.0,20.0,-11.0,-4.0
1772794195.7134223,42741,1772794195,713263327,,-1.0,0.0,9.0,-6.0,-1.0,-3.0
1772794195.714407,42742,1772794195,714259877,,-1.0,0.0,9.0,-6.0,-1.0,-3.0
1772794195.715406,42743,1772794195,715261175,,-1.0,0.0,9.0,-6.0,-1.0,-3.0
1772794195.7164345,42744,1772794195,716261537,,-1.0,0.0,9.0,-6.0,-1.0,-3.0
1772794195.7174063,42745,1772794195,717250951,,0.0,0.0,2.0,-4.0,6.0,-1.0
1772794195.7186353,42746,1772794195,718258806,,1.0,-1.0,5.0,10.0,5.0,3.0
1772794195.719644,42747,1772794195,719250050,,1.0,-1.0,5.0,10.0,5.0,3.0
1772794195.7204654,42748,1772794195,720246850,,1.0,-1.0,5.0,10.0,5.0,3.0
1772794195.7215092,42749,1772794195,721246145,,1.0,-1.0,7.0,7.0,-2.0,-4.0
1772794195.7225306,42750,1772794195,722261582,,2.0,0.0,7.0,14.0,13.0,0.0
1772794195.72351,42751,1772794195,723257738,,2.0,0.0,7.0,14.0,13.0,0.0
1772794195.7245367,42752,1772794195,724261569,,1.0,-1.0,3.0,3.0,28.0,0.0
1772794195.7255292,42753,1772794195,725259395,,1.0,-1.0,3.0,3.0,28.0,0.0
1772794195.7265973,42754,1772794195,726261576,,-1.0,-1.0,1.0,-8.0,17.0,-6.0
1772794195.727485,42755,1772794195,727259990,,-1.0,-1.0,1.0,-8.0,17.0,-6.0
1772794195.7292361,42756,1772794195,728249007,,3.0,-2.0,3.0,-3.0,25.0,-1.0
1772794195.7293482,42757,1772794195,729246746,,3.0,-2.0,3.0,-3.0,25.0,-1.0
1772794195.7305808,42758,1772794195,730261099,,3.0,-2.0,3.0,-3.0,25.0,-1.0
1772794195.7315319,42759,1772794195,731261850,,0.0,-1.0,7.0,19.0,14.0,-6.0
1772794195.7324855,42760,1772794195,732259188,,0.0,-1.0,7.0,19.0,14.0,-6.0
1772794195.733482,42761,1772794195,733260720,,-1.0,-1.0,2.0,11.0,8.0,-6.0
1772794195.734389,42762,1772794195,734259348,,-1.0,-1.0,2.0,11.0,8.0,-6.0
1772794195.7356458,42763,1772794195,735261478,,0.0,-1.0,2.0,4.0,10.0,-11.0
1772794195.7365737,42764,1772794195,736261213,,0.0,-1.0,2.0,-3.0,11.0,-6.0
1772794195.7376106,42765,1772794195,737259081,,0.0,-1.0,2.0,-3.0,11.0,-6.0
1772794195.7386098,42766,1772794195,738250247,,1.0,0.0,-2.0,0.0,9.0,-3.0
1772794195.739611,42767,1772794195,739247357,,1.0,0.0,-2.0,0.0,9.0,-3.0
1772794195.7406144,42768,1772794195,740260386,,2.0,2.0,6.0,6.0,7.0,-2.0
1772794195.7416267,42769,1772794195,741258759,,2.0,2.0,6.0,6.0,7.0,-2.0
1772794195.7426188,42770,1772794195,742260625,,1.0,-1.0,6.0,-4.0,-1.0,-5.0
1772794195.7435753,42771,1772794195,743260054,,1.0,-1.0,6.0,-4.0,-1.0,-5.0
1772794195.744829,42772,1772794195,744259793,,1.0,-1.0,6.0,-4.0,-1.0,-5.0
1772794195.7467532,42773,1772794195,745262290,,4.0,-2.0,11.0,19.0,15.0,-7.0
1772794195.7469704,42774,1772794195,746261143,,4.0,-2.0,11.0,19.0,15.0,-7.0
1772794195.7475374,42775,1772794195,747247540,,1.0,0.0,5.0,7.0,12.0,0.0
1772794195.7486775,42776,1772794195,748259420,,1.0,0.0,5.0,7.0,12.0,0.0
1772794195.749535,42777,1772794195,749262932,,-2.0,2.0,5.0,-10.0,1.0,0.0
1772794195.750568,42778,1772794195,750262347,,0.0,0.0,5.0,-3.0,19.0,0.0
1772794195.7515464,42779,1772794195,751261238,,0.0,0.0,5.0,-3.0,19.0,0.0
1772794195.7525938,42780,1772794195,752262357,,-1.0,0.0,5.0,32.0,-4.0,-3.0
1772794195.753568,42781,1772794195,753257660,,-1.0,0.0,5.0,32.0,-4.0,-3.0
1772794195.754565,42782,1772794195,754256299,,-1.0,-1.0,8.0,30.0,-4.0,-2.0
1772794195.7555833,42783,1772794195,755253142,,-1.0,-1.0,8.0,30.0,-4.0,-2.0
1772794195.7565656,42784,1772794195,756265234,,0.0,-1.0,4.0,12.0,-3.0,-1.0
1772794195.757603,42785,1772794195,757259408,,0.0,-1.0,4.0,12.0,-3.0,-1.0
1772794195.7585258,42786,1772794195,758258716,,0.0,-1.0,4.0,12.0,-3.0,-1.0
1772794195.7595878,42787,1772794195,759263235,,0.0,-1.0,7.0,12.0,-7.0,-5.0
1772794195.760611,42788,1772794195,760259088,,0.0,-1.0,7.0,12.0,-7.0,-5.0
1772794195.761589,42789,1772794195,761263460,,-4.0,1.0,5.0,3.0,-21.0,0.0
1772794195.7626207,42790,1772794195,762258713,,-4.0,1.0,5.0,3.0,-21.0,0.0
1772794195.7635844,42791,1772794195,763260585,,-2.0,2.0,-2.0,4.0,-9.0,12.0
1772794195.7645125,42792,1772794195,764263073,,-3.0,1.0,2.0,4.0,2.0,-2.0
1772794195.765557,42793,1772794195,765260257,,-3.0,1.0,2.0,4.0,2.0,-2.0
1772794195.7665737,42794,1772794195,766261440,,-1.0,1.0,1.0,4.0,8.0,0.0
1772794195.767564,42795,1772794195,767263482,,-1.0,1.0,1.0,4.0,8.0,0.0
1772794195.7685409,42796,1772794195,768260949,,-2.0,1.0,6.0,-1.0,2.0,-4.0
1772794195.769576,42797,1772794195,769260156,,-2.0,1.0,6.0,-1.0,2.0,-4.0
1772794195.7706313,42798,1772794195,770260939,,0.0,-2.0,6.0,10.0,6.0,2.0
1772794195.771596,42799,1772794195,771261870,,1.0,-2.0,7.0,4.0,2.0,2.0
1772794195.7726748,42800,1772794195,772259346,,1.0,-2.0,7.0,4.0,2.0,2.0
1772794195.7736855,42801,1772794195,773260312,,1.0,-2.0,7.0,4.0,2.0,2.0
1772794195.774603,42802,1772794195,774259408,,1.0,-2.0,7.0,4.0,2.0,2.0
1772794195.7756155,42803,1772794195,775262892,,1.0,-2.0,7.0,9.0,10.0,-6.0
1772794195.7766564,42804,1772794195,776260622,,2.0,-2.0,7.0,18.0,17.0,-2.0
1772794195.7776802,42805,1772794195,777259777,,2.0,-2.0,7.0,18.0,17.0,-2.0
1772794195.778618,42806,1772794195,778259551,,2.0,-2.0,7.0,18.0,17.0,-2.0
1772794195.7796876,42807,1772794195,779262105,,0.0,-1.0,5.0,-2.0,3.0,-6.0
1772794195.7806122,42808,1772794195,780260707,,-1.0,-1.0,7.0,10.0,-9.0,-5.0
1772794195.7815435,42809,1772794195,781259190,,-1.0,-1.0,7.0,10.0,-9.0,-5.0
1772794195.7826166,42810,1772794195,782261490,,4.0,-1.0,10.0,-3.0,17.0,-2.0
1772794195.7835457,42811,1772794195,783261668,,1.0,0.0,8.0,19.0,-3.0,4.0
1772794195.7845902,42812,1772794195,784258056,,1.0,0.0,8.0,19.0,-3.0,4.0
1772794195.7855577,42813,1772794195,785258649,,1.0,0.0,8.0,19.0,-3.0,4.0
1772794195.7866185,42814,1772794195,786259973,,1.0,0.0,8.0,19.0,-3.0,4.0
1772794195.7876449,42815,1772794195,787261075,,2.0,-1.0,8.0,15.0,12.0,1.0
1772794195.7885637,42816,1772794195,788261109,,2.0,-1.0,3.0,1.0,17.0,-6.0
1772794195.7894933,42817,1772794195,789261091,,2.0,-1.0,3.0,1.0,17.0,-6.0
1772794195.7906797,42818,1772794195,790259991,,2.0,-1.0,3.0,1.0,17.0,-6.0
1772794195.79167,42819,1772794195,791263648,,1.0,-4.0,0.0,-15.0,18.0,-7.0
1772794195.792734,42820,1772794195,792250160,,1.0,-2.0,0.0,-11.0,17.0,-4.0
1772794195.7936256,42821,1772794195,793260999,,1.0,-2.0,0.0,-11.0,17.0,-4.0
1772794195.7947013,42822,1772794195,794261797,,1.0,-2.0,-6.0,-11.0,31.0,-6.0
1772794195.7956388,42823,1772794195,795259993,,1.0,-2.0,-6.0,-11.0,31.0,-6.0
1772794195.7964017,42824,1772794195,796261330,,1.0,-1.0,1.0,10.0,10.0,-7.0
1772794195.7976024,42825,1772794195,797259853,,1.0,-1.0,1.0,10.0,10.0,-7.0
1772794195.7985497,42826,1772794195,798259913,,4.0,-2.0,7.0,24.0,24.0,-3.0
1772794195.7995515,42827,1772794195,799259343,,4.0,-2.0,7.0,24.0,24.0,-3.0
1772794195.8005362,42828,1772794195,800258173,,4.0,-2.0,7.0,24.0,24.0,-3.0
1772794195.8015876,42829,1772794195,801263468,,2.0,-2.0,6.0,-12.0,16.0,-4.0
1772794195.8025875,42830,1772794195,802259008,,2.0,-2.0,6.0,-12.0,16.0,-4.0
1772794195.8036351,42831,1772794195,803262355,,4.0,-1.0,8.0,-18.0,23.0,-5.0
1772794195.8046627,42832,1772794195,804259733,,4.0,-1.0,8.0,-18.0,23.0,-5.0
1772794195.805606,42833,1772794195,805261929,,2.0,1.0,7.0,12.0,0.0,0.0
1772794195.806658,42834,1772794195,806258821,,2.0,1.0,7.0,12.0,0.0,0.0
1772794195.8076615,42835,1772794195,807261684,,0.0,0.0,10.0,23.0,0.0,-1.0
1772794195.808662,42836,1772794195,808260344,,-1.0,-1.0,2.0,-6.0,4.0,-3.0
1772794195.8095982,42837,1772794195,809260948,,-1.0,-1.0,2.0,-6.0,4.0,-3.0
1772794195.8106642,42838,1772794195,810261390,,0.0,-2.0,0.0,-5.0,7.0,-4.0
1772794195.8116698,42839,1772794195,811260163,,0.0,-2.0,0.0,-5.0,7.0,-4.0
1772794195.8126485,42840,1772794195,812261548,,0.0,0.0,4.0,17.0,13.0,0.0
1772794195.8136616,42841,1772794195,813259617,,0.0,0.0,4.0,17.0,13.0,0.0
1772794195.8146362,42842,1772794195,814260647,,0.0,0.0,4.0,17.0,13.0,0.0
1772794195.815609,42843,1772794195,815262145,,-1.0,1.0,6.0,7.0,3.0,-1.0
1772794195.8165617,42844,1772794195,816258794,,-1.0,1.0,6.0,7.0,3.0,-1.0
1772794195.8174076,42845,1772794195,817263373,,3.0,2.0,10.0,-6.0,22.0,-2.0
1772794195.8186529,42846,1772794195,818259709,,3.0,2.0,10.0,-6.0,22.0,-2.0
1772794195.819646,42847,1772794195,819264535,,-1.0,0.0,6.0,8.0,10.0,-1.0
1772794195.8206024,42848,1772794195,820262121,,0.0,0.0,11.0,6.0,0.0,0.0
1772794195.821648,42849,1772794195,821260972,,0.0,0.0,11.0,6.0,0.0,0.0
1772794195.8226795,42850,1772794195,822260522,,0.0,-1.0,4.0,-5.0,25.0,-3.0
1772794195.8236656,42851,1772794195,823259208,,0.0,-1.0,4.0,-5.0,25.0,-3.0
1772794195.8246114,42852,1772794195,824260929,,-1.0,-2.0,5.0,-11.0,8.0,-8.0
1772794195.8256857,42853,1772794195,825259980,,-1.0,-2.0,5.0,-11.0,8.0,-8.0
1772794195.826397,42854,1772794195,826260737,,1.0,1.0,4.0,5.0,-2.0,-3.0
1772794195.8276162,42855,1772794195,827259938,,1.0,1.0,4.0,5.0,-2.0,-3.0
1772794195.8300104,42856,1772794195,828260768,,0.0,1.0,4.0,18.0,-12.0,3.0
1772794195.8300211,42857,1772794195,829261803,,0.0,1.0,4.0,18.0,-12.0,3.0
1772794195.8306386,42858,1772794195,830257314,,0.0,1.0,4.0,18.0,-12.0,3.0
1772794195.8317075,42859,1772794195,831259975,,2.0,1.0,7.0,24.0,-4.0,11.0
1772794195.8327065,42860,1772794195,832257816,,2.0,0.0,7.0,11.0,3.0,4.0
1772794195.8336403,42861,1772794195,833256444,,2.0,0.0,7.0,11.0,3.0,4.0
1772794195.8346486,42862,1772794195,834255566,,2.0,0.0,7.0,11.0,3.0,4.0
1772794195.8356855,42863,1772794195,835257904,,0.0,2.0,10.0,22.0,-10.0,2.0
1772794195.8367157,42864,1772794195,836258297,,0.0,2.0,6.0,13.0,2.0,1.0
1772794195.8377292,42865,1772794195,837258207,,0.0,2.0,6.0,13.0,2.0,1.0
1772794195.8387203,42866,1772794195,838258553,,1.0,2.0,5.0,16.0,0.0,2.0
1772794195.8397918,42867,1772794195,839253347,,-1.0,1.0,8.0,7.0,-11.0,2.0
1772794195.8408744,42868,1772794195,840256558,,-1.0,1.0,8.0,7.0,-11.0,2.0
1772794195.841672,42869,1772794195,841256925,,-1.0,1.0,8.0,7.0,-11.0,2.0
1772794195.8426776,42870,1772794195,842260776,,-1.0,1.0,8.0,7.0,-11.0,2.0
1772794195.8436687,42871,1772794195,843260196,,0.0,0.0,6.0,6.0,5.0,-3.0
1772794195.844956,42872,1772794195,844257756,,-1.0,1.0,4.0,1.0,1.0,0.0
1772794195.846917,42873,1772794195,845256077,,-1.0,1.0,4.0,1.0,1.0,0.0
1772794195.846925,42874,1772794195,846256913,,-1.0,1.0,4.0,1.0,1.0,0.0
1772794195.8476183,42875,1772794195,847258151,,0.0,-2.0,1.0,0.0,10.0,1.0
1772794195.8484387,42876,1772794195,848264950,,-2.0,0.0,4.0,-8.0,-1.0,2.0
1772794195.8495696,42877,1772794195,849264801,,-2.0,0.0,4.0,-8.0,-1.0,2.0
1772794195.8505354,42878,1772794195,850260747,,0.0,0.0,9.0,22.0,7.0,5.0
1772794195.8515322,42879,1772794195,851256317,,0.0,0.0,9.0,22.0,7.0,5.0
1772794195.852571,42880,1772794195,852258613,,2.0,-1.0,8.0,7.0,9.0,4.0
1772794195.8535585,42881,1772794195,853256515,,2.0,-1.0,8.0,7.0,9.0,4.0
1772794195.8546047,42882,1772794195,854258643,,1.0,1.0,8.0,-5.0,15.0,-4.0
1772794195.855644,42883,1772794195,855258970,,-1.0,0.0,8.0,0.0,7.0,3.0
1772794195.856634,42884,1772794195,856251488,,-1.0,0.0,8.0,0.0,7.0,3.0
1772794195.8576276,42885,1772794195,857253488,,-1.0,0.0,8.0,0.0,7.0,3.0
1772794195.8585975,42886,1772794195,858252116,,-1.0,0.0,8.0,0.0,7.0,3.0
1772794195.8595636,42887,1772794195,859261068,,3.0,-1.0,4.0,7.0,30.0,0.0
1772794195.8605328,42888,1772794195,860257786,,1.0,-2.0,4.0,4.0,6.0,-1.0
1772794195.8615828,42889,1772794195,861256631,,1.0,-2.0,4.0,4.0,6.0,-1.0
1772794195.8625712,42890,1772794195,862255562,,1.0,-2.0,4.0,4.0,6.0,-1.0
1772794195.8635843,42891,1772794195,863259896,,-1.0,-2.0,11.0,2.0,-5.0,1.0
1772794195.8646538,42892,1772794195,864258970,,0.0,0.0,10.0,14.0,-1.0,4.0
1772794195.8655705,42893,1772794195,865257065,,0.0,0.0,10.0,14.0,-1.0,4.0
1772794195.8666031,42894,1772794195,866258193,,1.0,-1.0,13.0,-4.0,2.0,-4.0
1772794195.8675947,42895,1772794195,867257799,,1.0,-1.0,13.0,-4.0,2.0,-4.0
1772794195.868654,42896,1772794195,868258299,,2.0,-2.0,3.0,-5.0,18.0,-1.0
1772794195.8696053,42897,1772794195,869257578,,2.0,-2.0,3.0,-5.0,18.0,-1.0
1772794195.8706052,42898,1772794195,870258251,,1.0,-1.0,5.0,-1.0,10.0,0.0
1772794195.871682,42899,1772794195,871256633,,1.0,-1.0,5.0,-1.0,10.0,0.0
1772794195.8726168,42900,1772794195,872256595,,1.0,-1.0,5.0,-1.0,10.0,0.0
1772794195.8736544,42901,1772794195,873258446,,1.0,1.0,1.0,-18.0,5.0,-1.0
1772794195.874671,42902,1772794195,874256006,,1.0,1.0,1.0,-18.0,5.0,-1.0
1772794195.875653,42903,1772794195,875258355,,-1.0,-1.0,3.0,5.0,10.0,-10.0
1772794195.8765583,42904,1772794195,876256007,,-1.0,-1.0,3.0,5.0,10.0,-10.0
1772794195.8775609,42905,1772794195,877259995,,-3.0,-1.0,2.0,-10.0,12.0,-4.0
1772794195.879001,42906,1772794195,878258263,,-1.0,-2.0,-7.0,-13.0,19.0,-2.0
1772794195.879667,42907,1772794195,879256708,,-1.0,-2.0,-7.0,-13.0,19.0,-2.0
1772794195.8806152,42908,1772794195,880259648,,-2.0,-1.0,-5.0,-5.0,11.0,-3.0
1772794195.8816202,42909,1772794195,881258038,,-2.0,-1.0,-5.0,-5.0,11.0,-3.0
1772794195.8826606,42910,1772794195,882258874,,2.0,-2.0,0.0,-6.0,22.0,0.0
1772794195.8835719,42911,1772794195,883259110,,0.0,-1.0,-2.0,-12.0,13.0,-2.0
1772794195.8846507,42912,1772794195,884255947,,0.0,-1.0,-2.0,-12.0,13.0,-2.0
1772794195.8856702,42913,1772794195,885258100,,0.0,-1.0,-2.0,-12.0,13.0,-2.0
1772794195.8864307,42914,1772794195,886255983,,0.0,-1.0,-2.0,-12.0,13.0,-2.0
1772794195.8876665,42915,1772794195,887258543,,1.0,0.0,1.0,2.0,11.0,1.0
1772794195.8886516,42916,1772794195,888256240,,1.0,0.0,1.0,2.0,11.0,1.0
1772794195.889581,42917,1772794195,889259914,,3.0,0.0,2.0,-4.0,14.0,0.0
1772794195.890412,42918,1772794195,890260911,,3.0,0.0,2.0,-4.0,14.0,0.0
1772794195.891547,42919,1772794195,891262937,,1.0,-1.0,7.0,7.0,5.0,-3.0
1772794195.8926537,42920,1772794195,892259130,,1.0,-1.0,7.0,7.0,5.0,-3.0
1772794195.8936815,42921,1772794195,893261404,,2.0,1.0,12.0,17.0,-8.0,2.0
1772794195.8950555,42922,1772794195,894261086,,-2.0,2.0,2.0,11.0,-12.0,-2.0
1772794195.896866,42923,1772794195,895249330,,-2.0,2.0,2.0,11.0,-12.0,-2.0
1772794195.8968866,42924,1772794195,896249199,,0.0,1.0,5.0,3.0,8.0,1.0
1772794195.8974838,42925,1772794195,897247724,,0.0,1.0,5.0,3.0,8.0,1.0
1772794195.8984268,42926,1772794195,898260675,,0.0,1.0,5.0,3.0,8.0,1.0
1772794195.8993986,42927,1772794195,899262266,,-3.0,1.0,-2.0,19.0,-3.0,3.0
1772794195.9006054,42928,1772794195,900259857,,-3.0,1.0,-2.0,19.0,-3.0,3.0
1772794195.901538,42929,1772794195,901259209,,-3.0,2.0,-6.0,-23.0,9.0,-4.0
1772794195.9024024,42930,1772794195,902256033,,-3.0,2.0,-6.0,-23.0,9.0,-4.0
1772794195.9034333,42931,1772794195,903263307,,0.0,1.0,5.0,-23.0,2.0,-4.0
1772794195.9045095,42932,1772794195,904258888,,-1.0,1.0,9.0,9.0,-9.0,1.0
1772794195.9055498,42933,1772794195,905257698,,-1.0,1.0,9.0,9.0,-9.0,1.0
1772794195.906407,42934,1772794195,906258499,,-1.0,1.0,9.0,9.0,-9.0,1.0
1772794195.9075086,42935,1772794195,907260663,,0.0,1.0,4.0,4.0,-6.0,4.0
1772794195.9085793,42936,1772794195,908256843,,0.0,1.0,4.0,4.0,-6.0,4.0
1772794195.909431,42937,1772794195,909261819,,1.0,-2.0,7.0,5.0,-9.0,3.0
1772794195.9104342,42938,1772794195,910256321,,1.0,-2.0,7.0,5.0,-9.0,3.0
1772794195.9118986,42939,1772794195,911259699,,0.0,-1.0,12.0,-6.0,4.0,3.0
1772794195.9135375,42940,1772794195,912259577,,0.0,-1.0,11.0,11.0,5.0,7.0
1772794195.9135513,42941,1772794195,913249286,,0.0,-1.0,11.0,11.0,5.0,7.0
1772794195.9144158,42942,1772794195,914259215,,0.0,1.0,5.0,11.0,-9.0,5.0
1772794195.915386,42943,1772794195,915257518,,0.0,1.0,5.0,11.0,-9.0,5.0
1772794195.9164107,42944,1772794195,916262254,,0.0,1.0,5.0,11.0,-9.0,5.0
1772794195.9175541,42945,1772794195,917259487,,1.0,0.0,8.0,-5.0,9.0,4.0
1772794195.918414,42946,1772794195,918257371,,1.0,0.0,8.0,-5.0,9.0,4.0
1772794195.9194,42947,1772794195,919263702,,2.0,0.0,4.0,-1.0,13.0,2.0
1772794195.9206073,42948,1772794195,920261766,,0.0,0.0,7.0,8.0,1.0,4.0
1772794195.9215298,42949,1772794195,921258883,,0.0,0.0,7.0,8.0,1.0,4.0
1772794195.922408,42950,1772794195,922259814,,0.0,0.0,7.0,8.0,1.0,4.0
1772794195.9234178,42951,1772794195,923262764,,4.0,0.0,4.0,9.0,8.0,3.0
1772794195.9245741,42952,1772794195,924258241,,4.0,0.0,4.0,9.0,8.0,3.0
1772794195.9254324,42953,1772794195,925261999,,-2.0,1.0,5.0,12.0,-5.0,5.0
1772794195.9264138,42954,1772794195,926261345,,0.0,1.0,-2.0,-6.0,14.0,1.0
1772794195.9276335,42955,1772794195,927260739,,0.0,1.0,-2.0,-6.0,14.0,1.0
1772794195.9291804,42956,1772794195,928260409,,-1.0,-1.0,6.0,-3.0,7.0,0.0
1772794195.9301481,42957,1772794195,929259019,,-1.0,-1.0,6.0,-3.0,7.0,0.0
1772794195.930667,42958,1772794195,930249658,,-1.0,-1.0,6.0,-3.0,7.0,0.0
1772794195.931582,42959,1772794195,931261590,,0.0,-2.0,12.0,22.0,10.0,-1.0
1772794195.932391,42960,1772794195,932257889,,0.0,-2.0,12.0,22.0,10.0,-1.0
1772794195.9335413,42961,1772794195,933262532,,-1.0,-1.0,5.0,16.0,8.0,-4.0
1772794195.9346588,42962,1772794195,934262390,,-1.0,-1.0,5.0,16.0,8.0,-4.0
1772794195.9355364,42963,1772794195,935259084,,0.0,-1.0,6.0,12.0,14.0,-3.0
1772794195.9365633,42964,1772794195,936260811,,0.0,-1.0,-2.0,-21.0,24.0,-8.0
1772794195.9376426,42965,1772794195,937259373,,0.0,-1.0,-2.0,-21.0,24.0,-8.0
1772794195.9384365,42966,1772794195,938258958,,1.0,-2.0,5.0,2.0,32.0,-4.0
1772794195.939491,42967,1772794195,939268440,,1.0,-2.0,5.0,2.0,32.0,-4.0
1772794195.9405904,42968,1772794195,940260337,,1.0,-2.0,5.0,2.0,32.0,-4.0
1772794195.941428,42969,1772794195,941263377,,2.0,-1.0,8.0,-13.0,20.0,5.0
1772794195.942383,42970,1772794195,942247448,,2.0,-1.0,8.0,-13.0,20.0,5.0
1772794195.943391,42971,1772794195,943263139,,3.0,0.0,11.0,-5.0,12.0,4.0
1772794195.9444096,42972,1772794195,944261657,,-2.0,1.0,8.0,-11.0,-8.0,-1.0
1772794195.945408,42973,1772794195,945260742,,-2.0,1.0,8.0,-11.0,-8.0,-1.0
1772794195.9463873,42974,1772794195,946261401,,0.0,1.0,9.0,10.0,-11.0,7.0
1772794195.947401,42975,1772794195,947260315,,0.0,1.0,9.0,10.0,-11.0,7.0
1772794195.9483945,42976,1772794195,948259195,,0.0,1.0,9.0,10.0,-11.0,7.0
1772794195.9493966,42977,1772794195,949261269,,0.0,0.0,7.0,8.0,-8.0,-4.0
1772794195.9505203,42978,1772794195,950262003,,2.0,0.0,5.0,-1.0,5.0,-1.0
1772794195.9514,42979,1772794195,951259030,,2.0,0.0,5.0,-1.0,5.0,-1.0
1772794195.9525356,42980,1772794195,952247610,,2.0,0.0,5.0,-1.0,5.0,-1.0
1772794195.9533885,42981,1772794195,953262239,,1.0,2.0,4.0,-14.0,12.0,0.0
1772794195.9543467,42982,1772794195,954248489,,1.0,2.0,5.0,-10.0,22.0,-5.0
1772794195.9554746,42983,1772794195,955258854,,1.0,2.0,5.0,-10.0,22.0,-5.0
1772794195.9563878,42984,1772794195,956259643,,1.0,2.0,5.0,-10.0,22.0,-5.0
1772794195.9574068,42985,1772794195,957262140,,1.0,1.0,9.0,5.0,15.0,-2.0
1772794195.958569,42986,1772794195,958261497,,0.0,1.0,4.0,10.0,10.0,-5.0
1772794195.9593925,42987,1772794195,959253791,,0.0,1.0,4.0,10.0,10.0,-5.0
1772794195.9604056,42988,1772794195,960254903,,0.0,1.0,4.0,10.0,10.0,-5.0
1772794195.962235,42989,1772794195,961253464,,-1.0,0.0,5.0,24.0,-3.0,-2.0
1772794195.963529,42990,1772794195,962248151,,-1.0,0.0,2.0,20.0,-4.0,0.0
1772794195.963592,42991,1772794195,963251450,,-1.0,0.0,2.0,20.0,-4.0,0.0
1772794195.9644136,42992,1772794195,964246618,,-2.0,0.0,0.0,20.0,-13.0,1.0
1772794195.9654033,42993,1772794195,965259097,,-2.0,0.0,0.0,20.0,-13.0,1.0
1772794195.9665036,42994,1772794195,966265355,,1.0,0.0,5.0,28.0,-2.0,1.0
1772794195.9675028,42995,1772794195,967260736,,1.0,0.0,5.0,28.0,-2.0,1.0
1772794195.9683762,42996,1772794195,968261458,,1.0,0.0,5.0,28.0,-2.0,1.0
1772794195.969401,42997,1772794195,969261238,,1.0,0.0,-7.0,8.0,15.0,1.0
1772794195.9703336,42998,1772794195,970246846,,3.0,1.0,2.0,22.0,14.0,2.0
1772794195.9715314,42999,1772794195,971258685,,3.0,1.0,2.0,22.0,14.0,2.0
1772794195.97241,43000,1772794195,972260735,,3.0,1.0,2.0,22.0,14.0,2.0
1772794195.973402,43001,1772794195,973261097,,3.0,1.0,13.0,16.0,5.0,6.0
1772794195.9745321,43002,1772794195,974262080,,-2.0,-2.0,3.0,11.0,-7.0,-2.0
1772794195.9754138,43003,1772794195,975258086,,-2.0,-2.0,3.0,11.0,-7.0,-2.0
1772794195.9764132,43004,1772794195,976261679,,1.0,0.0,1.0,9.0,5.0,0.0
1772794195.9773862,43005,1772794195,977258770,,1.0,0.0,1.0,9.0,5.0,0.0
1772794195.978347,43006,1772794195,978258492,,1.0,0.0,1.0,9.0,5.0,0.0
1772794195.9794154,43007,1772794195,979259947,,1.0,-1.0,0.0,-16.0,15.0,-3.0
1772794195.9804993,43008,1772794195,980259862,,1.0,-1.0,0.0,-16.0,15.0,-3.0
1772794195.981419,43009,1772794195,981262865,,-1.0,-2.0,5.0,-8.0,7.0,3.0
1772794195.982405,43010,1772794195,982262436,,-1.0,-2.0,5.0,-8.0,7.0,3.0
1772794195.9834476,43011,1772794195,983260914,,0.0,0.0,3.0,-20.0,21.0,-1.0
1772794195.984404,43012,1772794195,984261671,,0.0,0.0,3.0,-20.0,21.0,-1.0
1772794195.9853866,43013,1772794195,985255873,,0.0,0.0,-1.0,5.0,17.0,-2.0
1772794195.9865618,43014,1772794195,986264300,,0.0,0.0,8.0,20.0,6.0,-2.0
1772794195.9874134,43015,1772794195,987259163,,0.0,0.0,8.0,20.0,6.0,-2.0
1772794195.988443,43016,1772794195,988261541,,0.0,1.0,7.0,3.0,2.0,-3.0
1772794195.989514,43017,1772794195,989260455,,0.0,1.0,7.0,3.0,2.0,-3.0
1772794195.9904,43018,1772794195,990260449,,0.0,1.0,7.0,3.0,2.0,-3.0
1772794195.991395,43019,1772794195,991263153,,1.0,-2.0,18.0,28.0,4.0,-4.0
1772794195.9924,43020,1772794195,992260094,,1.0,-2.0,18.0,28.0,4.0,-4.0
1772794195.9934225,43021,1772794195,993261268,,0.0,-2.0,12.0,11.0,7.0,-5.0
1772794195.994417,43022,1772794195,994258854,,0.0,-2.0,12.0,11.0,7.0,-5.0
1772794195.995559,43023,1772794195,995264045,,1.0,1.0,1.0,0.0,6.0,-3.0
1772794195.996554,43024,1772794195,996249339,,1.0,1.0,1.0,0.0,6.0,-3.0
1772794195.9976091,43025,1772794195,997289758,,1.0,-1.0,3.0,-8.0,6.0,-7.0
1772794195.99866,43026,1772794195,998271569,,-1.0,0.0,3.0,-10.0,-2.0,-1.0
1772794195.999564,43027,1772794195,999260072,,-1.0,0.0,3.0,-10.0,-2.0,-1.0
1772794196.000557,43028,1772794196,260034,,-1.0,0.0,-7.0,-32.0,6.0,-3.0
1772794196.001546,43029,1772794196,1257322,,-1.0,0.0,-7.0,-32.0,6.0,-3.0
1772794196.002565,43030,1772794196,2258137,,-1.0,0.0,-7.0,-32.0,6.0,-3.0
1772794196.0035734,43031,1772794196,3257063,,2.0,-1.0,-7.0,-21.0,10.0,-2.0
1772794196.004596,43032,1772794196,4261492,,2.0,2.0,0.0,12.0,16.0,-1.0
1772794196.0054195,43033,1772794196,5255530,,2.0,2.0,0.0,12.0,16.0,-1.0
1772794196.006554,43034,1772794196,6257393,,2.0,2.0,0.0,12.0,16.0,-1.0
1772794196.0075204,43035,1772794196,7257019,,2.0,0.0,-5.0,-13.0,8.0,4.0
1772794196.0085332,43036,1772794196,8262699,,-2.0,0.0,4.0,9.0,-10.0,-2.0
1772794196.009546,43037,1772794196,9257006,,-2.0,0.0,4.0,9.0,-10.0,-2.0
1772794196.0105326,43038,1772794196,10262069,,-2.0,0.0,4.0,9.0,-10.0,-2.0
1772794196.011709,43039,1772794196,11405445,,0.0,-1.0,19.0,26.0,-8.0,1.0
1772794196.0125828,43040,1772794196,12311030,,1.0,-1.0,7.0,13.0,8.0,2.0
1772794196.01353,43041,1772794196,13256344,,1.0,-1.0,7.0,13.0,8.0,2.0
1772794196.0145197,43042,1772794196,14259977,,1.0,0.0,4.0,6.0,16.0,-4.0
1772794196.015516,43043,1772794196,15261892,,1.0,0.0,4.0,6.0,16.0,-4.0
1772794196.0165217,43044,1772794196,16256998,,1.0,0.0,4.0,6.0,16.0,-4.0
1772794196.017518,43045,1772794196,17260380,,0.0,0.0,10.0,8.0,9.0,-1.0
1772794196.0183997,43046,1772794196,18259268,,0.0,0.0,10.0,8.0,9.0,-1.0
1772794196.0193827,43047,1772794196,19261067,,1.0,-2.0,3.0,-25.0,28.0,-7.0
1772794196.0205843,43048,1772794196,20261410,,0.0,-1.0,0.0,-2.0,23.0,0.0
1772794196.021521,43049,1772794196,21260018,,0.0,-1.0,0.0,-2.0,23.0,0.0
1772794196.0223944,43050,1772794196,22261238,,0.0,-1.0,0.0,-2.0,23.0,0.0
1772794196.0235536,43051,1772794196,23261324,,0.0,0.0,-2.0,-7.0,13.0,5.0
1772794196.0243762,43052,1772794196,24262024,,0.0,1.0,0.0,4.0,1.0,4.0
1772794196.02539,43053,1772794196,25259106,,0.0,1.0,0.0,4.0,1.0,4.0
1772794196.026529,43054,1772794196,26258880,,0.0,1.0,0.0,4.0,1.0,4.0
1772794196.027512,43055,1772794196,27261225,,-1.0,0.0,-2.0,-9.0,5.0,-9.0
1772794196.0283725,43056,1772794196,28244704,,-1.0,-1.0,-1.0,-7.0,-7.0,-3.0
1772794196.0293615,43057,1772794196,29258449,,-1.0,-1.0,-1.0,-7.0,-7.0,-3.0
1772794196.0303874,43058,1772794196,30263280,,-1.0,-2.0,5.0,-16.0,22.0,-10.0
1772794196.0313647,43059,1772794196,31259026,,-1.0,-2.0,5.0,-16.0,22.0,-10.0
1772794196.0324802,43060,1772794196,32262176,,0.0,-2.0,10.0,5.0,9.0,-3.0
1772794196.0333564,43061,1772794196,33259268,,0.0,-2.0,10.0,5.0,9.0,-3.0
1772794196.0343516,43062,1772794196,34261417,,0.0,-2.0,10.0,5.0,9.0,-3.0
1772794196.035383,43063,1772794196,35260638,,1.0,0.0,7.0,1.0,1.0,-1.0
1772794196.0363643,43064,1772794196,36263004,,1.0,0.0,1.0,2.0,0.0,2.0
1772794196.0374079,43065,1772794196,37259757,,1.0,0.0,1.0,2.0,0.0,2.0
1772794196.0385008,43066,1772794196,38260818,,1.0,0.0,1.0,2.0,0.0,2.0
1772794196.0393798,43067,1772794196,39263143,,1.0,1.0,-4.0,-11.0,18.0,-2.0
1772794196.0404158,43068,1772794196,40261667,,1.0,1.0,-4.0,-11.0,18.0,-2.0
1772794196.0415406,43069,1772794196,41261602,,2.0,1.0,5.0,-8.0,10.0,1.0
