Time,header.seq,header.stamp.secs,header.stamp.nsecs,header.frame_id,wrench.force.x,wrench.force.y,wrench.force.z,wrench.torque.x,wrench.torque.y,wrench.torque.z
1772794251.0777924,4281,1772794251,77610544,,-0.05927682276229994,0.0,1.9,1.8333333333333333,0.07142857142857142,-0.010650887573964497
1772794251.0787585,4282,1772794251,78594506,,-0.11855364552459988,0.0,1.0,1.3240740740740742,0.02857142857142857,-0.01301775147928994
1772794251.079698,4283,1772794251,79591220,,-0.11855364552459988,0.0,1.0,1.3240740740740742,0.02857142857142857,-0.01301775147928994
1772794251.080713,4284,1772794251,80591546,,-0.1778304682868998,0.02808199943836001,0.2,1.25,-0.05,-0.01301775147928994
1772794251.0816824,4285,1772794251,81591678,,-0.1778304682868998,0.02808199943836001,0.2,1.25,-0.05,-0.01301775147928994
1772794251.0826929,4286,1772794251,82592369,,-0.1778304682868998,0.02808199943836001,0.2,1.25,-0.05,-0.01301775147928994
1772794251.0838232,4287,1772794251,83640856,,-0.11855364552459988,0.02808199943836001,0.2,0.8518518518518519,0.11428571428571428,-0.009467455621301775
1772794251.0847075,4288,1772794251,84619722,,-0.11855364552459988,0.02808199943836001,0.2,0.8518518518518519,0.11428571428571428,-0.009467455621301775
1772794251.0857012,4289,1772794251,85599223,,-0.05927682276229994,0.0,1.2,0.7129629629629629,0.2357142857142857,0.0
1772794251.086729,4290,1772794251,86628359,,-0.0889152341434499,0.05616399887672002,0.9,0.6574074074074074,0.17142857142857143,0.009467455621301775
1772794251.0877588,4291,1772794251,87629001,,-0.0889152341434499,0.05616399887672002,0.9,0.6574074074074074,0.17142857142857143,0.009467455621301775
1772794251.088752,4292,1772794251,88602569,,-0.11855364552459988,0.02808199943836001,0.3,0.2222222222222222,0.2,0.0035502958579881655
1772794251.089729,4293,1772794251,89595141,,-0.11855364552459988,0.0,0.4,0.1574074074074074,0.22857142857142856,-0.0035502958579881655
1772794251.0907412,4294,1772794251,90593876,,-0.11855364552459988,0.0,0.4,0.1574074074074074,0.22857142857142856,-0.0035502958579881655
1772794251.0916839,4295,1772794251,91591774,,-0.11855364552459988,0.0,0.4,0.1574074074074074,0.22857142857142856,-0.0035502958579881655
1772794251.0926888,4296,1772794251,92591713,,-0.1778304682868998,0.0,0.7,-0.08333333333333333,0.15,0.001183431952662722
1772794251.093743,4297,1772794251,93591731,,-0.0889152341434499,-0.05616399887672002,0.9,-0.07407407407407407,0.17857142857142858,0.008284023668639054
1772794251.0947075,4298,1772794251,94594266,,-0.0889152341434499,-0.05616399887672002,0.9,-0.07407407407407407,0.17857142857142858,0.008284023668639054
1772794251.0957162,4299,1772794251,95611804,,-0.0889152341434499,-0.05616399887672002,0.9,-0.07407407407407407,0.17857142857142858,0.008284023668639054
1772794251.096666,4300,1772794251,96595814,,-0.02963841138114997,-0.08424599831508003,0.9,0.07407407407407407,0.2,0.002366863905325444
1772794251.0976863,4301,1772794251,97588859,,-0.02963841138114997,-0.08424599831508003,0.9,0.07407407407407407,0.2,0.002366863905325444
1772794251.0986521,4302,1772794251,98588083,,0.0,-0.05616399887672002,1.2,0.3333333333333333,0.07142857142857142,0.002366863905325444
1772794251.099684,4303,1772794251,99589613,,0.0,-0.05616399887672002,1.2,0.3333333333333333,0.07142857142857142,0.002366863905325444
1772794251.100647,4304,1772794251,100588457,,0.02963841138114997,-0.02808199943836001,-0.1,0.06481481481481481,0.15,0.001183431952662722
1772794251.1016958,4305,1772794251,101593662,,0.02963841138114997,-0.02808199943836001,-0.1,0.06481481481481481,0.15,0.001183431952662722
1772794251.1026516,4306,1772794251,102589372,,0.0,-0.02808199943836001,0.6,0.3055555555555556,0.09285714285714286,-0.002366863905325444
1772794251.1036394,4307,1772794251,103588465,,0.0,-0.02808199943836001,0.6,0.3055555555555556,0.09285714285714286,-0.002366863905325444
1772794251.1046617,4308,1772794251,104589227,,-0.02963841138114997,-0.08424599831508003,0.8,0.7777777777777778,0.02142857142857143,-0.011834319526627219
1772794251.105683,4309,1772794251,105591604,,0.0,-0.08424599831508003,0.4,0.9629629629629629,0.09285714285714286,-0.0035502958579881655
1772794251.1066875,4310,1772794251,106590942,,0.0,-0.08424599831508003,0.4,0.9629629629629629,0.09285714285714286,-0.0035502958579881655
1772794251.107683,4311,1772794251,107591898,,0.0,-0.08424599831508003,0.4,0.9629629629629629,0.09285714285714286,-0.0035502958579881655
1772794251.1086519,4312,1772794251,108590370,,0.0,-0.11232799775344005,0.5,1.1666666666666667,0.14285714285714285,-0.014201183431952662
1772794251.109649,4313,1772794251,109589467,,0.0,-0.11232799775344005,0.5,1.1666666666666667,0.14285714285714285,-0.014201183431952662
1772794251.110661,4314,1772794251,110590015,,-0.05927682276229994,-0.08424599831508003,0.3,1.1759259259259258,0.08571428571428572,-0.014201183431952662
1772794251.1117108,4315,1772794251,111590734,,-0.05927682276229994,-0.08424599831508003,0.3,1.1759259259259258,0.08571428571428572,-0.014201183431952662
1772794251.1126554,4316,1772794251,112590376,,-0.0889152341434499,0.02808199943836001,0.3,1.3981481481481481,0.12857142857142856,-0.010650887573964497
1772794251.1136656,4317,1772794251,113590257,,-0.02963841138114997,-0.02808199943836001,0.8,1.5648148148148149,0.2642857142857143,-0.01301775147928994
1772794251.1146524,4318,1772794251,114589120,,-0.02963841138114997,-0.02808199943836001,0.8,1.5648148148148149,0.2642857142857143,-0.01301775147928994
1772794251.115654,4319,1772794251,115589621,,-0.02963841138114997,-0.02808199943836001,0.8,1.5648148148148149,0.2642857142857143,-0.01301775147928994
1772794251.1166656,4320,1772794251,116589644,,-0.02963841138114997,-0.02808199943836001,0.8,1.5648148148148149,0.2642857142857143,-0.01301775147928994
1772794251.1176624,4321,1772794251,117591070,,0.0,0.0,1.0,1.6574074074074074,0.32142857142857145,-0.014201183431952662
1772794251.1187701,4322,1772794251,118590903,,-0.02963841138114997,-0.02808199943836001,1.7,2.037037037037037,0.30714285714285716,-0.014201183431952662
1772794251.1196895,4323,1772794251,119591518,,-0.02963841138114997,-0.02808199943836001,1.7,2.037037037037037,0.30714285714285716,-0.014201183431952662
1772794251.1206636,4324,1772794251,120591669,,-0.02963841138114997,-0.02808199943836001,1.7,2.064814814814815,0.2785714285714286,-0.014201183431952662
1772794251.121663,4325,1772794251,121590986,,-0.02963841138114997,-0.02808199943836001,1.7,2.064814814814815,0.2785714285714286,-0.014201183431952662
1772794251.1226828,4326,1772794251,122591197,,-0.0889152341434499,0.05616399887672002,2.0,1.9166666666666667,0.36428571428571427,-0.015384615384615385
1772794251.1236923,4327,1772794251,123592938,,-0.0889152341434499,0.05616399887672002,2.0,1.9166666666666667,0.36428571428571427,-0.015384615384615385
1772794251.124747,4328,1772794251,124593724,,-0.0889152341434499,0.05616399887672002,1.8,1.7037037037037037,0.32857142857142857,-0.005917159763313609
1772794251.1257026,4329,1772794251,125593306,,-0.0889152341434499,0.05616399887672002,1.8,1.7037037037037037,0.32857142857142857,-0.005917159763313609
1772794251.1266873,4330,1772794251,126593790,,-0.0889152341434499,0.02808199943836001,1.9,1.4444444444444444,0.25,-0.011834319526627219
1772794251.1276832,4331,1772794251,127593549,,-0.0889152341434499,0.02808199943836001,1.9,1.4444444444444444,0.25,-0.011834319526627219
1772794251.1286795,4332,1772794251,128592289,,-0.0889152341434499,0.02808199943836001,2.6,1.537037037037037,0.12142857142857143,-0.004733727810650888
1772794251.1296656,4333,1772794251,129589331,,-0.0889152341434499,0.02808199943836001,2.6,1.537037037037037,0.12142857142857143,-0.004733727810650888
1772794251.1306412,4334,1772794251,130588202,,-0.0889152341434499,0.02808199943836001,2.6,1.537037037037037,0.12142857142857143,-0.004733727810650888
1772794251.1316364,4335,1772794251,131587761,,-0.05927682276229994,0.0,2.7,1.3333333333333333,0.09285714285714286,0.001183431952662722
1772794251.132685,4336,1772794251,132596708,,-0.05927682276229994,0.0,2.7,1.3333333333333333,0.09285714285714286,0.001183431952662722
1772794251.1336758,4337,1772794251,133589991,,-0.02963841138114997,0.0,2.0,1.1018518518518519,0.05714285714285714,-0.001183431952662722
1772794251.1346374,4338,1772794251,134589137,,-0.11855364552459988,0.02808199943836001,1.8,0.8888888888888888,-0.014285714285714285,-0.005917159763313609
1772794251.1356342,4339,1772794251,135587743,,-0.11855364552459988,0.02808199943836001,1.8,0.8888888888888888,-0.014285714285714285,-0.005917159763313609
1772794251.1367092,4340,1772794251,136592796,,-0.02963841138114997,0.08424599831508003,2.2,0.7777777777777778,-0.02857142857142857,-0.001183431952662722
1772794251.1376534,4341,1772794251,137600434,,-0.02963841138114997,0.08424599831508003,2.2,0.7777777777777778,-0.02857142857142857,-0.001183431952662722
1772794251.1386511,4342,1772794251,138594057,,0.0,0.0,1.7,0.6111111111111112,-0.05714285714285714,0.001183431952662722
1772794251.1396441,4343,1772794251,139590349,,-0.05927682276229994,0.0,1.9,0.49074074074074076,-0.12142857142857143,-0.002366863905325444
1772794251.1407619,4344,1772794251,140589443,,-0.05927682276229994,0.0,1.9,0.49074074074074076,-0.12142857142857143,-0.002366863905325444
1772794251.141656,4345,1772794251,141589346,,-0.05927682276229994,0.0,1.9,0.49074074074074076,-0.12142857142857143,-0.002366863905325444
1772794251.1426525,4346,1772794251,142591857,,-0.02963841138114997,-0.02808199943836001,2.0,0.3888888888888889,-0.03571428571428571,0.001183431952662722
1772794251.1436546,4347,1772794251,143590958,,0.02963841138114997,0.02808199943836001,1.1,0.32407407407407407,-0.014285714285714285,0.001183431952662722
1772794251.1446729,4348,1772794251,144590386,,0.02963841138114997,0.02808199943836001,1.1,0.32407407407407407,-0.014285714285714285,0.001183431952662722
1772794251.1456563,4349,1772794251,145591270,,0.02963841138114997,0.02808199943836001,1.1,0.32407407407407407,-0.014285714285714285,0.001183431952662722
1772794251.1466563,4350,1772794251,146590702,,0.02963841138114997,0.02808199943836001,1.1,0.32407407407407407,-0.014285714285714285,0.001183431952662722
1772794251.1476588,4351,1772794251,147592030,,-0.02963841138114997,0.0,1.6,0.2962962962962963,-0.02857142857142857,-0.0035502958579881655
1772794251.1486757,4352,1772794251,148591747,,-0.02963841138114997,0.05616399887672002,1.3,0.4351851851851852,0.07142857142857142,-0.0035502958579881655
1772794251.1496654,4353,1772794251,149591513,,-0.02963841138114997,0.05616399887672002,1.3,0.4351851851851852,0.07142857142857142,-0.0035502958579881655
1772794251.1506665,4354,1772794251,150591834,,-0.02963841138114997,0.05616399887672002,1.3,0.4351851851851852,0.07142857142857142,-0.0035502958579881655
1772794251.1516914,4355,1772794251,151593432,,0.02963841138114997,0.0,1.1,0.49074074074074076,0.10714285714285714,-0.001183431952662722
1772794251.1526744,4356,1772794251,152593428,,0.02963841138114997,-0.05616399887672002,1.2,0.8703703703703703,0.15714285714285714,-0.004733727810650888
1772794251.1536772,4357,1772794251,153591909,,0.02963841138114997,-0.05616399887672002,1.2,0.8703703703703703,0.15714285714285714,-0.004733727810650888
1772794251.1546786,4358,1772794251,154594639,,-0.11855364552459988,-0.05616399887672002,1.2,1.0277777777777777,0.04285714285714286,-0.005917159763313609
1772794251.15568,4359,1772794251,155594234,,-0.1778304682868998,-0.02808199943836001,0.7,1.037037037037037,-0.014285714285714285,-0.010650887573964497
1772794251.1566763,4360,1772794251,156593033,,-0.1778304682868998,-0.02808199943836001,0.7,1.037037037037037,-0.014285714285714285,-0.010650887573964497
1772794251.1577284,4361,1772794251,157594375,,-0.1778304682868998,-0.02808199943836001,0.7,1.037037037037037,-0.014285714285714285,-0.010650887573964497
1772794251.1586945,4362,1772794251,158595555,,-0.02963841138114997,0.0,0.3,0.9537037037037037,0.11428571428571428,-0.007100591715976331
1772794251.159692,4363,1772794251,159595251,,-0.02963841138114997,0.02808199943836001,0.0,1.1851851851851851,0.1,-0.005917159763313609
1772794251.1607091,4364,1772794251,160594014,,-0.02963841138114997,0.02808199943836001,0.0,1.1851851851851851,0.1,-0.005917159763313609
1772794251.1618106,4365,1772794251,161594381,,-0.02963841138114997,0.02808199943836001,0.0,1.1851851851851851,0.1,-0.005917159763313609
1772794251.162706,4366,1772794251,162597356,,-0.02963841138114997,-0.05616399887672002,0.8,1.2685185185185186,0.14285714285714285,-0.004733727810650888
1772794251.1637058,4367,1772794251,163595132,,-0.02963841138114997,-0.05616399887672002,0.8,1.2685185185185186,0.14285714285714285,-0.004733727810650888
1772794251.164709,4368,1772794251,164595919,,-0.05927682276229994,0.0,0.3,1.4166666666666667,0.04285714285714286,-0.002366863905325444
1772794251.1656888,4369,1772794251,165593200,,-0.05927682276229994,0.0,0.3,1.4166666666666667,0.04285714285714286,-0.002366863905325444
1772794251.166674,4370,1772794251,166590683,,-0.05927682276229994,0.0,0.3,1.4166666666666667,0.04285714285714286,-0.002366863905325444
1772794251.1677713,4371,1772794251,167591154,,-0.0889152341434499,-0.02808199943836001,0.5,1.3703703703703705,0.08571428571428572,-0.0035502958579881655
1772794251.1687472,4372,1772794251,168591071,,-0.0889152341434499,-0.02808199943836001,0.8,1.287037037037037,0.14285714285714285,-0.007100591715976331
1772794251.1697435,4373,1772794251,169589615,,-0.0889152341434499,-0.02808199943836001,0.8,1.287037037037037,0.14285714285714285,-0.007100591715976331
1772794251.1707184,4374,1772794251,170589213,,-0.0889152341434499,-0.02808199943836001,0.6,1.4074074074074074,0.07142857142857142,-0.005917159763313609
1772794251.1716933,4375,1772794251,171586787,,-0.0889152341434499,-0.02808199943836001,0.6,1.4074074074074074,0.07142857142857142,-0.005917159763313609
1772794251.172741,4376,1772794251,172586495,,-0.0889152341434499,0.02808199943836001,-0.1,1.3888888888888888,0.07857142857142857,-0.01301775147928994
1772794251.1737964,4377,1772794251,173592608,,-0.0889152341434499,0.02808199943836001,-0.1,1.3888888888888888,0.07857142857142857,-0.01301775147928994
1772794251.1747556,4378,1772794251,174586663,,-0.02963841138114997,0.0,1.5,1.2037037037037037,0.06428571428571428,-0.007100591715976331
1772794251.1757567,4379,1772794251,175584472,,-0.02963841138114997,0.0,1.5,1.2037037037037037,0.06428571428571428,-0.007100591715976331
1772794251.1767523,4380,1772794251,176585376,,-0.02963841138114997,0.0,1.4,1.0648148148148149,0.10714285714285714,-0.008284023668639054
1772794251.1776805,4381,1772794251,177585444,,-0.02963841138114997,0.0,1.4,1.0648148148148149,0.10714285714285714,-0.008284023668639054
1772794251.1787305,4382,1772794251,178585865,,-0.02963841138114997,-0.05616399887672002,2.3,0.9074074074074074,0.16428571428571428,-0.001183431952662722
1772794251.1797056,4383,1772794251,179585903,,-0.02963841138114997,-0.05616399887672002,2.3,0.9074074074074074,0.16428571428571428,-0.001183431952662722
1772794251.1807272,4384,1772794251,180585117,,-0.02963841138114997,-0.05616399887672002,2.3,0.9074074074074074,0.16428571428571428,-0.001183431952662722
1772794251.181772,4385,1772794251,181585824,,0.0,0.02808199943836001,1.1,0.7962962962962963,0.14285714285714285,0.005917159763313609
1772794251.1828187,4386,1772794251,182586065,,0.0,0.02808199943836001,1.1,0.7962962962962963,0.14285714285714285,0.005917159763313609
1772794251.1838033,4387,1772794251,183587042,,-0.02963841138114997,0.08424599831508003,1.5,0.6018518518518519,0.05714285714285714,-0.004733727810650888
1772794251.1846936,4388,1772794251,184587405,,-0.02963841138114997,-0.02808199943836001,0.5,0.18518518518518517,0.17857142857142858,-0.011834319526627219
1772794251.1857448,4389,1772794251,185587323,,-0.02963841138114997,-0.02808199943836001,0.5,0.18518518518518517,0.17857142857142858,-0.011834319526627219
1772794251.1867738,4390,1772794251,186588299,,-0.0889152341434499,-0.02808199943836001,0.7,0.28703703703703703,0.16428571428571428,-0.015384615384615385
1772794251.187805,4391,1772794251,187588182,,-0.02963841138114997,0.05616399887672002,-0.1,0.2962962962962963,0.11428571428571428,-0.01301775147928994
1772794251.188822,4392,1772794251,188588547,,-0.02963841138114997,0.05616399887672002,-0.1,0.2962962962962963,0.11428571428571428,-0.01301775147928994
1772794251.1898332,4393,1772794251,189589311,,-0.02963841138114997,0.05616399887672002,-0.1,0.2962962962962963,0.11428571428571428,-0.01301775147928994
1772794251.190733,4394,1772794251,190589779,,0.0,0.05616399887672002,0.7,0.05555555555555555,0.15714285714285714,-0.014201183431952662
1772794251.1918356,4395,1772794251,191589988,,-0.02963841138114997,0.02808199943836001,0.2,-0.08333333333333333,0.15714285714285714,-0.015384615384615385
1772794251.192852,4396,1772794251,192613819,,-0.02963841138114997,0.02808199943836001,0.2,-0.08333333333333333,0.15714285714285714,-0.015384615384615385
1772794251.193816,4397,1772794251,193590722,,-0.02963841138114997,0.02808199943836001,0.2,-0.08333333333333333,0.15714285714285714,-0.015384615384615385
1772794251.1948457,4398,1772794251,194589891,,-0.02963841138114997,0.02808199943836001,0.2,-0.08333333333333333,0.15714285714285714,-0.015384615384615385
1772794251.1959546,4399,1772794251,195601875,,0.0,0.0,0.8,0.26851851851851855,0.15714285714285714,-0.010650887573964497
1772794251.1968107,4400,1772794251,196593884,,-0.0889152341434499,-0.02808199943836001,0.8,0.3148148148148148,0.05714285714285714,-0.009467455621301775
1772794251.1977658,4401,1772794251,197591490,,-0.0889152341434499,-0.02808199943836001,0.8,0.3148148148148148,0.05714285714285714,-0.009467455621301775
1772794251.1987598,4402,1772794251,198591901,,-0.0889152341434499,-0.02808199943836001,0.8,0.3148148148148148,0.05714285714285714,-0.009467455621301775
1772794251.199875,4403,1772794251,199591594,,-0.02963841138114997,-0.05616399887672002,0.4,0.3611111111111111,0.05714285714285714,-0.005917159763313609
1772794251.2008688,4404,1772794251,200590607,,0.0,-0.02808199943836001,0.9,0.7592592592592593,0.1,-0.007100591715976331
1772794251.2018394,4405,1772794251,201590040,,0.0,-0.02808199943836001,0.9,0.7592592592592593,0.1,-0.007100591715976331
1772794251.2028213,4406,1772794251,202589845,,0.0,0.02808199943836001,1.1,0.9814814814814815,0.1,-0.007100591715976331
1772794251.203674,4407,1772794251,203587726,,0.0,0.02808199943836001,1.1,0.9814814814814815,0.1,-0.007100591715976331
1772794251.204725,4408,1772794251,204586588,,0.0,0.0,0.1,0.9722222222222222,0.09285714285714286,-0.0035502958579881655
1772794251.2057643,4409,1772794251,205584991,,0.0,0.0,0.1,0.9722222222222222,0.09285714285714286,-0.0035502958579881655
1772794251.2067513,4410,1772794251,206584949,,-0.0889152341434499,-0.02808199943836001,1.1,1.2222222222222223,0.02857142857142857,-0.0035502958579881655
1772794251.2076492,4411,1772794251,207583898,,-0.0889152341434499,-0.02808199943836001,1.1,1.2222222222222223,0.02857142857142857,-0.0035502958579881655
1772794251.2086532,4412,1772794251,208584783,,-0.02963841138114997,0.0,1.1,1.4537037037037037,0.05714285714285714,-0.004733727810650888
1772794251.2097497,4413,1772794251,209575521,,-0.02963841138114997,0.0,1.1,1.4537037037037037,0.05714285714285714,-0.004733727810650888
1772794251.210796,4414,1772794251,210586290,,-0.02963841138114997,0.0,1.1,1.4537037037037037,0.05714285714285714,-0.004733727810650888
1772794251.2117867,4415,1772794251,211597258,,-0.05927682276229994,0.05616399887672002,1.3,1.5092592592592593,0.07857142857142857,0.0
1772794251.2127607,4416,1772794251,212588178,,0.0,0.0,1.4,1.712962962962963,0.10714285714285714,0.0
1772794251.213696,4417,1772794251,213587317,,0.0,0.0,1.4,1.712962962962963,0.10714285714285714,0.0
1772794251.2146988,4418,1772794251,214587686,,0.0,0.0,1.4,1.712962962962963,0.10714285714285714,0.0
1772794251.2158124,4419,1772794251,215588823,,-0.05927682276229994,0.0,1.2,1.6203703703703705,0.17857142857142858,-0.009467455621301775
1772794251.2167735,4420,1772794251,216616414,,-0.0889152341434499,-0.02808199943836001,1.8,1.6759259259259258,0.12857142857142856,-0.010650887573964497
1772794251.2178302,4421,1772794251,217590237,,-0.0889152341434499,-0.02808199943836001,1.8,1.6759259259259258,0.12857142857142856,-0.010650887573964497
1772794251.218849,4422,1772794251,218590108,,-0.0889152341434499,0.0,1.7,1.8425925925925926,0.20714285714285716,-0.004733727810650888
1772794251.2198696,4423,1772794251,219590141,,-0.0889152341434499,0.0,1.7,1.8425925925925926,0.20714285714285716,-0.004733727810650888
1772794251.2208338,4424,1772794251,220591215,,-0.11855364552459988,0.02808199943836001,1.4,1.6481481481481481,0.15714285714285714,0.0
1772794251.2218482,4425,1772794251,221592035,,-0.11855364552459988,0.02808199943836001,1.4,1.6481481481481481,0.15714285714285714,0.0
1772794251.2229173,4426,1772794251,222593201,,-0.02963841138114997,0.0,1.2,1.3425925925925926,0.3,0.004733727810650888
1772794251.2238312,4427,1772794251,223591973,,-0.02963841138114997,0.0,1.2,1.3425925925925926,0.3,0.004733727810650888
1772794251.2248821,4428,1772794251,224594792,,-0.02963841138114997,0.02808199943836001,1.4,1.2777777777777777,0.36428571428571427,0.005917159763313609
1772794251.2258952,4429,1772794251,225593436,,-0.02963841138114997,0.02808199943836001,1.4,1.2777777777777777,0.36428571428571427,0.005917159763313609
1772794251.2267985,4430,1772794251,226596487,,-0.02963841138114997,0.02808199943836001,1.4,1.2777777777777777,0.36428571428571427,0.005917159763313609
1772794251.22772,4431,1772794251,227597707,,-0.02963841138114997,0.0,1.3,0.9814814814814815,0.3357142857142857,0.0035502958579881655
1772794251.2287025,4432,1772794251,228596022,,-0.02963841138114997,0.0,1.3,0.9814814814814815,0.3357142857142857,0.0035502958579881655
1772794251.2297325,4433,1772794251,229595677,,-0.0889152341434499,0.02808199943836001,1.2,1.0833333333333333,0.21428571428571427,0.002366863905325444
1772794251.2307022,4434,1772794251,230595336,,-0.0889152341434499,0.02808199943836001,1.1,0.9166666666666666,0.22857142857142856,-0.002366863905325444
1772794251.2317078,4435,1772794251,231595224,,-0.0889152341434499,0.02808199943836001,1.1,0.9166666666666666,0.22857142857142856,-0.002366863905325444
1772794251.2327101,4436,1772794251,232596678,,-0.0889152341434499,0.05616399887672002,1.4,0.5185185185185185,0.22142857142857142,-0.002366863905325444
1772794251.2337139,4437,1772794251,233595114,,-0.0889152341434499,0.05616399887672002,1.4,0.5185185185185185,0.22142857142857142,-0.002366863905325444
1772794251.2347257,4438,1772794251,234617694,,-0.0889152341434499,0.02808199943836001,1.5,0.37037037037037035,0.09285714285714286,-0.005917159763313609
1772794251.2356915,4439,1772794251,235592591,,-0.0889152341434499,0.02808199943836001,1.5,0.37037037037037035,0.09285714285714286,-0.005917159763313609
1772794251.2367115,4440,1772794251,236617913,,-0.05927682276229994,0.05616399887672002,1.8,0.3055555555555556,-0.03571428571428571,-0.005917159763313609
1772794251.2376585,4441,1772794251,237589390,,-0.05927682276229994,0.05616399887672002,1.8,0.3055555555555556,-0.03571428571428571,-0.005917159763313609
1772794251.2386434,4442,1772794251,238588093,,-0.05927682276229994,0.02808199943836001,0.9,0.17592592592592593,0.014285714285714285,-0.004733727810650888
1772794251.2396808,4443,1772794251,239588227,,-0.05927682276229994,0.02808199943836001,0.9,0.17592592592592593,0.014285714285714285,-0.004733727810650888
1772794251.2406228,4444,1772794251,240586052,,0.0,0.05616399887672002,1.4,0.19444444444444445,-0.11428571428571428,0.005917159763313609
1772794251.2416265,4445,1772794251,241585434,,0.0,0.05616399887672002,1.4,0.19444444444444445,-0.11428571428571428,0.005917159763313609
1772794251.2426312,4446,1772794251,242586071,,0.0,0.05616399887672002,1.4,0.19444444444444445,-0.11428571428571428,0.005917159763313609
1772794251.243629,4447,1772794251,243586591,,0.0,0.02808199943836001,0.7,0.037037037037037035,-0.1357142857142857,-0.002366863905325444
1772794251.2446277,4448,1772794251,244586788,,0.0,0.02808199943836001,0.7,0.037037037037037035,-0.1357142857142857,-0.002366863905325444
1772794251.2456656,4449,1772794251,245597010,,-0.02963841138114997,-0.02808199943836001,0.1,-0.046296296296296294,-0.1,-0.0035502958579881655
1772794251.246651,4450,1772794251,246589199,,-0.02963841138114997,-0.02808199943836001,0.1,-0.046296296296296294,-0.1,-0.0035502958579881655
1772794251.2476432,4451,1772794251,247589174,,0.0,0.0,1.5,0.37962962962962965,-0.08571428571428572,0.001183431952662722
1772794251.2487302,4452,1772794251,248590056,,-0.02963841138114997,0.02808199943836001,1.5,0.5092592592592593,-0.16428571428571428,0.004733727810650888
1772794251.2496514,4453,1772794251,249591543,,-0.02963841138114997,0.02808199943836001,1.5,0.5092592592592593,-0.16428571428571428,0.004733727810650888
1772794251.2506557,4454,1772794251,250591849,,0.0,-0.02808199943836001,1.5,0.75,-0.06428571428571428,-0.001183431952662722
1772794251.2516675,4455,1772794251,251590764,,0.0,-0.02808199943836001,1.5,0.75,-0.06428571428571428,-0.001183431952662722
1772794251.2527022,4456,1772794251,252593686,,-0.05927682276229994,-0.08424599831508003,0.3,0.6203703703703703,0.007142857142857143,-0.008284023668639054
1772794251.2536907,4457,1772794251,253592823,,-0.05927682276229994,-0.08424599831508003,0.3,0.6203703703703703,0.007142857142857143,-0.008284023668639054
1772794251.254673,4458,1772794251,254595069,,-0.02963841138114997,-0.02808199943836001,1.6,0.8148148148148148,-0.007142857142857143,-0.010650887573964497
1772794251.2557237,4459,1772794251,255594851,,-0.02963841138114997,-0.02808199943836001,1.6,0.8148148148148148,-0.007142857142857143,-0.010650887573964497
1772794251.25671,4460,1772794251,256595622,,-0.02963841138114997,-0.02808199943836001,1.6,0.8148148148148148,-0.007142857142857143,-0.010650887573964497
1772794251.2576845,4461,1772794251,257595692,,-0.05927682276229994,-0.02808199943836001,1.2,1.0277777777777777,0.007142857142857143,-0.005917159763313609
1772794251.2587185,4462,1772794251,258596363,,-0.05927682276229994,-0.02808199943836001,1.2,1.0277777777777777,0.007142857142857143,-0.005917159763313609
1772794251.2597017,4463,1772794251,259597010,,0.0,-0.02808199943836001,0.5,1.0740740740740742,0.14285714285714285,0.002366863905325444
1772794251.2607546,4464,1772794251,260597178,,0.0,-0.02808199943836001,1.2,1.3703703703703705,0.05,0.002366863905325444
1772794251.261738,4465,1772794251,261597895,,0.0,-0.02808199943836001,1.2,1.3703703703703705,0.05,0.002366863905325444
1772794251.2627373,4466,1772794251,262598562,,-0.05927682276229994,-0.02808199943836001,1.4,1.5740740740740742,0.014285714285714285,0.0
1772794251.2637072,4467,1772794251,263596964,,-0.05927682276229994,-0.02808199943836001,1.4,1.5740740740740742,0.014285714285714285,0.0
1772794251.2647157,4468,1772794251,264601044,,-0.05927682276229994,-0.02808199943836001,1.0,1.5462962962962963,0.014285714285714285,0.002366863905325444
1772794251.2657409,4469,1772794251,265599057,,-0.05927682276229994,-0.02808199943836001,1.0,1.5462962962962963,0.014285714285714285,0.002366863905325444
1772794251.2667217,4470,1772794251,266600773,,-0.02963841138114997,-0.02808199943836001,1.4,1.4259259259259258,0.014285714285714285,-0.009467455621301775
1772794251.267712,4471,1772794251,267597049,,-0.02963841138114997,-0.02808199943836001,1.4,1.4259259259259258,0.014285714285714285,-0.009467455621301775
1772794251.2687376,4472,1772794251,268598867,,-0.0889152341434499,-0.02808199943836001,0.4,1.2037037037037037,0.1,-0.01301775147928994
1772794251.2697341,4473,1772794251,269596767,,-0.0889152341434499,-0.02808199943836001,0.4,1.2037037037037037,0.1,-0.01301775147928994
1772794251.270808,4474,1772794251,270622905,,-0.0889152341434499,-0.02808199943836001,0.4,1.2037037037037037,0.1,-0.01301775147928994
1772794251.2717226,4475,1772794251,271596007,,-0.0889152341434499,0.05616399887672002,1.3,1.6296296296296295,-0.15714285714285714,-0.007100591715976331
1772794251.272824,4476,1772794251,272592375,,-0.0889152341434499,0.05616399887672002,1.3,1.6296296296296295,-0.15714285714285714,-0.007100591715976331
1772794251.2737973,4477,1772794251,273593340,,-0.02963841138114997,0.02808199943836001,1.0,1.2314814814814814,-0.05,-0.008284023668639054
1772794251.2748013,4478,1772794251,274592534,,-0.02963841138114997,0.02808199943836001,1.0,1.2314814814814814,-0.05,-0.008284023668639054
1772794251.2757027,4479,1772794251,275594657,,-0.05927682276229994,0.05616399887672002,1.2,1.1574074074074074,-0.007142857142857143,-0.010650887573964497
1772794251.2768376,4480,1772794251,276592862,,-0.0889152341434499,-0.02808199943836001,0.2,0.8796296296296297,0.0,-0.007100591715976331
1772794251.2778506,4481,1772794251,277591586,,-0.0889152341434499,-0.02808199943836001,0.2,0.8796296296296297,0.0,-0.007100591715976331
1772794251.2788544,4482,1772794251,278592668,,-0.05927682276229994,0.02808199943836001,-0.1,0.6759259259259259,0.02857142857142857,-0.004733727810650888
1772794251.2798645,4483,1772794251,279590425,,-0.05927682276229994,0.02808199943836001,-0.1,0.6759259259259259,0.02857142857142857,-0.004733727810650888
1772794251.2807457,4484,1772794251,280592058,,-0.02963841138114997,0.0,0.5,0.3888888888888889,0.12142857142857143,-0.004733727810650888
1772794251.2818758,4485,1772794251,281589776,,-0.02963841138114997,0.0,0.5,0.3888888888888889,0.12142857142857143,-0.004733727810650888
1772794251.2828565,4486,1772794251,282620546,,0.02963841138114997,-0.02808199943836001,1.4,0.37037037037037035,0.06428571428571428,-0.004733727810650888
1772794251.2838392,4487,1772794251,283589492,,0.02963841138114997,-0.02808199943836001,1.4,0.37037037037037035,0.06428571428571428,-0.004733727810650888
1772794251.284854,4488,1772794251,284591785,,0.0,0.02808199943836001,1.0,0.14814814814814814,0.10714285714285714,-0.010650887573964497
1772794251.2858381,4489,1772794251,285591492,,0.0,0.02808199943836001,1.0,0.14814814814814814,0.10714285714285714,-0.010650887573964497
1772794251.286822,4490,1772794251,286591345,,0.0,0.02808199943836001,1.0,0.14814814814814814,0.10714285714285714,-0.010650887573964497
1772794251.2878258,4491,1772794251,287600371,,-0.05927682276229994,0.05616399887672002,1.4,0.05555555555555555,0.03571428571428571,-0.005917159763313609
1772794251.2888365,4492,1772794251,288596076,,-0.05927682276229994,0.05616399887672002,1.4,0.05555555555555555,0.03571428571428571,-0.005917159763313609
1772794251.2898622,4493,1772794251,289594927,,-0.11855364552459988,-0.02808199943836001,1.2,-0.09259259259259259,-0.014285714285714285,-0.001183431952662722
1772794251.2908812,4494,1772794251,290594154,,-0.11855364552459988,-0.02808199943836001,1.2,-0.09259259259259259,-0.014285714285714285,-0.001183431952662722
1772794251.2919018,4495,1772794251,291599739,,0.0,-0.02808199943836001,0.9,-0.28703703703703703,0.02142857142857143,0.001183431952662722
1772794251.2929075,4496,1772794251,292625129,,0.05927682276229994,-0.02808199943836001,1.9,-0.05555555555555555,0.007142857142857143,0.0
1772794251.2939901,4497,1772794251,293599785,,0.05927682276229994,-0.02808199943836001,1.9,-0.05555555555555555,0.007142857142857143,0.0
1772794251.2949078,4498,1772794251,294598467,,0.05927682276229994,-0.02808199943836001,1.2,0.07407407407407407,-0.07142857142857142,-0.002366863905325444
1772794251.2958024,4499,1772794251,295575162,,0.05927682276229994,-0.02808199943836001,1.2,0.07407407407407407,-0.07142857142857142,-0.002366863905325444
1772794251.2968407,4500,1772794251,296600581,,0.0889152341434499,-0.05616399887672002,2.0,0.3055555555555556,-0.17142857142857143,-0.0035502958579881655
1772794251.2978442,4501,1772794251,297596386,,0.02963841138114997,0.02808199943836001,-0.2,0.23148148148148148,-0.2642857142857143,-0.007100591715976331
1772794251.29881,4502,1772794251,298593391,,0.02963841138114997,0.02808199943836001,-0.2,0.23148148148148148,-0.2642857142857143,-0.007100591715976331
1772794251.2997873,4503,1772794251,299596172,,0.02963841138114997,0.02808199943836001,-0.2,0.23148148148148148,-0.2642857142857143,-0.007100591715976331
1772794251.3007298,4504,1772794251,300598967,,0.02963841138114997,0.0,-0.1,0.3148148148148148,-0.18571428571428572,-0.008284023668639054
1772794251.3017178,4505,1772794251,301600602,,0.0,0.02808199943836001,0.3,0.5462962962962963,-0.12857142857142856,-0.015384615384615385
1772794251.3027754,4506,1772794251,302598327,,0.0,0.02808199943836001,0.3,0.5462962962962963,-0.12857142857142856,-0.015384615384615385
1772794251.303766,4507,1772794251,303598769,,0.0,0.02808199943836001,0.3,0.5462962962962963,-0.12857142857142856,-0.015384615384615385
1772794251.304717,4508,1772794251,304599875,,0.0,0.02808199943836001,0.3,0.5462962962962963,-0.12857142857142856,-0.015384615384615385
1772794251.305716,4509,1772794251,305600521,,-0.02963841138114997,0.05616399887672002,-0.2,0.6481481481481481,-0.014285714285714285,-0.016568047337278107
1772794251.3067265,4510,1772794251,306565006,,-0.0889152341434499,0.05616399887672002,0.5,1.1851851851851851,-0.12857142857142856,-0.014201183431952662
1772794251.3077085,4511,1772794251,307596712,,-0.0889152341434499,0.05616399887672002,0.5,1.1851851851851851,-0.12857142857142856,-0.014201183431952662
1772794251.3087025,4512,1772794251,308596756,,-0.05927682276229994,0.02808199943836001,1.2,1.3981481481481481,0.05714285714285714,-0.008284023668639054
1772794251.309746,4513,1772794251,309593355,,-0.05927682276229994,0.02808199943836001,1.2,1.3981481481481481,0.05714285714285714,-0.008284023668639054
1772794251.3106854,4514,1772794251,310592787,,0.0,-0.02808199943836001,1.2,1.5185185185185186,0.14285714285714285,-0.014201183431952662
1772794251.3116777,4515,1772794251,311590434,,0.0,-0.02808199943836001,1.2,1.5185185185185186,0.14285714285714285,-0.014201183431952662
1772794251.3127248,4516,1772794251,312589713,,-0.02963841138114997,-0.02808199943836001,1.4,1.5185185185185186,0.1357142857142857,-0.01775147928994083
1772794251.3136647,4517,1772794251,313588386,,-0.02963841138114997,-0.02808199943836001,1.5,1.6388888888888888,0.09285714285714286,-0.021301775147928994
1772794251.3146548,4518,1772794251,314587706,,-0.02963841138114997,-0.02808199943836001,1.5,1.6388888888888888,0.09285714285714286,-0.021301775147928994
1772794251.3157866,4519,1772794251,315588972,,-0.02963841138114997,-0.02808199943836001,1.5,1.6388888888888888,0.09285714285714286,-0.021301775147928994
1772794251.3167014,4520,1772794251,316590002,,-0.05927682276229994,0.02808199943836001,1.5,1.7314814814814814,-0.02142857142857143,-0.014201183431952662
1772794251.3177307,4521,1772794251,317589023,,-0.0889152341434499,-0.02808199943836001,1.0,1.6944444444444444,0.03571428571428571,-0.011834319526627219
1772794251.3188815,4522,1772794251,318597375,,-0.0889152341434499,-0.02808199943836001,1.0,1.6944444444444444,0.03571428571428571,-0.011834319526627219
1772794251.3198197,4523,1772794251,319591096,,-0.0889152341434499,-0.02808199943836001,1.0,1.6944444444444444,0.03571428571428571,-0.011834319526627219
1772794251.3208904,4524,1772794251,320616483,,-0.02963841138114997,-0.05616399887672002,1.4,1.787037037037037,0.04285714285714286,-0.007100591715976331
1772794251.3217487,4525,1772794251,321591822,,-0.02963841138114997,-0.05616399887672002,1.4,1.787037037037037,0.04285714285714286,-0.007100591715976331
1772794251.3228624,4526,1772794251,322592763,,-0.02963841138114997,-0.05616399887672002,1.4,1.787037037037037,0.04285714285714286,-0.007100591715976331
1772794251.3239021,4527,1772794251,323595282,,-0.02963841138114997,-0.02808199943836001,2.1,1.962962962962963,0.05714285714285714,-0.005917159763313609
1772794251.324775,4528,1772794251,324596404,,-0.0889152341434499,-0.02808199943836001,1.5,1.7407407407407407,0.007142857142857143,-0.0035502958579881655
1772794251.3258896,4529,1772794251,325595260,,-0.0889152341434499,-0.02808199943836001,1.5,1.7407407407407407,0.007142857142857143,-0.0035502958579881655
1772794251.3268666,4530,1772794251,326594584,,-0.0889152341434499,-0.02808199943836001,1.5,1.7407407407407407,0.007142857142857143,-0.0035502958579881655
1772794251.327774,4531,1772794251,327583678,,-0.05927682276229994,-0.02808199943836001,1.9,1.6481481481481481,-0.05714285714285714,0.002366863905325444
1772794251.3288603,4532,1772794251,328598486,,-0.0889152341434499,0.02808199943836001,2.0,1.3888888888888888,-0.15,0.005917159763313609
1772794251.3298182,4533,1772794251,329593506,,-0.0889152341434499,0.02808199943836001,2.0,1.3888888888888888,-0.15,0.005917159763313609
1772794251.3308668,4534,1772794251,330594089,,-0.05927682276229994,0.02808199943836001,1.6,1.3518518518518519,-0.18571428571428572,0.0035502958579881655
1772794251.3318808,4535,1772794251,331593486,,-0.05927682276229994,0.02808199943836001,1.6,1.3518518518518519,-0.18571428571428572,0.0035502958579881655
1772794251.3328066,4536,1772794251,332595759,,-0.02963841138114997,0.02808199943836001,1.1,1.3425925925925926,-0.10714285714285714,-0.001183431952662722
1772794251.333859,4537,1772794251,333595660,,-0.02963841138114997,0.05616399887672002,2.0,1.3611111111111112,-0.12857142857142856,-0.001183431952662722
1772794251.3348308,4538,1772794251,334595063,,-0.02963841138114997,0.05616399887672002,2.0,1.3611111111111112,-0.12857142857142856,-0.001183431952662722
1772794251.3357143,4539,1772794251,335594028,,-0.02963841138114997,0.05616399887672002,2.0,1.3611111111111112,-0.12857142857142856,-0.001183431952662722
1772794251.3366935,4540,1772794251,336594002,,-0.02963841138114997,0.05616399887672002,2.0,1.3611111111111112,-0.12857142857142856,-0.001183431952662722
1772794251.3376822,4541,1772794251,337594415,,-0.05927682276229994,0.0,2.5,1.1388888888888888,-0.04285714285714286,0.004733727810650888
1772794251.3386874,4542,1772794251,338593814,,-0.05927682276229994,0.0,2.5,0.9814814814814815,0.0,0.001183431952662722
1772794251.3396983,4543,1772794251,339594240,,-0.05927682276229994,0.0,2.5,0.9814814814814815,0.0,0.001183431952662722
1772794251.3407078,4544,1772794251,340595318,,-0.05927682276229994,0.0,2.5,0.9814814814814815,0.0,0.001183431952662722
1772794251.3417003,4545,1772794251,341591913,,-0.0889152341434499,0.02808199943836001,1.6,0.8055555555555556,0.02142857142857143,-0.001183431952662722
1772794251.3427079,4546,1772794251,342602138,,0.0,0.02808199943836001,1.9,0.6203703703703703,0.02142857142857143,-0.001183431952662722
1772794251.3437147,4547,1772794251,343598143,,0.0,0.02808199943836001,1.9,0.6203703703703703,0.02142857142857143,-0.001183431952662722
1772794251.3447037,4548,1772794251,344598287,,0.0,0.0,1.5,0.3611111111111111,0.09285714285714286,-0.001183431952662722
1772794251.3456845,4549,1772794251,345594846,,0.0,0.0,1.5,0.3611111111111111,0.09285714285714286,-0.001183431952662722
1772794251.34668,4550,1772794251,346594923,,-0.0889152341434499,0.0,1.3,0.21296296296296297,-0.02142857142857143,-0.004733727810650888
1772794251.3476667,4551,1772794251,347592366,,-0.0889152341434499,0.0,1.3,0.21296296296296297,-0.02142857142857143,-0.004733727810650888
1772794251.3486557,4552,1772794251,348591621,,-0.02963841138114997,0.05616399887672002,0.8,0.037037037037037035,-0.03571428571428571,-0.0035502958579881655
1772794251.349658,4553,1772794251,349590131,,-0.05927682276229994,0.0,1.8,0.2777777777777778,-0.16428571428571428,-0.014201183431952662
1772794251.350655,4554,1772794251,350588586,,-0.05927682276229994,0.0,1.8,0.2777777777777778,-0.16428571428571428,-0.014201183431952662
1772794251.3516974,4555,1772794251,351587577,,-0.05927682276229994,0.0,1.8,0.2777777777777778,-0.16428571428571428,-0.014201183431952662
1772794251.3526545,4556,1772794251,352588967,,0.0,-0.02808199943836001,1.5,0.08333333333333333,-0.1357142857142857,-0.004733727810650888
1772794251.3536627,4557,1772794251,353588451,,0.0,-0.02808199943836001,1.5,0.08333333333333333,-0.1357142857142857,-0.004733727810650888
1772794251.3546555,4558,1772794251,354590558,,0.0,-0.02808199943836001,1.9,0.3888888888888889,-0.15,-0.011834319526627219
1772794251.3556588,4559,1772794251,355591312,,0.0,-0.02808199943836001,1.9,0.3888888888888889,-0.15,-0.011834319526627219
1772794251.3566475,4560,1772794251,356589517,,0.0,-0.02808199943836001,1.9,0.3888888888888889,-0.15,-0.011834319526627219
1772794251.3576462,4561,1772794251,357590720,,-0.0889152341434499,-0.02808199943836001,0.9,0.3148148148148148,-0.2357142857142857,-0.016568047337278107
1772794251.358651,4562,1772794251,358590224,,-0.0889152341434499,-0.02808199943836001,0.9,0.3148148148148148,-0.2357142857142857,-0.016568047337278107
1772794251.3596673,4563,1772794251,359591652,,-0.0889152341434499,-0.02808199943836001,1.1,0.42592592592592593,-0.30714285714285716,-0.009467455621301775
1772794251.3606558,4564,1772794251,360590320,,-0.0889152341434499,-0.02808199943836001,1.1,0.42592592592592593,-0.30714285714285716,-0.009467455621301775
1772794251.3616595,4565,1772794251,361592450,,-0.11855364552459988,-0.05616399887672002,1.3,0.5185185185185185,-0.30714285714285716,-0.007100591715976331
1772794251.3626666,4566,1772794251,362593361,,-0.0889152341434499,-0.05616399887672002,0.7,0.5,-0.22857142857142856,-0.009467455621301775
1772794251.363666,4567,1772794251,363592405,,-0.0889152341434499,-0.05616399887672002,0.7,0.5,-0.22857142857142856,-0.009467455621301775
1772794251.3646748,4568,1772794251,364594244,,-0.0889152341434499,-0.02808199943836001,1.1,0.6666666666666666,-0.22857142857142856,-0.0035502958579881655
1772794251.3657265,4569,1772794251,365620212,,-0.0889152341434499,-0.02808199943836001,1.1,0.6666666666666666,-0.22857142857142856,-0.0035502958579881655
1772794251.3666973,4570,1772794251,366594830,,0.02963841138114997,-0.05616399887672002,1.3,0.6388888888888888,-0.12857142857142856,-0.007100591715976331
1772794251.3676832,4571,1772794251,367594058,,0.02963841138114997,-0.05616399887672002,1.3,0.6388888888888888,-0.12857142857142856,-0.007100591715976331
1772794251.3687105,4572,1772794251,368597546,,-0.02963841138114997,-0.05616399887672002,1.1,0.5277777777777778,-0.15714285714285714,0.001183431952662722
1772794251.3698196,4573,1772794251,369596513,,-0.02963841138114997,-0.05616399887672002,1.1,0.5277777777777778,-0.15714285714285714,0.001183431952662722
1772794251.3707387,4574,1772794251,370597194,,-0.02963841138114997,-0.05616399887672002,1.1,0.5277777777777778,-0.15714285714285714,0.001183431952662722
1772794251.3717325,4575,1772794251,371598562,,-0.02963841138114997,-0.05616399887672002,1.3,0.7129629629629629,-0.15,0.002366863905325444
1772794251.3727007,4576,1772794251,372597684,,-0.02963841138114997,-0.05616399887672002,1.3,0.7129629629629629,-0.15,0.002366863905325444
1772794251.3737004,4577,1772794251,373598928,,-0.02963841138114997,-0.05616399887672002,0.8,0.4722222222222222,-0.07857142857142857,0.0
1772794251.374715,4578,1772794251,374597755,,-0.02963841138114997,-0.05616399887672002,0.8,0.4722222222222222,-0.07857142857142857,0.0
1772794251.375696,4579,1772794251,375602051,,-0.02963841138114997,-0.05616399887672002,0.6,0.5555555555555556,-0.17142857142857143,0.0
1772794251.3766892,4580,1772794251,376598573,,-0.02963841138114997,-0.05616399887672002,0.6,0.5555555555555556,-0.17142857142857143,0.0
1772794251.377696,4581,1772794251,377596190,,-0.05927682276229994,-0.02808199943836001,0.5,0.7685185185185185,-0.2,0.001183431952662722
1772794251.3787067,4582,1772794251,378596049,,-0.0889152341434499,-0.02808199943836001,0.3,0.8055555555555556,-0.17142857142857143,-0.009467455621301775
1772794251.3796818,4583,1772794251,379593461,,-0.0889152341434499,-0.02808199943836001,0.3,0.8055555555555556,-0.17142857142857143,-0.009467455621301775
1772794251.3806684,4584,1772794251,380593098,,-0.0889152341434499,0.02808199943836001,0.3,0.6111111111111112,-0.17142857142857143,-0.004733727810650888
1772794251.3816626,4585,1772794251,381591508,,-0.0889152341434499,0.02808199943836001,0.3,0.6111111111111112,-0.17142857142857143,-0.004733727810650888
1772794251.3826566,4586,1772794251,382590002,,-0.05927682276229994,-0.02808199943836001,1.0,0.5370370370370371,-0.05,0.0
1772794251.3836508,4587,1772794251,383587788,,-0.05927682276229994,-0.02808199943836001,1.0,0.5370370370370371,-0.05,0.0
1772794251.3846378,4588,1772794251,384586939,,-0.05927682276229994,0.02808199943836001,1.4,0.6851851851851852,-0.11428571428571428,-0.007100591715976331
1772794251.385622,4589,1772794251,385585840,,-0.05927682276229994,0.02808199943836001,1.4,0.6851851851851852,-0.11428571428571428,-0.007100591715976331
1772794251.3866282,4590,1772794251,386585741,,-0.05927682276229994,0.02808199943836001,1.4,0.6851851851851852,-0.11428571428571428,-0.007100591715976331
1772794251.3876176,4591,1772794251,387584744,,-0.02963841138114997,-0.05616399887672002,1.1,0.7037037037037037,-0.007142857142857143,-0.007100591715976331
1772794251.3886151,4592,1772794251,388584059,,-0.02963841138114997,-0.05616399887672002,1.1,0.7037037037037037,-0.007142857142857143,-0.007100591715976331
1772794251.3896124,4593,1772794251,389585426,,-0.11855364552459988,-0.05616399887672002,1.0,0.6759259259259259,-0.08571428571428572,-0.01301775147928994
1772794251.3906174,4594,1772794251,390584134,,-0.11855364552459988,-0.05616399887672002,1.0,0.6759259259259259,-0.08571428571428572,-0.01301775147928994
1772794251.3916132,4595,1772794251,391584130,,-0.02963841138114997,-0.02808199943836001,1.4,0.75,-0.02142857142857143,-0.014201183431952662
1772794251.3926141,4596,1772794251,392583989,,-0.02963841138114997,-0.02808199943836001,1.4,0.75,-0.02142857142857143,-0.014201183431952662
1772794251.3936145,4597,1772794251,393584317,,-0.05927682276229994,-0.08424599831508003,1.7,0.75,-0.014285714285714285,-0.014201183431952662
1772794251.3946147,4598,1772794251,394584450,,0.0,0.0,2.5,1.0185185185185186,-0.1357142857142857,-0.011834319526627219
1772794251.395615,4599,1772794251,395584155,,0.0,0.0,2.5,1.0185185185185186,-0.1357142857142857,-0.011834319526627219
1772794251.3966513,4600,1772794251,396584790,,-0.02963841138114997,0.0,2.6,1.0833333333333333,-0.02857142857142857,-0.010650887573964497
1772794251.39763,4601,1772794251,397585248,,-0.02963841138114997,0.0,2.6,1.0833333333333333,-0.02857142857142857,-0.010650887573964497
1772794251.3986297,4602,1772794251,398585857,,0.0,-0.02808199943836001,1.6,1.2037037037037037,-0.07142857142857142,-0.007100591715976331
1772794251.3996289,4603,1772794251,399585944,,0.0,-0.02808199943836001,1.6,1.2037037037037037,-0.07142857142857142,-0.007100591715976331
1772794251.4006712,4604,1772794251,400588476,,-0.05927682276229994,0.0,1.0,1.1481481481481481,-0.17142857142857143,0.001183431952662722
1772794251.4017615,4605,1772794251,401696892,,-0.05927682276229994,0.0,1.0,1.1481481481481481,-0.17142857142857143,0.001183431952662722
1772794251.4026499,4606,1772794251,402591534,,-0.05927682276229994,0.0,1.0,1.1481481481481481,-0.17142857142857143,0.001183431952662722
1772794251.4036708,4607,1772794251,403601364,,-0.0889152341434499,0.02808199943836001,2.0,1.3425925925925926,-0.22857142857142856,-0.005917159763313609
1772794251.4047375,4608,1772794251,404618938,,-0.0889152341434499,0.02808199943836001,2.0,1.3425925925925926,-0.22857142857142856,-0.005917159763313609
1772794251.405891,4609,1772794251,405659833,,-0.02963841138114997,0.02808199943836001,2.3,1.4259259259259258,-0.08571428571428572,-0.007100591715976331
1772794251.4067578,4610,1772794251,406606258,,-0.02963841138114997,0.02808199943836001,2.3,1.4259259259259258,-0.08571428571428572,-0.007100591715976331
1772794251.4076931,4611,1772794251,407616899,,-0.11855364552459988,-0.05616399887672002,2.2,1.2592592592592593,0.0,-0.008284023668639054
1772794251.4087088,4612,1772794251,408615547,,-0.11855364552459988,-0.05616399887672002,2.2,1.2592592592592593,0.0,-0.008284023668639054
1772794251.4096806,4613,1772794251,409597704,,-0.14819205690574985,0.0,2.2,1.4537037037037037,-0.11428571428571428,-0.0035502958579881655
1772794251.4106853,4614,1772794251,410593800,,-0.02963841138114997,0.05616399887672002,1.9,1.6296296296296295,0.014285714285714285,0.004733727810650888
1772794251.4117224,4615,1772794251,411614630,,-0.02963841138114997,0.05616399887672002,1.9,1.6296296296296295,0.014285714285714285,0.004733727810650888
1772794251.4126956,4616,1772794251,412595665,,0.02963841138114997,0.0,2.3,1.6018518518518519,0.25,-0.001183431952662722
1772794251.4137049,4617,1772794251,413596219,,-0.05927682276229994,-0.05616399887672002,2.7,1.6111111111111112,0.1357142857142857,0.005917159763313609
1772794251.414709,4618,1772794251,414596554,,-0.05927682276229994,-0.05616399887672002,2.7,1.6111111111111112,0.1357142857142857,0.005917159763313609
1772794251.4157367,4619,1772794251,415598098,,-0.05927682276229994,-0.05616399887672002,2.7,1.6111111111111112,0.1357142857142857,0.005917159763313609
1772794251.4167187,4620,1772794251,416597558,,-0.05927682276229994,0.0,1.6,1.212962962962963,0.2357142857142857,0.008284023668639054
1772794251.4178243,4621,1772794251,417596150,,-0.05927682276229994,0.0,1.6,1.212962962962963,0.2357142857142857,0.008284023668639054
1772794251.4187558,4622,1772794251,418593883,,-0.0889152341434499,-0.02808199943836001,1.3,1.2037037037037037,0.20714285714285716,0.009467455621301775
1772794251.4196737,4623,1772794251,419591739,,-0.0889152341434499,-0.02808199943836001,1.3,1.2037037037037037,0.20714285714285716,0.009467455621301775
1772794251.4206667,4624,1772794251,420590336,,-0.0889152341434499,-0.02808199943836001,1.3,1.2037037037037037,0.20714285714285716,0.009467455621301775
1772794251.421646,4625,1772794251,421589557,,-0.11855364552459988,-0.05616399887672002,0.6,1.1481481481481481,0.15714285714285714,0.0035502958579881655
1772794251.4226584,4626,1772794251,422588481,,-0.14819205690574985,-0.11232799775344005,1.0,1.0555555555555556,0.09285714285714286,0.001183431952662722
1772794251.42364,4627,1772794251,423595837,,-0.14819205690574985,-0.11232799775344005,1.0,1.0555555555555556,0.09285714285714286,0.001183431952662722
1772794251.424643,4628,1772794251,424592163,,-0.0889152341434499,-0.05616399887672002,1.2,1.0925925925925926,0.03571428571428571,-0.005917159763313609
1772794251.4256816,4629,1772794251,425589344,,-0.0889152341434499,-0.05616399887672002,1.2,1.0925925925925926,0.03571428571428571,-0.005917159763313609
1772794251.4266877,4630,1772794251,426590887,,-0.0889152341434499,0.0,0.8,0.9259259259259259,0.007142857142857143,-0.004733727810650888
1772794251.4276698,4631,1772794251,427594202,,-0.0889152341434499,0.0,0.8,0.9259259259259259,0.007142857142857143,-0.004733727810650888
1772794251.4286506,4632,1772794251,428592236,,-0.14819205690574985,0.0,0.4,0.7222222222222222,-0.09285714285714286,-0.002366863905325444
1772794251.4296505,4633,1772794251,429590850,,-0.02963841138114997,0.05616399887672002,0.6,0.6944444444444444,-0.11428571428571428,-0.008284023668639054
1772794251.430656,4634,1772794251,430590260,,-0.02963841138114997,0.05616399887672002,0.6,0.6944444444444444,-0.11428571428571428,-0.008284023668639054
1772794251.4316692,4635,1772794251,431590672,,-0.02963841138114997,0.05616399887672002,0.6,0.6944444444444444,-0.11428571428571428,-0.008284023668639054
1772794251.4326658,4636,1772794251,432592201,,-0.02963841138114997,0.05616399887672002,0.6,0.6944444444444444,-0.11428571428571428,-0.008284023668639054
1772794251.4336753,4637,1772794251,433593510,,-0.0889152341434499,0.0,0.5,0.6018518518518519,-0.15714285714285714,-0.010650887573964497
1772794251.4347055,4638,1772794251,434594632,,-0.0889152341434499,0.0,0.5,0.6018518518518519,-0.15714285714285714,-0.010650887573964497
1772794251.4356759,4639,1772794251,435595098,,-0.05927682276229994,0.05616399887672002,1.0,0.6759259259259259,-0.2571428571428571,-0.005917159763313609
1772794251.436686,4640,1772794251,436594526,,-0.05927682276229994,0.05616399887672002,1.0,0.6759259259259259,-0.2571428571428571,-0.005917159763313609
1772794251.4376814,4641,1772794251,437596321,,-0.05927682276229994,0.0,0.8,0.5925925925925926,-0.08571428571428572,-0.005917159763313609
1772794251.438705,4642,1772794251,438600596,,-0.05927682276229994,0.0,0.8,0.5925925925925926,-0.08571428571428572,-0.005917159763313609
1772794251.4397063,4643,1772794251,439601513,,-0.02963841138114997,0.0,-0.1,0.39814814814814814,-0.06428571428571428,-0.007100591715976331
1772794251.4407105,4644,1772794251,440600106,,0.02963841138114997,-0.02808199943836001,-0.3,0.21296296296296297,0.02857142857142857,-0.009467455621301775
1772794251.4416983,4645,1772794251,441597402,,0.02963841138114997,-0.02808199943836001,-0.3,0.21296296296296297,0.02857142857142857,-0.009467455621301775
1772794251.4427404,4646,1772794251,442600989,,0.0889152341434499,0.0,0.0,0.18518518518518517,0.2,-0.004733727810650888
1772794251.443708,4647,1772794251,443598115,,0.0889152341434499,0.0,0.0,0.18518518518518517,0.2,-0.004733727810650888
1772794251.4447036,4648,1772794251,444599584,,0.02963841138114997,0.0,-0.2,0.0,0.16428571428571428,-0.001183431952662722
1772794251.4457145,4649,1772794251,445598862,,0.02963841138114997,0.0,-0.2,0.0,0.16428571428571428,-0.001183431952662722
1772794251.4467242,4650,1772794251,446620550,,0.02963841138114997,0.0,-0.2,0.0,0.16428571428571428,-0.001183431952662722
1772794251.4476995,4651,1772794251,447599757,,0.0,-0.02808199943836001,-0.4,0.1574074074074074,0.15,-0.004733727810650888
1772794251.4487054,4652,1772794251,448598081,,0.0,-0.02808199943836001,-0.4,0.1574074074074074,0.15,-0.004733727810650888
1772794251.4497094,4653,1772794251,449600267,,0.02963841138114997,0.02808199943836001,0.3,0.16666666666666666,0.05,0.005917159763313609
1772794251.4507809,4654,1772794251,450598347,,0.02963841138114997,0.02808199943836001,0.3,0.16666666666666666,0.05,0.005917159763313609
1772794251.4517152,4655,1772794251,451599561,,-0.05927682276229994,0.0,0.7,0.14814814814814814,0.05714285714285714,0.0035502958579881655
1772794251.4527056,4656,1772794251,452597393,,-0.05927682276229994,0.0,0.7,0.14814814814814814,0.05714285714285714,0.0035502958579881655
1772794251.4536955,4657,1772794251,453597334,,-0.0889152341434499,0.0,0.2,0.027777777777777776,0.06428571428571428,-0.002366863905325444
1772794251.454692,4658,1772794251,454596358,,-0.05927682276229994,0.0,0.2,0.32407407407407407,-0.014285714285714285,0.001183431952662722
1772794251.455688,4659,1772794251,455592370,,-0.05927682276229994,0.0,0.2,0.32407407407407407,-0.014285714285714285,0.001183431952662722
1772794251.4566648,4660,1772794251,456592234,,-0.05927682276229994,-0.02808199943836001,0.1,0.18518518518518517,-0.03571428571428571,0.001183431952662722
1772794251.4576464,4661,1772794251,457589332,,-0.05927682276229994,-0.02808199943836001,0.1,0.18518518518518517,-0.03571428571428571,0.001183431952662722
1772794251.4586756,4662,1772794251,458589535,,-0.0889152341434499,-0.05616399887672002,0.9,0.48148148148148145,-0.14285714285714285,-0.001183431952662722
1772794251.4596744,4663,1772794251,459590414,,-0.0889152341434499,-0.05616399887672002,0.9,0.48148148148148145,-0.14285714285714285,-0.001183431952662722
1772794251.4606373,4664,1772794251,460590076,,0.0,-0.02808199943836001,0.8,0.5092592592592593,-0.17142857142857143,-0.011834319526627219
1772794251.4616425,4665,1772794251,461589113,,0.0,-0.02808199943836001,0.8,0.5092592592592593,-0.17142857142857143,-0.011834319526627219
1772794251.4626434,4666,1772794251,462589437,,0.0,-0.02808199943836001,0.8,0.5092592592592593,-0.17142857142857143,-0.011834319526627219
1772794251.4636524,4667,1772794251,463590625,,-0.02963841138114997,-0.05616399887672002,1.2,0.9166666666666666,-0.2571428571428571,-0.016568047337278107
1772794251.464645,4668,1772794251,464590659,,0.05927682276229994,-0.05616399887672002,2.0,1.25,-0.20714285714285716,-0.01301775147928994
1772794251.4656467,4669,1772794251,465590066,,0.05927682276229994,-0.05616399887672002,2.0,1.25,-0.20714285714285716,-0.01301775147928994
1772794251.4666574,4670,1772794251,466591527,,0.05927682276229994,-0.05616399887672002,2.0,1.25,-0.20714285714285716,-0.01301775147928994
1772794251.4676628,4671,1772794251,467592667,,0.05927682276229994,0.02808199943836001,1.6,1.3055555555555556,-0.08571428571428572,-0.007100591715976331
1772794251.4686635,4672,1772794251,468592897,,0.0,0.02808199943836001,1.9,1.287037037037037,-0.02142857142857143,-0.01775147928994083
1772794251.4696722,4673,1772794251,469592846,,0.0,0.02808199943836001,1.9,1.287037037037037,-0.02142857142857143,-0.01775147928994083
1772794251.4706821,4674,1772794251,470596143,,0.02963841138114997,0.0,2.2,1.4351851851851851,-0.07857142857142857,-0.009467455621301775
1772794251.4716914,4675,1772794251,471596286,,0.02963841138114997,0.0,2.2,1.4351851851851851,-0.07857142857142857,-0.009467455621301775
1772794251.4727402,4676,1772794251,472600581,,-0.05927682276229994,0.02808199943836001,2.3,1.5925925925925926,-0.14285714285714285,-0.010650887573964497
1772794251.4737031,4677,1772794251,473597083,,-0.05927682276229994,0.02808199943836001,2.3,1.5925925925925926,-0.14285714285714285,-0.010650887573964497
1772794251.4746966,4678,1772794251,474597915,,-0.0889152341434499,0.0,2.4,1.6296296296296295,-0.1,-0.015384615384615385
1772794251.475691,4679,1772794251,475596808,,-0.0889152341434499,0.0,2.4,1.6296296296296295,-0.1,-0.015384615384615385
1772794251.4767077,4680,1772794251,476597274,,-0.14819205690574985,0.02808199943836001,2.4,1.5925925925925926,-0.1357142857142857,-0.009467455621301775
1772794251.4776964,4681,1772794251,477596000,,-0.14819205690574985,0.02808199943836001,2.4,1.5925925925925926,-0.1357142857142857,-0.009467455621301775
1772794251.478699,4682,1772794251,478597829,,-0.14819205690574985,0.02808199943836001,2.4,1.5925925925925926,-0.1357142857142857,-0.009467455621301775
1772794251.4797032,4683,1772794251,479598650,,-0.0889152341434499,0.02808199943836001,3.8,1.7222222222222223,-0.04285714285714286,-0.005917159763313609
1772794251.4806921,4684,1772794251,480600141,,-0.0889152341434499,0.02808199943836001,3.8,1.7222222222222223,-0.04285714285714286,-0.005917159763313609
1772794251.4816864,4685,1772794251,481597952,,-0.0889152341434499,0.02808199943836001,3.2,1.7592592592592593,-0.03571428571428571,-0.007100591715976331
1772794251.482706,4686,1772794251,482595638,,-0.0889152341434499,0.02808199943836001,3.2,1.7592592592592593,-0.03571428571428571,-0.007100591715976331
1772794251.4836936,4687,1772794251,483597459,,-0.05927682276229994,0.0,2.2,1.4444444444444444,-0.03571428571428571,-0.008284023668639054
1772794251.4846911,4688,1772794251,484595791,,-0.05927682276229994,0.0,2.2,1.4444444444444444,-0.03571428571428571,-0.008284023668639054
1772794251.4856884,4689,1772794251,485598190,,-0.02963841138114997,0.0,2.4,1.5092592592592593,-0.07142857142857142,-0.005917159763313609
1772794251.4866905,4690,1772794251,486598207,,-0.02963841138114997,0.02808199943836001,2.2,1.287037037037037,-0.12142857142857143,-0.0035502958579881655
1772794251.4876897,4691,1772794251,487595984,,-0.02963841138114997,0.02808199943836001,2.2,1.287037037037037,-0.12142857142857143,-0.0035502958579881655
1772794251.4887042,4692,1772794251,488598264,,-0.0889152341434499,0.05616399887672002,2.7,1.1388888888888888,-0.15,-0.002366863905325444
1772794251.4896896,4693,1772794251,489596203,,-0.0889152341434499,0.05616399887672002,2.7,1.1388888888888888,-0.15,-0.002366863905325444
1772794251.4907022,4694,1772794251,490618165,,-0.05927682276229994,0.02808199943836001,2.5,1.037037037037037,-0.11428571428571428,0.002366863905325444
1772794251.491683,4695,1772794251,491594605,,-0.05927682276229994,0.02808199943836001,2.5,1.037037037037037,-0.11428571428571428,0.002366863905325444
1772794251.492679,4696,1772794251,492596391,,-0.0889152341434499,-0.02808199943836001,2.2,0.6296296296296297,-0.08571428571428572,0.002366863905325444
