Time,header.seq,header.stamp.secs,header.stamp.nsecs,header.frame_id,wrench.force.x,wrench.force.y,wrench.force.z,wrench.torque.x,wrench.torque.y,wrench.torque.z
1772794251.0777578,4281,1772794251,77596453,,-2.0,0.0,19.0,198.0,10.0,-9.0
1772794251.0787442,4282,1772794251,78589751,,-4.0,0.0,10.0,143.0,4.0,-11.0
1772794251.0796852,4283,1772794251,79586705,,-4.0,0.0,10.0,143.0,4.0,-11.0
1772794251.0806735,4284,1772794251,80586940,,-6.0,1.0,2.0,135.0,-7.0,-11.0
1772794251.0816681,4285,1772794251,81586801,,-6.0,1.0,2.0,135.0,-7.0,-11.0
1772794251.082662,4286,1772794251,82586619,,-6.0,1.0,2.0,135.0,-7.0,-11.0
1772794251.0837119,4287,1772794251,83620652,,-4.0,1.0,2.0,92.0,16.0,-8.0
1772794251.084692,4288,1772794251,84599122,,-4.0,1.0,2.0,92.0,16.0,-8.0
1772794251.085665,4289,1772794251,85593793,,-2.0,0.0,12.0,77.0,33.0,0.0
1772794251.0867033,4290,1772794251,86607486,,-3.0,2.0,9.0,71.0,24.0,8.0
1772794251.0877385,4291,1772794251,87606468,,-3.0,2.0,9.0,71.0,24.0,8.0
1772794251.0886984,4292,1772794251,88594311,,-4.0,1.0,3.0,24.0,28.0,3.0
1772794251.0897005,4293,1772794251,89588524,,-4.0,0.0,4.0,17.0,32.0,-3.0
1772794251.0907116,4294,1772794251,90587654,,-4.0,0.0,4.0,17.0,32.0,-3.0
1772794251.0916524,4295,1772794251,91586870,,-4.0,0.0,4.0,17.0,32.0,-3.0
1772794251.0926464,4296,1772794251,92586942,,-6.0,0.0,7.0,-9.0,21.0,1.0
1772794251.093708,4297,1772794251,93586805,,-3.0,-2.0,9.0,-8.0,25.0,7.0
1772794251.0946765,4298,1772794251,94587331,,-3.0,-2.0,9.0,-8.0,25.0,7.0
1772794251.0957067,4299,1772794251,95596458,,-3.0,-2.0,9.0,-8.0,25.0,7.0
1772794251.09664,4300,1772794251,96591090,,-1.0,-3.0,9.0,8.0,28.0,2.0
1772794251.0976782,4301,1772794251,97585657,,-1.0,-3.0,9.0,8.0,28.0,2.0
1772794251.0986283,4302,1772794251,98584982,,0.0,-2.0,12.0,36.0,10.0,2.0
1772794251.099669,4303,1772794251,99584765,,0.0,-2.0,12.0,36.0,10.0,2.0
1772794251.1006367,4304,1772794251,100585246,,1.0,-1.0,-1.0,7.0,21.0,1.0
1772794251.101682,4305,1772794251,101587609,,1.0,-1.0,-1.0,7.0,21.0,1.0
1772794251.102634,4306,1772794251,102585788,,0.0,-1.0,6.0,33.0,13.0,-2.0
1772794251.1036308,4307,1772794251,103585245,,0.0,-1.0,6.0,33.0,13.0,-2.0
1772794251.1046526,4308,1772794251,104585626,,-1.0,-3.0,8.0,84.0,3.0,-10.0
1772794251.1056733,4309,1772794251,105586199,,0.0,-3.0,4.0,104.0,13.0,-3.0
1772794251.106678,4310,1772794251,106585198,,0.0,-3.0,4.0,104.0,13.0,-3.0
1772794251.1076727,4311,1772794251,107586027,,0.0,-3.0,4.0,104.0,13.0,-3.0
1772794251.1086419,4312,1772794251,108586485,,0.0,-4.0,5.0,126.0,20.0,-12.0
1772794251.1096392,4313,1772794251,109585799,,0.0,-4.0,5.0,126.0,20.0,-12.0
1772794251.110638,4314,1772794251,110585992,,-2.0,-3.0,3.0,127.0,12.0,-12.0
1772794251.1116982,4315,1772794251,111585976,,-2.0,-3.0,3.0,127.0,12.0,-12.0
1772794251.112644,4316,1772794251,112586199,,-3.0,1.0,3.0,151.0,18.0,-9.0
1772794251.1136394,4317,1772794251,113586442,,-1.0,-1.0,8.0,169.0,37.0,-11.0
1772794251.1146376,4318,1772794251,114585158,,-1.0,-1.0,8.0,169.0,37.0,-11.0
1772794251.115644,4319,1772794251,115585836,,-1.0,-1.0,8.0,169.0,37.0,-11.0
1772794251.11664,4320,1772794251,116585450,,-1.0,-1.0,8.0,169.0,37.0,-11.0
1772794251.1176517,4321,1772794251,117586957,,0.0,0.0,10.0,179.0,45.0,-12.0
1772794251.1187634,4322,1772794251,118586498,,-1.0,-1.0,17.0,220.0,43.0,-12.0
1772794251.1196773,4323,1772794251,119586366,,-1.0,-1.0,17.0,220.0,43.0,-12.0
1772794251.120651,4324,1772794251,120587045,,-1.0,-1.0,17.0,223.0,39.0,-12.0
1772794251.1216528,4325,1772794251,121586756,,-1.0,-1.0,17.0,223.0,39.0,-12.0
1772794251.1226606,4326,1772794251,122586884,,-3.0,2.0,20.0,207.0,51.0,-13.0
1772794251.1236641,4327,1772794251,123588513,,-3.0,2.0,20.0,207.0,51.0,-13.0
1772794251.124735,4328,1772794251,124588821,,-3.0,2.0,18.0,184.0,46.0,-5.0
1772794251.1256897,4329,1772794251,125588553,,-3.0,2.0,18.0,184.0,46.0,-5.0
1772794251.126673,4330,1772794251,126588607,,-3.0,1.0,19.0,156.0,35.0,-10.0
1772794251.1276634,4331,1772794251,127588444,,-3.0,1.0,19.0,156.0,35.0,-10.0
1772794251.1286523,4332,1772794251,128587428,,-3.0,1.0,26.0,166.0,17.0,-4.0
1772794251.1296363,4333,1772794251,129585615,,-3.0,1.0,26.0,166.0,17.0,-4.0
1772794251.1306324,4334,1772794251,130584558,,-3.0,1.0,26.0,166.0,17.0,-4.0
1772794251.1316407,4335,1772794251,131584632,,-2.0,0.0,27.0,144.0,13.0,1.0
1772794251.1326818,4336,1772794251,132588455,,-2.0,0.0,27.0,144.0,13.0,1.0
1772794251.1336715,4337,1772794251,133587124,,-1.0,0.0,20.0,119.0,8.0,-1.0
1772794251.13463,4338,1772794251,134585860,,-4.0,1.0,18.0,96.0,-2.0,-5.0
1772794251.135627,4339,1772794251,135584785,,-4.0,1.0,18.0,96.0,-2.0,-5.0
1772794251.1366963,4340,1772794251,136587713,,-1.0,3.0,22.0,84.0,-4.0,-1.0
1772794251.1376455,4341,1772794251,137591375,,-1.0,3.0,22.0,84.0,-4.0,-1.0
1772794251.1386409,4342,1772794251,138589833,,0.0,0.0,17.0,66.0,-8.0,1.0
1772794251.1396363,4343,1772794251,139586853,,-2.0,0.0,19.0,53.0,-17.0,-2.0
1772794251.1407492,4344,1772794251,140585576,,-2.0,0.0,19.0,53.0,-17.0,-2.0
1772794251.1416385,4345,1772794251,141585564,,-2.0,0.0,19.0,53.0,-17.0,-2.0
1772794251.142643,4346,1772794251,142587910,,-1.0,-1.0,20.0,42.0,-5.0,1.0
1772794251.143645,4347,1772794251,143586980,,1.0,1.0,11.0,35.0,-2.0,1.0
1772794251.1446626,4348,1772794251,144586211,,1.0,1.0,11.0,35.0,-2.0,1.0
1772794251.1456459,4349,1772794251,145586969,,1.0,1.0,11.0,35.0,-2.0,1.0
1772794251.1466537,4350,1772794251,146586222,,1.0,1.0,11.0,35.0,-2.0,1.0
1772794251.1476488,4351,1772794251,147587661,,-1.0,0.0,16.0,32.0,-4.0,-3.0
1772794251.1486456,4352,1772794251,148587397,,-1.0,2.0,13.0,47.0,10.0,-3.0
1772794251.1496532,4353,1772794251,149586998,,-1.0,2.0,13.0,47.0,10.0,-3.0
1772794251.1506546,4354,1772794251,150586951,,-1.0,2.0,13.0,47.0,10.0,-3.0
1772794251.1516504,4355,1772794251,151588403,,1.0,0.0,11.0,53.0,15.0,-1.0
1772794251.1526608,4356,1772794251,152588152,,1.0,-2.0,12.0,94.0,22.0,-4.0
1772794251.1536632,4357,1772794251,153587063,,1.0,-2.0,12.0,94.0,22.0,-4.0
1772794251.1546657,4358,1772794251,154588942,,-4.0,-2.0,12.0,111.0,6.0,-5.0
1772794251.155666,4359,1772794251,155588956,,-6.0,-1.0,7.0,112.0,-2.0,-9.0
1772794251.1566637,4360,1772794251,156587383,,-6.0,-1.0,7.0,112.0,-2.0,-9.0
1772794251.1577156,4361,1772794251,157588216,,-6.0,-1.0,7.0,112.0,-2.0,-9.0
1772794251.158678,4362,1772794251,158589488,,-1.0,0.0,3.0,103.0,16.0,-6.0
1772794251.1596768,4363,1772794251,159589331,,-1.0,1.0,0.0,128.0,14.0,-5.0
1772794251.1607122,4364,1772794251,160588086,,-1.0,1.0,0.0,128.0,14.0,-5.0
1772794251.1617491,4365,1772794251,161588514,,-1.0,1.0,0.0,128.0,14.0,-5.0
1772794251.1626892,4366,1772794251,162590210,,-1.0,-2.0,8.0,137.0,20.0,-4.0
1772794251.163688,4367,1772794251,163588858,,-1.0,-2.0,8.0,137.0,20.0,-4.0
1772794251.1646743,4368,1772794251,164589821,,-2.0,0.0,3.0,153.0,6.0,-2.0
1772794251.1656961,4369,1772794251,165587814,,-2.0,0.0,3.0,153.0,6.0,-2.0
1772794251.1666462,4370,1772794251,166586239,,-2.0,0.0,3.0,153.0,6.0,-2.0
1772794251.1677387,4371,1772794251,167587048,,-3.0,-1.0,5.0,148.0,12.0,-3.0
1772794251.1687014,4372,1772794251,168586578,,-3.0,-1.0,8.0,139.0,20.0,-6.0
1772794251.1696947,4373,1772794251,169585809,,-3.0,-1.0,8.0,139.0,20.0,-6.0
1772794251.1707098,4374,1772794251,170585806,,-3.0,-1.0,6.0,152.0,10.0,-5.0
1772794251.1716723,4375,1772794251,171584012,,-3.0,-1.0,6.0,152.0,10.0,-5.0
1772794251.172719,4376,1772794251,172584008,,-3.0,1.0,-1.0,150.0,11.0,-11.0
1772794251.1738083,4377,1772794251,173586499,,-3.0,1.0,-1.0,150.0,11.0,-11.0
1772794251.1747506,4378,1772794251,174584959,,-1.0,0.0,15.0,130.0,9.0,-6.0
1772794251.1757398,4379,1772794251,175582849,,-1.0,0.0,15.0,130.0,9.0,-6.0
1772794251.1767359,4380,1772794251,176583430,,-1.0,0.0,14.0,115.0,15.0,-7.0
1772794251.177662,4381,1772794251,177583184,,-1.0,0.0,14.0,115.0,15.0,-7.0
1772794251.178671,4382,1772794251,178583764,,-1.0,-2.0,23.0,98.0,23.0,-1.0
1772794251.1796818,4383,1772794251,179583591,,-1.0,-2.0,23.0,98.0,23.0,-1.0
1772794251.1807039,4384,1772794251,180583047,,-1.0,-2.0,23.0,98.0,23.0,-1.0
1772794251.181743,4385,1772794251,181583583,,0.0,1.0,11.0,86.0,20.0,5.0
1772794251.1827543,4386,1772794251,182583663,,0.0,1.0,11.0,86.0,20.0,5.0
1772794251.1837575,4387,1772794251,183584667,,-1.0,3.0,15.0,65.0,8.0,-4.0
1772794251.1846738,4388,1772794251,184584632,,-1.0,-1.0,5.0,20.0,25.0,-10.0
1772794251.1857405,4389,1772794251,185584642,,-1.0,-1.0,5.0,20.0,25.0,-10.0
1772794251.1867437,4390,1772794251,186585405,,-3.0,-1.0,7.0,31.0,23.0,-13.0
1772794251.187774,4391,1772794251,187584971,,-1.0,2.0,-1.0,32.0,16.0,-11.0
1772794251.1887825,4392,1772794251,188584953,,-1.0,2.0,-1.0,32.0,16.0,-11.0
1772794251.189799,4393,1772794251,189585753,,-1.0,2.0,-1.0,32.0,16.0,-11.0
1772794251.190702,4394,1772794251,190585923,,0.0,2.0,7.0,6.0,22.0,-12.0
1772794251.1918323,4395,1772794251,191586500,,-1.0,1.0,2.0,-9.0,22.0,-13.0
1772794251.1928077,4396,1772794251,192599964,,-1.0,1.0,2.0,-9.0,22.0,-13.0
1772794251.1937644,4397,1772794251,193587036,,-1.0,1.0,2.0,-9.0,22.0,-13.0
1772794251.1948352,4398,1772794251,194585914,,-1.0,1.0,2.0,-9.0,22.0,-13.0
1772794251.1958835,4399,1772794251,195593121,,0.0,0.0,8.0,29.0,22.0,-9.0
1772794251.1967688,4400,1772794251,196588953,,-3.0,-1.0,8.0,34.0,8.0,-8.0
1772794251.1977239,4401,1772794251,197587184,,-3.0,-1.0,8.0,34.0,8.0,-8.0
1772794251.198716,4402,1772794251,198587265,,-3.0,-1.0,8.0,34.0,8.0,-8.0
1772794251.1998181,4403,1772794251,199587579,,-1.0,-2.0,4.0,39.0,8.0,-5.0
1772794251.2007937,4404,1772794251,200586714,,0.0,-1.0,9.0,82.0,14.0,-6.0
1772794251.2018263,4405,1772794251,201586351,,0.0,-1.0,9.0,82.0,14.0,-6.0
1772794251.2027667,4406,1772794251,202586078,,0.0,1.0,11.0,106.0,14.0,-6.0
1772794251.2036662,4407,1772794251,203584824,,0.0,1.0,11.0,106.0,14.0,-6.0
1772794251.2047012,4408,1772794251,204584233,,0.0,0.0,1.0,105.0,13.0,-3.0
1772794251.2057397,4409,1772794251,205582995,,0.0,0.0,1.0,105.0,13.0,-3.0
1772794251.2067382,4410,1772794251,206583029,,-3.0,-1.0,11.0,132.0,4.0,-3.0
1772794251.2076344,4411,1772794251,207582266,,-3.0,-1.0,11.0,132.0,4.0,-3.0
1772794251.2086372,4412,1772794251,208582883,,-1.0,0.0,11.0,157.0,8.0,-4.0
1772794251.2097418,4413,1772794251,209569834,,-1.0,0.0,11.0,157.0,8.0,-4.0
1772794251.2107685,4414,1772794251,210584064,,-1.0,0.0,11.0,157.0,8.0,-4.0
1772794251.2117805,4415,1772794251,211590048,,-2.0,2.0,13.0,163.0,11.0,0.0
1772794251.2126987,4416,1772794251,212585636,,0.0,0.0,14.0,185.0,15.0,0.0
1772794251.2136705,4417,1772794251,213584654,,0.0,0.0,14.0,185.0,15.0,0.0
1772794251.2146676,4418,1772794251,214584707,,0.0,0.0,14.0,185.0,15.0,0.0
1772794251.2157648,4419,1772794251,215585755,,-2.0,0.0,12.0,175.0,25.0,-8.0
1772794251.2167609,4420,1772794251,216602536,,-3.0,-1.0,18.0,181.0,18.0,-9.0
1772794251.2177806,4421,1772794251,217586922,,-3.0,-1.0,18.0,181.0,18.0,-9.0
1772794251.218835,4422,1772794251,218586553,,-3.0,0.0,17.0,199.0,29.0,-4.0
1772794251.2198577,4423,1772794251,219586461,,-3.0,0.0,17.0,199.0,29.0,-4.0
1772794251.2208247,4424,1772794251,220587310,,-4.0,1.0,14.0,178.0,22.0,0.0
1772794251.2218037,4425,1772794251,221587699,,-4.0,1.0,14.0,178.0,22.0,0.0
1772794251.2228158,4426,1772794251,222588655,,-1.0,0.0,12.0,145.0,42.0,4.0
1772794251.223814,4427,1772794251,223587800,,-1.0,0.0,12.0,145.0,42.0,4.0
1772794251.2248476,4428,1772794251,224589804,,-1.0,1.0,14.0,138.0,51.0,5.0
1772794251.2258253,4429,1772794251,225588731,,-1.0,1.0,14.0,138.0,51.0,5.0
1772794251.2267513,4430,1772794251,226588891,,-1.0,1.0,14.0,138.0,51.0,5.0
1772794251.227679,4431,1772794251,227590953,,-1.0,0.0,13.0,106.0,47.0,3.0
1772794251.2286644,4432,1772794251,228588851,,-1.0,0.0,13.0,106.0,47.0,3.0
1772794251.2297022,4433,1772794251,229589701,,-3.0,1.0,12.0,117.0,30.0,2.0
1772794251.2306776,4434,1772794251,230589007,,-3.0,1.0,11.0,99.0,32.0,-2.0
1772794251.2316675,4435,1772794251,231589019,,-3.0,1.0,11.0,99.0,32.0,-2.0
1772794251.2326744,4436,1772794251,232589725,,-3.0,2.0,14.0,56.0,31.0,-2.0
1772794251.233671,4437,1772794251,233589113,,-3.0,2.0,14.0,56.0,31.0,-2.0
1772794251.2347045,4438,1772794251,234603200,,-3.0,1.0,15.0,40.0,13.0,-5.0
1772794251.2356508,4439,1772794251,235587574,,-3.0,1.0,15.0,40.0,13.0,-5.0
1772794251.236701,4440,1772794251,236603179,,-2.0,2.0,18.0,33.0,-5.0,-5.0
1772794251.2376487,4441,1772794251,237585745,,-2.0,2.0,18.0,33.0,-5.0,-5.0
1772794251.2386293,4442,1772794251,238584932,,-2.0,1.0,9.0,19.0,2.0,-4.0
1772794251.2396233,4443,1772794251,239585418,,-2.0,1.0,9.0,19.0,2.0,-4.0
1772794251.2406137,4444,1772794251,240583687,,0.0,2.0,14.0,21.0,-16.0,5.0
1772794251.2416148,4445,1772794251,241583163,,0.0,2.0,14.0,21.0,-16.0,5.0
1772794251.2426171,4446,1772794251,242583450,,0.0,2.0,14.0,21.0,-16.0,5.0
1772794251.2436187,4447,1772794251,243584066,,0.0,1.0,7.0,4.0,-19.0,-2.0
1772794251.2446206,4448,1772794251,244583994,,0.0,1.0,7.0,4.0,-19.0,-2.0
1772794251.2456455,4449,1772794251,245590022,,-1.0,-1.0,1.0,-5.0,-14.0,-3.0
1772794251.246643,4450,1772794251,246585335,,-1.0,-1.0,1.0,-5.0,-14.0,-3.0
1772794251.2476246,4451,1772794251,247585946,,0.0,0.0,15.0,41.0,-12.0,1.0
1772794251.2486477,4452,1772794251,248586321,,-1.0,1.0,15.0,55.0,-23.0,4.0
1772794251.2496417,4453,1772794251,249586818,,-1.0,1.0,15.0,55.0,-23.0,4.0
1772794251.2506368,4454,1772794251,250587085,,0.0,-1.0,15.0,81.0,-9.0,-1.0
1772794251.2516806,4455,1772794251,251586494,,0.0,-1.0,15.0,81.0,-9.0,-1.0
1772794251.2526784,4456,1772794251,252587551,,-2.0,-3.0,3.0,67.0,1.0,-7.0
1772794251.2536852,4457,1772794251,253588031,,-2.0,-3.0,3.0,67.0,1.0,-7.0
1772794251.2546477,4458,1772794251,254589931,,-1.0,-1.0,16.0,88.0,-1.0,-9.0
1772794251.2557123,4459,1772794251,255587570,,-1.0,-1.0,16.0,88.0,-1.0,-9.0
1772794251.2566888,4460,1772794251,256587784,,-1.0,-1.0,16.0,88.0,-1.0,-9.0
1772794251.257656,4461,1772794251,257589759,,-2.0,-1.0,12.0,111.0,1.0,-5.0
1772794251.2586894,4462,1772794251,258588516,,-2.0,-1.0,12.0,111.0,1.0,-5.0
1772794251.25967,4463,1772794251,259590466,,0.0,-1.0,5.0,116.0,20.0,2.0
1772794251.2607305,4464,1772794251,260590460,,0.0,-1.0,12.0,148.0,7.0,2.0
1772794251.261691,4465,1772794251,261589853,,0.0,-1.0,12.0,148.0,7.0,2.0
1772794251.2627218,4466,1772794251,262591423,,-2.0,-1.0,14.0,170.0,2.0,0.0
1772794251.2636726,4467,1772794251,263590242,,-2.0,-1.0,14.0,170.0,2.0,0.0
1772794251.2647007,4468,1772794251,264592534,,-2.0,-1.0,10.0,167.0,2.0,2.0
1772794251.2657003,4469,1772794251,265591280,,-2.0,-1.0,10.0,167.0,2.0,2.0
1772794251.2666886,4470,1772794251,266592471,,-1.0,-1.0,14.0,154.0,2.0,-8.0
1772794251.267701,4471,1772794251,267590159,,-1.0,-1.0,14.0,154.0,2.0,-8.0
1772794251.2686908,4472,1772794251,268591747,,-3.0,-1.0,4.0,130.0,14.0,-11.0
1772794251.2696834,4473,1772794251,269590205,,-3.0,-1.0,4.0,130.0,14.0,-11.0
1772794251.2707062,4474,1772794251,270604840,,-3.0,-1.0,4.0,130.0,14.0,-11.0
1772794251.2716932,4475,1772794251,271590299,,-3.0,2.0,13.0,176.0,-22.0,-6.0
1772794251.2727826,4476,1772794251,272587880,,-3.0,2.0,13.0,176.0,-22.0,-6.0
1772794251.273758,4477,1772794251,273588742,,-1.0,1.0,10.0,133.0,-7.0,-7.0
1772794251.2747555,4478,1772794251,274587685,,-1.0,1.0,10.0,133.0,-7.0,-7.0
1772794251.275674,4479,1772794251,275588476,,-2.0,2.0,12.0,125.0,-1.0,-9.0
1772794251.276829,4480,1772794251,276588332,,-3.0,-1.0,2.0,95.0,0.0,-6.0
1772794251.2778528,4481,1772794251,277587456,,-3.0,-1.0,2.0,95.0,0.0,-6.0
1772794251.2788422,4482,1772794251,278588261,,-2.0,1.0,-1.0,73.0,4.0,-4.0
1772794251.279853,4483,1772794251,279586359,,-2.0,1.0,-1.0,73.0,4.0,-4.0
1772794251.2806993,4484,1772794251,280587544,,-1.0,0.0,5.0,42.0,17.0,-4.0
1772794251.281783,4485,1772794251,281586002,,-1.0,0.0,5.0,42.0,17.0,-4.0
1772794251.2828496,4486,1772794251,282604805,,1.0,-1.0,14.0,40.0,9.0,-4.0
1772794251.2838197,4487,1772794251,283585694,,1.0,-1.0,14.0,40.0,9.0,-4.0
1772794251.2848322,4488,1772794251,284587454,,0.0,1.0,10.0,16.0,15.0,-9.0
1772794251.2858322,4489,1772794251,285587137,,0.0,1.0,10.0,16.0,15.0,-9.0
1772794251.2868156,4490,1772794251,286586928,,0.0,1.0,10.0,16.0,15.0,-9.0
1772794251.2877688,4491,1772794251,287593274,,-2.0,2.0,14.0,6.0,5.0,-5.0
1772794251.2888296,4492,1772794251,288589991,,-2.0,2.0,14.0,6.0,5.0,-5.0
1772794251.289855,4493,1772794251,289589555,,-4.0,-1.0,12.0,-10.0,-2.0,-1.0
1772794251.290853,4494,1772794251,290588421,,-4.0,-1.0,12.0,-10.0,-2.0,-1.0
1772794251.2918663,4495,1772794251,291592365,,0.0,-1.0,9.0,-31.0,3.0,1.0
1772794251.2928991,4496,1772794251,292602150,,2.0,-1.0,19.0,-6.0,1.0,0.0
1772794251.293976,4497,1772794251,293591779,,2.0,-1.0,19.0,-6.0,1.0,0.0
1772794251.2948608,4498,1772794251,294591053,,2.0,-1.0,12.0,8.0,-10.0,-2.0
1772794251.2957857,4499,1772794251,295564079,,2.0,-1.0,12.0,8.0,-10.0,-2.0
1772794251.296845,4500,1772794251,296593185,,3.0,-2.0,20.0,33.0,-24.0,-3.0
1772794251.2977893,4501,1772794251,297590348,,1.0,1.0,-2.0,25.0,-37.0,-6.0
1772794251.2987652,4502,1772794251,298588064,,1.0,1.0,-2.0,25.0,-37.0,-6.0
1772794251.2997732,4503,1772794251,299588275,,1.0,1.0,-2.0,25.0,-37.0,-6.0
1772794251.300704,4504,1772794251,300591395,,1.0,0.0,-1.0,34.0,-26.0,-7.0
1772794251.3016784,4505,1772794251,301592641,,0.0,1.0,3.0,59.0,-18.0,-13.0
1772794251.3027444,4506,1772794251,302590508,,0.0,1.0,3.0,59.0,-18.0,-13.0
1772794251.3037448,4507,1772794251,303591080,,0.0,1.0,3.0,59.0,-18.0,-13.0
1772794251.304684,4508,1772794251,304591968,,0.0,1.0,3.0,59.0,-18.0,-13.0
1772794251.305682,4509,1772794251,305592588,,-1.0,2.0,-2.0,70.0,-2.0,-14.0
1772794251.3067067,4510,1772794251,306553633,,-3.0,2.0,5.0,128.0,-18.0,-12.0
1772794251.307669,4511,1772794251,307590156,,-3.0,2.0,5.0,128.0,-18.0,-12.0
1772794251.3086748,4512,1772794251,308590005,,-2.0,1.0,12.0,151.0,8.0,-7.0
1772794251.3097174,4513,1772794251,309587417,,-2.0,1.0,12.0,151.0,8.0,-7.0
1772794251.3106785,4514,1772794251,310587432,,0.0,-1.0,12.0,164.0,20.0,-12.0
1772794251.3116415,4515,1772794251,311586155,,0.0,-1.0,12.0,164.0,20.0,-12.0
1772794251.3126488,4516,1772794251,312585723,,-1.0,-1.0,14.0,164.0,19.0,-15.0
1772794251.3136606,4517,1772794251,313585027,,-1.0,-1.0,15.0,177.0,13.0,-18.0
1772794251.31464,4518,1772794251,314584173,,-1.0,-1.0,15.0,177.0,13.0,-18.0
1772794251.3157775,4519,1772794251,315585149,,-1.0,-1.0,15.0,177.0,13.0,-18.0
1772794251.3166966,4520,1772794251,316586490,,-2.0,1.0,15.0,187.0,-3.0,-12.0
1772794251.3177016,4521,1772794251,317585658,,-3.0,-1.0,10.0,183.0,5.0,-10.0
1772794251.3188775,4522,1772794251,318590051,,-3.0,-1.0,10.0,183.0,5.0,-10.0
1772794251.3198075,4523,1772794251,319586570,,-3.0,-1.0,10.0,183.0,5.0,-10.0
1772794251.3208737,4524,1772794251,320607249,,-1.0,-2.0,14.0,193.0,6.0,-6.0
1772794251.3217118,4525,1772794251,321587048,,-1.0,-2.0,14.0,193.0,6.0,-6.0
1772794251.3228111,4526,1772794251,322587501,,-1.0,-2.0,14.0,193.0,6.0,-6.0
1772794251.3238993,4527,1772794251,323589826,,-1.0,-1.0,21.0,212.0,8.0,-5.0
1772794251.3247633,4528,1772794251,324590195,,-3.0,-1.0,15.0,188.0,1.0,-3.0
1772794251.3258734,4529,1772794251,325589391,,-3.0,-1.0,15.0,188.0,1.0,-3.0
1772794251.3268528,4530,1772794251,326588537,,-3.0,-1.0,15.0,188.0,1.0,-3.0
1772794251.327734,4531,1772794251,327567271,,-2.0,-1.0,19.0,178.0,-8.0,2.0
1772794251.3288112,4532,1772794251,328592444,,-3.0,1.0,20.0,150.0,-21.0,5.0
1772794251.329733,4533,1772794251,329588539,,-3.0,1.0,20.0,150.0,-21.0,5.0
1772794251.330856,4534,1772794251,330589016,,-2.0,1.0,16.0,146.0,-26.0,3.0
1772794251.3318686,4535,1772794251,331588128,,-2.0,1.0,16.0,146.0,-26.0,3.0
1772794251.3327527,4536,1772794251,332590133,,-1.0,1.0,11.0,145.0,-15.0,-1.0
1772794251.3338063,4537,1772794251,333590202,,-1.0,2.0,20.0,147.0,-18.0,-1.0
1772794251.3347511,4538,1772794251,334588889,,-1.0,2.0,20.0,147.0,-18.0,-1.0
1772794251.3356817,4539,1772794251,335588205,,-1.0,2.0,20.0,147.0,-18.0,-1.0
1772794251.3366659,4540,1772794251,336588093,,-1.0,2.0,20.0,147.0,-18.0,-1.0
1772794251.3376615,4541,1772794251,337589038,,-2.0,0.0,25.0,123.0,-6.0,4.0
1772794251.3386745,4542,1772794251,338588494,,-2.0,0.0,25.0,106.0,0.0,1.0
1772794251.3396537,4543,1772794251,339588095,,-2.0,0.0,25.0,106.0,0.0,1.0
1772794251.3406754,4544,1772794251,340588563,,-2.0,0.0,25.0,106.0,0.0,1.0
1772794251.3416722,4545,1772794251,341578944,,-3.0,1.0,16.0,87.0,3.0,-1.0
1772794251.3426743,4546,1772794251,342593527,,0.0,1.0,19.0,67.0,3.0,-1.0
1772794251.3436754,4547,1772794251,343590706,,0.0,1.0,19.0,67.0,3.0,-1.0
1772794251.344662,4548,1772794251,344591089,,0.0,0.0,15.0,39.0,13.0,-1.0
1772794251.3456607,4549,1772794251,345588593,,0.0,0.0,15.0,39.0,13.0,-1.0
1772794251.346656,4550,1772794251,346588813,,-3.0,0.0,13.0,23.0,-3.0,-4.0
1772794251.3476467,4551,1772794251,347587495,,-3.0,0.0,13.0,23.0,-3.0,-4.0
1772794251.3486474,4552,1772794251,348586992,,-1.0,2.0,8.0,4.0,-5.0,-3.0
1772794251.349628,4553,1772794251,349586197,,-2.0,0.0,18.0,30.0,-23.0,-12.0
1772794251.3506346,4554,1772794251,350584722,,-2.0,0.0,18.0,30.0,-23.0,-12.0
1772794251.3516285,4555,1772794251,351584396,,-2.0,0.0,18.0,30.0,-23.0,-12.0
1772794251.35265,4556,1772794251,352585432,,0.0,-1.0,15.0,9.0,-19.0,-4.0
1772794251.3536391,4557,1772794251,353584821,,0.0,-1.0,15.0,9.0,-19.0,-4.0
1772794251.3546283,4558,1772794251,354586159,,0.0,-1.0,19.0,42.0,-21.0,-10.0
1772794251.3556457,4559,1772794251,355587580,,0.0,-1.0,19.0,42.0,-21.0,-10.0
1772794251.356638,4560,1772794251,356585796,,0.0,-1.0,19.0,42.0,-21.0,-10.0
1772794251.3576365,4561,1772794251,357586693,,-3.0,-1.0,9.0,34.0,-33.0,-14.0
1772794251.358632,4562,1772794251,358585781,,-3.0,-1.0,9.0,34.0,-33.0,-14.0
1772794251.359635,4563,1772794251,359587207,,-3.0,-1.0,11.0,46.0,-43.0,-8.0
1772794251.3606443,4564,1772794251,360585753,,-3.0,-1.0,11.0,46.0,-43.0,-8.0
1772794251.3616493,4565,1772794251,361587476,,-4.0,-2.0,13.0,56.0,-43.0,-6.0
1772794251.3626401,4566,1772794251,362587806,,-3.0,-2.0,7.0,54.0,-32.0,-8.0
1772794251.3636577,4567,1772794251,363587365,,-3.0,-2.0,7.0,54.0,-32.0,-8.0
1772794251.3646572,4568,1772794251,364588536,,-3.0,-1.0,11.0,72.0,-32.0,-3.0
1772794251.3657212,4569,1772794251,365602744,,-3.0,-1.0,11.0,72.0,-32.0,-3.0
1772794251.3666637,4570,1772794251,366588877,,1.0,-2.0,13.0,69.0,-18.0,-6.0
1772794251.3676674,4571,1772794251,367588067,,1.0,-2.0,13.0,69.0,-18.0,-6.0
1772794251.3686912,4572,1772794251,368590908,,-1.0,-2.0,11.0,57.0,-22.0,1.0
1772794251.3697336,4573,1772794251,369588902,,-1.0,-2.0,11.0,57.0,-22.0,1.0
1772794251.370681,4574,1772794251,370589504,,-1.0,-2.0,11.0,57.0,-22.0,1.0
1772794251.3716822,4575,1772794251,371591430,,-1.0,-2.0,13.0,77.0,-21.0,2.0
1772794251.372664,4576,1772794251,372590188,,-1.0,-2.0,13.0,77.0,-21.0,2.0
1772794251.373684,4577,1772794251,373591535,,-1.0,-2.0,8.0,51.0,-11.0,0.0
1772794251.3746662,4578,1772794251,374589864,,-1.0,-2.0,8.0,51.0,-11.0,0.0
1772794251.3756833,4579,1772794251,375582136,,-1.0,-2.0,6.0,60.0,-24.0,0.0
1772794251.376674,4580,1772794251,376591789,,-1.0,-2.0,6.0,60.0,-24.0,0.0
1772794251.3776724,4581,1772794251,377590374,,-2.0,-1.0,5.0,83.0,-28.0,1.0
1772794251.3786643,4582,1772794251,378589517,,-3.0,-1.0,3.0,87.0,-24.0,-8.0
1772794251.379658,4583,1772794251,379588088,,-3.0,-1.0,3.0,87.0,-24.0,-8.0
1772794251.3806565,4584,1772794251,380587981,,-3.0,1.0,3.0,66.0,-24.0,-4.0
1772794251.3816478,4585,1772794251,381587117,,-3.0,1.0,3.0,66.0,-24.0,-4.0
1772794251.382628,4586,1772794251,382586251,,-2.0,-1.0,10.0,58.0,-7.0,0.0
1772794251.3836434,4587,1772794251,383584896,,-2.0,-1.0,10.0,58.0,-7.0,0.0
1772794251.384619,4588,1772794251,384584312,,-2.0,1.0,14.0,74.0,-16.0,-6.0
1772794251.3856127,4589,1772794251,385583614,,-2.0,1.0,14.0,74.0,-16.0,-6.0
1772794251.3866107,4590,1772794251,386583421,,-2.0,1.0,14.0,74.0,-16.0,-6.0
1772794251.3876112,4591,1772794251,387582927,,-1.0,-2.0,11.0,76.0,-1.0,-6.0
1772794251.3886034,4592,1772794251,388582337,,-1.0,-2.0,11.0,76.0,-1.0,-6.0
1772794251.3896048,4593,1772794251,389583306,,-4.0,-2.0,10.0,73.0,-12.0,-11.0
1772794251.3906136,4594,1772794251,390582356,,-4.0,-2.0,10.0,73.0,-12.0,-11.0
1772794251.391605,4595,1772794251,391582558,,-1.0,-1.0,14.0,81.0,-3.0,-12.0
1772794251.3926027,4596,1772794251,392582202,,-1.0,-1.0,14.0,81.0,-3.0,-12.0
1772794251.3936052,4597,1772794251,393582501,,-2.0,-3.0,17.0,81.0,-2.0,-12.0
1772794251.3946037,4598,1772794251,394582705,,0.0,0.0,25.0,110.0,-19.0,-10.0
1772794251.3956068,4599,1772794251,395582258,,0.0,0.0,25.0,110.0,-19.0,-10.0
1772794251.3966072,4600,1772794251,396582632,,-1.0,0.0,26.0,117.0,-4.0,-9.0
1772794251.397626,4601,1772794251,397583027,,-1.0,0.0,26.0,117.0,-4.0,-9.0
1772794251.3986135,4602,1772794251,398583216,,0.0,-1.0,16.0,130.0,-10.0,-6.0
1772794251.3996158,4603,1772794251,399583290,,0.0,-1.0,16.0,130.0,-10.0,-6.0
1772794251.400664,4604,1772794251,400584096,,-2.0,0.0,10.0,124.0,-24.0,1.0
1772794251.4017498,4605,1772794251,401684400,,-2.0,0.0,10.0,124.0,-24.0,1.0
1772794251.4026291,4606,1772794251,402587713,,-2.0,0.0,10.0,124.0,-24.0,1.0
1772794251.403664,4607,1772794251,403587233,,-3.0,1.0,20.0,145.0,-32.0,-5.0
1772794251.4047189,4608,1772794251,404604368,,-3.0,1.0,20.0,145.0,-32.0,-5.0
1772794251.4057395,4609,1772794251,405644692,,-1.0,1.0,23.0,154.0,-12.0,-6.0
1772794251.4067402,4610,1772794251,406595127,,-1.0,1.0,23.0,154.0,-12.0,-6.0
1772794251.407675,4611,1772794251,407599903,,-4.0,-2.0,22.0,136.0,0.0,-7.0
1772794251.4086993,4612,1772794251,408596498,,-4.0,-2.0,22.0,136.0,0.0,-7.0
1772794251.409677,4613,1772794251,409592604,,-5.0,0.0,22.0,157.0,-16.0,-3.0
1772794251.4106786,4614,1772794251,410588253,,-1.0,2.0,19.0,176.0,2.0,4.0
1772794251.4117055,4615,1772794251,411600990,,-1.0,2.0,19.0,176.0,2.0,4.0
1772794251.4126697,4616,1772794251,412589892,,1.0,0.0,23.0,173.0,35.0,-1.0
1772794251.4136693,4617,1772794251,413590119,,-2.0,-2.0,27.0,174.0,19.0,5.0
1772794251.4146793,4618,1772794251,414589405,,-2.0,-2.0,27.0,174.0,19.0,5.0
1772794251.4157195,4619,1772794251,415591238,,-2.0,-2.0,27.0,174.0,19.0,5.0
1772794251.4166749,4620,1772794251,416590528,,-2.0,0.0,16.0,131.0,33.0,7.0
1772794251.4178061,4621,1772794251,417589081,,-2.0,0.0,16.0,131.0,33.0,7.0
1772794251.4186654,4622,1772794251,418587977,,-3.0,-1.0,13.0,130.0,29.0,8.0
1772794251.4196546,4623,1772794251,419587111,,-3.0,-1.0,13.0,130.0,29.0,8.0
1772794251.42064,4624,1772794251,420585915,,-3.0,-1.0,13.0,130.0,29.0,8.0
1772794251.421638,4625,1772794251,421585901,,-4.0,-2.0,6.0,124.0,22.0,3.0
1772794251.4226437,4626,1772794251,422585217,,-5.0,-4.0,10.0,114.0,13.0,1.0
1772794251.4236255,4627,1772794251,423588796,,-5.0,-4.0,10.0,114.0,13.0,1.0
1772794251.4246392,4628,1772794251,424588167,,-3.0,-2.0,12.0,118.0,5.0,-5.0
1772794251.4256709,4629,1772794251,425585558,,-3.0,-2.0,12.0,118.0,5.0,-5.0
1772794251.4266284,4630,1772794251,426586696,,-3.0,0.0,8.0,100.0,1.0,-4.0
1772794251.4276378,4631,1772794251,427587762,,-3.0,0.0,8.0,100.0,1.0,-4.0
1772794251.4286432,4632,1772794251,428587868,,-5.0,0.0,4.0,78.0,-13.0,-2.0
1772794251.4296465,4633,1772794251,429586879,,-1.0,2.0,6.0,75.0,-16.0,-7.0
1772794251.430632,4634,1772794251,430585835,,-1.0,2.0,6.0,75.0,-16.0,-7.0
1772794251.4316592,4635,1772794251,431586266,,-1.0,2.0,6.0,75.0,-16.0,-7.0
1772794251.4326591,4636,1772794251,432587004,,-1.0,2.0,6.0,75.0,-16.0,-7.0
1772794251.4336436,4637,1772794251,433588659,,-3.0,0.0,5.0,65.0,-22.0,-9.0
1772794251.4346995,4638,1772794251,434587933,,-3.0,0.0,5.0,65.0,-22.0,-9.0
1772794251.4356542,4639,1772794251,435589415,,-2.0,2.0,10.0,73.0,-36.0,-5.0
1772794251.4366791,4640,1772794251,436588513,,-2.0,2.0,10.0,73.0,-36.0,-5.0
1772794251.437658,4641,1772794251,437590543,,-2.0,0.0,8.0,64.0,-12.0,-5.0
1772794251.4386969,4642,1772794251,438591267,,-2.0,0.0,8.0,64.0,-12.0,-5.0
1772794251.4396966,4643,1772794251,439593938,,-1.0,0.0,-1.0,43.0,-9.0,-6.0
1772794251.440678,4644,1772794251,440592668,,1.0,-1.0,-3.0,23.0,4.0,-8.0
1772794251.441684,4645,1772794251,441590293,,1.0,-1.0,-3.0,23.0,4.0,-8.0
1772794251.442678,4646,1772794251,442593002,,3.0,0.0,0.0,20.0,28.0,-4.0
1772794251.4436998,4647,1772794251,443590759,,3.0,0.0,0.0,20.0,28.0,-4.0
1772794251.444676,4648,1772794251,444592176,,1.0,0.0,-2.0,0.0,23.0,-1.0
1772794251.4457066,4649,1772794251,445591173,,1.0,0.0,-2.0,0.0,23.0,-1.0
1772794251.446695,4650,1772794251,446604143,,1.0,0.0,-2.0,0.0,23.0,-1.0
1772794251.447674,4651,1772794251,447592565,,0.0,-1.0,-4.0,17.0,21.0,-4.0
1772794251.448681,4652,1772794251,448590714,,0.0,-1.0,-4.0,17.0,21.0,-4.0
1772794251.4497015,4653,1772794251,449593027,,1.0,1.0,3.0,18.0,7.0,5.0
1772794251.450756,4654,1772794251,450590764,,1.0,1.0,3.0,18.0,7.0,5.0
1772794251.451717,4655,1772794251,451592249,,-2.0,0.0,7.0,16.0,8.0,3.0
1772794251.4526975,4656,1772794251,452590181,,-2.0,0.0,7.0,16.0,8.0,3.0
1772794251.4536655,4657,1772794251,453590911,,-3.0,0.0,2.0,3.0,9.0,-2.0
1772794251.4546626,4658,1772794251,454590347,,-2.0,0.0,2.0,35.0,-2.0,1.0
1772794251.4556468,4659,1772794251,455587458,,-2.0,0.0,2.0,35.0,-2.0,1.0
1772794251.4566603,4660,1772794251,456587625,,-2.0,-1.0,1.0,20.0,-5.0,1.0
1772794251.457642,4661,1772794251,457585475,,-2.0,-1.0,1.0,20.0,-5.0,1.0
1772794251.4586658,4662,1772794251,458585612,,-3.0,-2.0,9.0,52.0,-20.0,-1.0
1772794251.4596713,4663,1772794251,459585380,,-3.0,-2.0,9.0,52.0,-20.0,-1.0
1772794251.4606214,4664,1772794251,460585916,,0.0,-1.0,8.0,55.0,-24.0,-10.0
1772794251.4616387,4665,1772794251,461585480,,0.0,-1.0,8.0,55.0,-24.0,-10.0
1772794251.4626257,4666,1772794251,462585627,,0.0,-1.0,8.0,55.0,-24.0,-10.0
1772794251.463649,4667,1772794251,463586608,,-1.0,-2.0,12.0,99.0,-36.0,-14.0
1772794251.4646318,4668,1772794251,464586598,,2.0,-2.0,20.0,135.0,-29.0,-11.0
1772794251.4656374,4669,1772794251,465585916,,2.0,-2.0,20.0,135.0,-29.0,-11.0
1772794251.4666457,4670,1772794251,466586727,,2.0,-2.0,20.0,135.0,-29.0,-11.0
1772794251.467636,4671,1772794251,467588012,,2.0,1.0,16.0,141.0,-12.0,-6.0
1772794251.4686515,4672,1772794251,468588027,,0.0,1.0,19.0,139.0,-3.0,-15.0
1772794251.4696455,4673,1772794251,469587894,,0.0,1.0,19.0,139.0,-3.0,-15.0
1772794251.4706695,4674,1772794251,470589822,,1.0,0.0,22.0,155.0,-11.0,-8.0
1772794251.4716616,4675,1772794251,471589574,,1.0,0.0,22.0,155.0,-11.0,-8.0
1772794251.4727056,4676,1772794251,472592252,,-2.0,1.0,23.0,172.0,-20.0,-9.0
1772794251.4736853,4677,1772794251,473590044,,-2.0,1.0,23.0,172.0,-20.0,-9.0
1772794251.474666,4678,1772794251,474590981,,-3.0,0.0,24.0,176.0,-14.0,-13.0
1772794251.4756758,4679,1772794251,475589698,,-3.0,0.0,24.0,176.0,-14.0,-13.0
1772794251.476661,4680,1772794251,476590724,,-5.0,1.0,24.0,172.0,-19.0,-8.0
1772794251.4776576,4681,1772794251,477589783,,-5.0,1.0,24.0,172.0,-19.0,-8.0
1772794251.478684,4682,1772794251,478590114,,-5.0,1.0,24.0,172.0,-19.0,-8.0
1772794251.4796689,4683,1772794251,479591894,,-3.0,1.0,38.0,186.0,-6.0,-5.0
1772794251.480677,4684,1772794251,480591378,,-3.0,1.0,38.0,186.0,-6.0,-5.0
1772794251.481659,4685,1772794251,481591595,,-3.0,1.0,32.0,190.0,-5.0,-6.0
1772794251.4826972,4686,1772794251,482589269,,-3.0,1.0,32.0,190.0,-5.0,-6.0
1772794251.4836762,4687,1772794251,483591122,,-2.0,0.0,22.0,156.0,-5.0,-7.0
1772794251.4846687,4688,1772794251,484589079,,-2.0,0.0,22.0,156.0,-5.0,-7.0
1772794251.4856722,4689,1772794251,485591802,,-1.0,0.0,24.0,163.0,-10.0,-5.0
1772794251.4866621,4690,1772794251,486591306,,-1.0,1.0,22.0,139.0,-17.0,-3.0
1772794251.4876754,4691,1772794251,487589643,,-1.0,1.0,22.0,139.0,-17.0,-3.0
1772794251.4886615,4692,1772794251,488591594,,-3.0,2.0,27.0,123.0,-21.0,-2.0
1772794251.4896586,4693,1772794251,489589919,,-3.0,2.0,27.0,123.0,-21.0,-2.0
1772794251.4906876,4694,1772794251,490607868,,-2.0,1.0,25.0,112.0,-16.0,2.0
1772794251.4916542,4695,1772794251,491588793,,-2.0,1.0,25.0,112.0,-16.0,2.0
1772794251.4926658,4696,1772794251,492590228,,-3.0,-1.0,22.0,68.0,-12.0,2.0
1772794251.493659,4697,1772794251,493587739,,-3.0,-1.0,22.0,68.0,-12.0,2.0
1772794251.494689,4698,1772794251,494588126,,-3.0,0.0,20.0,61.0,-18.0,6.0
1772794251.4956343,4699,1772794251,495585447,,-3.0,0.0,20.0,61.0,-18.0,6.0
1772794251.4966204,4700,1772794251,496584772,,-3.0,0.0,20.0,61.0,-18.0,6.0
1772794251.4976544,4701,1772794251,497585214,,-2.0,0.0,14.0,28.0,-18.0,-1.0
1772794251.4986296,4702,1772794251,498583867,,-1.0,0.0,8.0,16.0,-4.0,-4.0
1772794251.49961,4703,1772794251,499582794,,-1.0,0.0,8.0,16.0,-4.0,-4.0
1772794251.5006163,4704,1772794251,500582769,,-1.0,0.0,8.0,16.0,-4.0,-4.0
1772794251.501605,4705,1772794251,501583274,,0.0,0.0,9.0,14.0,12.0,-2.0
1772794251.5026069,4706,1772794251,502583624,,0.0,0.0,10.0,-8.0,4.0,1.0
1772794251.503606,4707,1772794251,503583118,,0.0,0.0,10.0,-8.0,4.0,1.0
1772794251.5046132,4708,1772794251,504583933,,0.0,1.0,6.0,-29.0,-2.0,-4.0
1772794251.5056088,4709,1772794251,505583226,,0.0,1.0,6.0,-29.0,-2.0,-4.0
1772794251.5066116,4710,1772794251,506584317,,-1.0,1.0,3.0,-34.0,-10.0,-5.0
1772794251.5076203,4711,1772794251,507584188,,-1.0,1.0,3.0,-34.0,-10.0,-5.0
1772794251.508617,4712,1772794251,508585016,,-2.0,1.0,5.0,-41.0,-23.0,-1.0
1772794251.5096273,4713,1772794251,509584488,,-2.0,1.0,5.0,-41.0,-23.0,-1.0
1772794251.510628,4714,1772794251,510586020,,-2.0,1.0,2.0,-60.0,-17.0,-4.0
1772794251.5116267,4715,1772794251,511585618,,-2.0,1.0,2.0,-60.0,-17.0,-4.0
1772794251.5126376,4716,1772794251,512585894,,-2.0,1.0,2.0,-60.0,-17.0,-4.0
1772794251.5136337,4717,1772794251,513587134,,-2.0,-1.0,8.0,-38.0,-33.0,-10.0
1772794251.5146475,4718,1772794251,514586608,,-2.0,-1.0,8.0,-38.0,-33.0,-10.0
1772794251.5156395,4719,1772794251,515588114,,1.0,-2.0,-7.0,-34.0,-5.0,-7.0
1772794251.5166497,4720,1772794251,516586685,,1.0,-2.0,-7.0,-34.0,-5.0,-7.0
1772794251.5176613,4721,1772794251,517589134,,2.0,-2.0,7.0,3.0,-12.0,-9.0
1772794251.5186462,4722,1772794251,518588763,,0.0,0.0,-4.0,9.0,-5.0,-8.0
1772794251.519678,4723,1772794251,519588245,,0.0,0.0,-4.0,9.0,-5.0,-8.0
1772794251.5206666,4724,1772794251,520590640,,-1.0,0.0,4.0,45.0,-10.0,-3.0
1772794251.5216773,4725,1772794251,521589502,,-1.0,0.0,4.0,45.0,-10.0,-3.0
1772794251.5226734,4726,1772794251,522594294,,0.0,-2.0,3.0,56.0,-10.0,1.0
1772794251.523689,4727,1772794251,523590877,,0.0,-2.0,3.0,56.0,-10.0,1.0
1772794251.5246785,4728,1772794251,524591890,,0.0,-1.0,3.0,49.0,-9.0,-3.0
1772794251.5256815,4729,1772794251,525590720,,0.0,-1.0,3.0,49.0,-9.0,-3.0
1772794251.5267437,4730,1772794251,526591939,,0.0,-1.0,3.0,49.0,-9.0,-3.0
1772794251.5276816,4731,1772794251,527593012,,0.0,1.0,12.0,69.0,-11.0,-3.0
1772794251.5287082,4732,1772794251,528589353,,0.0,1.0,12.0,69.0,-11.0,-3.0
1772794251.529664,4733,1772794251,529591211,,-1.0,0.0,7.0,96.0,-26.0,-1.0
1772794251.5306602,4734,1772794251,530588978,,-1.0,0.0,7.0,96.0,-26.0,-1.0
1772794251.5317392,4735,1772794251,531564911,,0.0,-2.0,11.0,100.0,4.0,1.0
1772794251.5327315,4736,1772794251,532599120,,0.0,-2.0,11.0,100.0,4.0,1.0
1772794251.5337186,4737,1772794251,533596862,,-1.0,-2.0,7.0,97.0,8.0,-4.0
1772794251.5346901,4738,1772794251,534594922,,-3.0,0.0,10.0,127.0,-14.0,-4.0
1772794251.5357156,4739,1772794251,535594112,,-3.0,0.0,10.0,127.0,-14.0,-4.0
1772794251.5366924,4740,1772794251,536593291,,-3.0,0.0,9.0,113.0,-21.0,-6.0
1772794251.53769,4741,1772794251,537593167,,-3.0,0.0,9.0,113.0,-21.0,-6.0
1772794251.538736,4742,1772794251,538592661,,-3.0,0.0,18.0,128.0,-28.0,-3.0
1772794251.539702,4743,1772794251,539595570,,-2.0,0.0,12.0,115.0,-27.0,-7.0
1772794251.5407124,4744,1772794251,540593622,,-2.0,0.0,12.0,115.0,-27.0,-7.0
1772794251.541709,4745,1772794251,541593302,,-2.0,0.0,12.0,115.0,-27.0,-7.0
1772794251.5428143,4746,1772794251,542599717,,-2.0,0.0,12.0,115.0,-27.0,-7.0
1772794251.543735,4747,1772794251,543599529,,-2.0,1.0,16.0,115.0,-20.0,-6.0
1772794251.5447469,4748,1772794251,544601360,,-2.0,1.0,16.0,115.0,-20.0,-6.0
1772794251.5457964,4749,1772794251,545608772,,-2.0,0.0,18.0,120.0,-15.0,-9.0
1772794251.5467834,4750,1772794251,546597976,,-2.0,0.0,18.0,120.0,-15.0,-9.0
1772794251.5477614,4751,1772794251,547601151,,-3.0,0.0,20.0,89.0,-18.0,-5.0
1772794251.548731,4752,1772794251,548603728,,0.0,0.0,20.0,89.0,1.0,-6.0
1772794251.5497065,4753,1772794251,549595700,,0.0,0.0,20.0,89.0,1.0,-6.0
1772794251.55074,4754,1772794251,550595044,,0.0,1.0,29.0,97.0,3.0,-9.0
1772794251.551744,4755,1772794251,551595522,,0.0,1.0,29.0,97.0,3.0,-9.0
1772794251.5527666,4756,1772794251,552597966,,-1.0,1.0,25.0,73.0,-6.0,-3.0
1772794251.5537467,4757,1772794251,553595809,,-1.0,1.0,25.0,73.0,-6.0,-3.0
1772794251.5547276,4758,1772794251,554598870,,-1.0,1.0,23.0,54.0,-13.0,-1.0
1772794251.5557075,4759,1772794251,555594089,,-1.0,1.0,23.0,54.0,-13.0,-1.0
1772794251.5567205,4760,1772794251,556595090,,-1.0,1.0,23.0,54.0,-13.0,-1.0
1772794251.5577493,4761,1772794251,557599822,,-1.0,3.0,13.0,34.0,-12.0,0.0
1772794251.5588045,4762,1772794251,558601138,,-1.0,3.0,13.0,34.0,-12.0,0.0
1772794251.5597672,4763,1772794251,559604701,,0.0,2.0,15.0,6.0,-19.0,1.0
1772794251.560751,4764,1772794251,560599114,,0.0,2.0,15.0,6.0,-19.0,1.0
1772794251.5617623,4765,1772794251,561602928,,-1.0,1.0,16.0,5.0,-25.0,-2.0
1772794251.562725,4766,1772794251,562596990,,-1.0,1.0,16.0,5.0,-25.0,-2.0
1772794251.5637174,4767,1772794251,563599677,,0.0,0.0,6.0,-13.0,-16.0,-1.0
1772794251.5646904,4768,1772794251,564596004,,-1.0,1.0,13.0,5.0,-32.0,-4.0
1772794251.565697,4769,1772794251,565594283,,-1.0,1.0,13.0,5.0,-32.0,-4.0
1772794251.5666842,4770,1772794251,566593319,,-2.0,1.0,9.0,-24.0,-38.0,-6.0
1772794251.5676906,4771,1772794251,567591107,,-2.0,1.0,9.0,-24.0,-38.0,-6.0
1772794251.5686972,4772,1772794251,568592816,,-1.0,1.0,9.0,-36.0,-37.0,-1.0
1772794251.5696788,4773,1772794251,569591249,,-1.0,1.0,9.0,-36.0,-37.0,-1.0
1772794251.5706816,4774,1772794251,570593185,,0.0,0.0,10.0,-42.0,-34.0,1.0
1772794251.5716832,4775,1772794251,571592184,,0.0,0.0,10.0,-42.0,-34.0,1.0
1772794251.5726957,4776,1772794251,572594828,,1.0,0.0,13.0,-26.0,-23.0,2.0
1772794251.5736842,4777,1772794251,573590815,,1.0,0.0,13.0,-26.0,-23.0,2.0
1772794251.574678,4778,1772794251,574590559,,1.0,0.0,13.0,-26.0,-23.0,2.0
1772794251.5756886,4779,1772794251,575593800,,-2.0,-1.0,7.0,-41.0,-16.0,2.0
1772794251.576652,4780,1772794251,576553005,,1.0,1.0,11.0,-11.0,-5.0,6.0
1772794251.5777006,4781,1772794251,577591838,,1.0,1.0,11.0,-11.0,-5.0,6.0
1772794251.5786927,4782,1772794251,578590925,,1.0,1.0,11.0,-11.0,-5.0,6.0
1772794251.5796852,4783,1772794251,579592516,,-2.0,0.0,5.0,-36.0,-6.0,-3.0
1772794251.5806806,4784,1772794251,580592153,,-1.0,-1.0,0.0,-19.0,-10.0,0.0
1772794251.5816727,4785,1772794251,581589489,,-1.0,-1.0,0.0,-19.0,-10.0,0.0
1772794251.582682,4786,1772794251,582589991,,-2.0,-1.0,-8.0,-22.0,-8.0,2.0
1772794251.5836854,4787,1772794251,583589668,,-2.0,-1.0,-8.0,-22.0,-8.0,2.0
1772794251.5846784,4788,1772794251,584591858,,-2.0,0.0,-1.0,-26.0,-9.0,-3.0
1772794251.5856936,4789,1772794251,585590834,,-2.0,0.0,-1.0,-26.0,-9.0,-3.0
1772794251.5866704,4790,1772794251,586591398,,1.0,0.0,2.0,-10.0,7.0,-2.0
1772794251.587642,4791,1772794251,587551454,,1.0,0.0,2.0,-10.0,7.0,-2.0
1772794251.5886712,4792,1772794251,588590949,,1.0,0.0,2.0,-10.0,7.0,-2.0
1772794251.5896957,4793,1772794251,589592283,,-1.0,-1.0,5.0,-3.0,-12.0,-7.0
1772794251.590676,4794,1772794251,590590766,,-1.0,-1.0,5.0,-3.0,-12.0,-7.0
1772794251.5916765,4795,1772794251,591592591,,0.0,0.0,0.0,29.0,-9.0,-9.0
1772794251.5926833,4796,1772794251,592591181,,0.0,0.0,0.0,29.0,-9.0,-9.0
1772794251.593691,4797,1772794251,593592178,,3.0,-1.0,5.0,47.0,-1.0,-5.0
1772794251.5946908,4798,1772794251,594590160,,3.0,-1.0,5.0,47.0,-1.0,-5.0
1772794251.59568,4799,1772794251,595593201,,1.0,1.0,6.0,55.0,-3.0,-3.0
1772794251.5967004,4800,1772794251,596590338,,1.0,1.0,6.0,55.0,-3.0,-3.0
1772794251.597739,4801,1772794251,597618031,,-3.0,0.0,10.0,73.0,-14.0,-7.0
1772794251.5986698,4802,1772794251,598590980,,-3.0,0.0,10.0,73.0,-14.0,-7.0
1772794251.5996702,4803,1772794251,599591891,,-3.0,2.0,8.0,89.0,-19.0,-13.0
1772794251.6007123,4804,1772794251,600592419,,-3.0,0.0,13.0,120.0,-16.0,-11.0
1772794251.6016698,4805,1772794251,601590689,,-3.0,0.0,13.0,120.0,-16.0,-11.0
1772794251.6026728,4806,1772794251,602591261,,0.0,-1.0,18.0,120.0,9.0,-7.0
1772794251.6036742,4807,1772794251,603590160,,0.0,-1.0,18.0,120.0,9.0,-7.0
1772794251.6046598,4808,1772794251,604590204,,1.0,0.0,22.0,142.0,20.0,-7.0
1772794251.6056783,4809,1772794251,605589417,,1.0,0.0,22.0,142.0,20.0,-7.0
1772794251.6066587,4810,1772794251,606589075,,1.0,0.0,22.0,142.0,20.0,-7.0
1772794251.6076636,4811,1772794251,607591540,,-1.0,0.0,25.0,177.0,8.0,-6.0
1772794251.6087055,4812,1772794251,608588785,,-1.0,0.0,25.0,177.0,8.0,-6.0
1772794251.609713,4813,1772794251,609620752,,-1.0,1.0,23.0,196.0,5.0,-5.0
1772794251.6107352,4814,1772794251,610588808,,-1.0,1.0,23.0,196.0,5.0,-5.0
1772794251.61171,4815,1772794251,611590333,,0.0,2.0,32.0,208.0,27.0,4.0
1772794251.6126533,4816,1772794251,612590014,,-2.0,1.0,29.0,208.0,19.0,-3.0
1772794251.6137218,4817,1772794251,613589924,,-2.0,1.0,29.0,208.0,19.0,-3.0
1772794251.6146734,4818,1772794251,614589024,,-2.0,1.0,29.0,208.0,19.0,-3.0
1772794251.6156569,4819,1772794251,615589829,,-1.0,-1.0,34.0,218.0,15.0,-4.0
1772794251.6167011,4820,1772794251,616589249,,-3.0,2.0,27.0,227.0,5.0,-8.0
1772794251.6176586,4821,1772794251,617587637,,-3.0,2.0,27.0,227.0,5.0,-8.0
1772794251.618784,4822,1772794251,618589065,,-5.0,0.0,38.0,258.0,-10.0,-6.0
1772794251.6196685,4823,1772794251,619588503,,-5.0,0.0,38.0,258.0,-10.0,-6.0
1772794251.6206753,4824,1772794251,620588793,,1.0,0.0,32.0,239.0,21.0,-4.0
1772794251.6216495,4825,1772794251,621588831,,1.0,0.0,32.0,239.0,21.0,-4.0
1772794251.622647,4826,1772794251,622589737,,-3.0,0.0,26.0,186.0,24.0,-10.0
1772794251.6236594,4827,1772794251,623590242,,-3.0,0.0,26.0,186.0,24.0,-10.0
1772794251.6246738,4828,1772794251,624590081,,-3.0,0.0,26.0,186.0,24.0,-10.0
1772794251.625674,4829,1772794251,625589478,,-3.0,1.0,28.0,202.0,-3.0,-6.0
1772794251.626646,4830,1772794251,626588474,,-3.0,1.0,28.0,202.0,-3.0,-6.0
1772794251.6276517,4831,1772794251,627589861,,-3.0,1.0,28.0,212.0,-3.0,-8.0
1772794251.6286516,4832,1772794251,628588555,,-3.0,1.0,28.0,212.0,-3.0,-8.0
1772794251.629671,4833,1772794251,629589482,,-7.0,0.0,26.0,190.0,-26.0,-5.0
1772794251.630648,4834,1772794251,630587501,,-7.0,0.0,26.0,190.0,-26.0,-5.0
1772794251.6317012,4835,1772794251,631588937,,-5.0,1.0,34.0,178.0,-35.0,-5.0
1772794251.632643,4836,1772794251,632588064,,-5.0,1.0,34.0,178.0,-35.0,-5.0
1772794251.6336617,4837,1772794251,633589143,,-5.0,1.0,24.0,135.0,-21.0,-8.0
1772794251.6346931,4838,1772794251,634616021,,-3.0,0.0,28.0,129.0,-3.0,-4.0
1772794251.6356587,4839,1772794251,635587915,,-3.0,0.0,28.0,129.0,-3.0,-4.0
1772794251.6367207,4840,1772794251,636605170,,-5.0,1.0,22.0,101.0,-7.0,0.0
1772794251.6376605,4841,1772794251,637590957,,-5.0,1.0,22.0,101.0,-7.0,0.0
1772794251.6387646,4842,1772794251,638591557,,-2.0,0.0,25.0,77.0,-7.0,-2.0
1772794251.6396933,4843,1772794251,639589825,,-2.0,0.0,25.0,77.0,-7.0,-2.0
1772794251.6406927,4844,1772794251,640586956,,0.0,1.0,21.0,22.0,16.0,0.0
1772794251.6416945,4845,1772794251,641584641,,0.0,1.0,21.0,22.0,16.0,0.0
1772794251.6426895,4846,1772794251,642584526,,0.0,1.0,21.0,22.0,16.0,0.0
1772794251.6436968,4847,1772794251,643585400,,1.0,-2.0,15.0,-10.0,9.0,4.0
1772794251.6447213,4848,1772794251,644584686,,1.0,-2.0,15.0,-10.0,9.0,4.0
1772794251.6457415,4849,1772794251,645603340,,0.0,1.0,8.0,-44.0,9.0,-7.0
1772794251.6468108,4850,1772794251,646600336,,0.0,1.0,8.0,-44.0,9.0,-7.0
1772794251.647715,4851,1772794251,647585891,,0.0,0.0,14.0,-38.0,-7.0,3.0
1772794251.6487274,4852,1772794251,648585816,,0.0,0.0,14.0,-38.0,-7.0,3.0
1772794251.6496983,4853,1772794251,649586799,,-2.0,1.0,4.0,-79.0,-27.0,5.0
1772794251.6507404,4854,1772794251,650586324,,-2.0,1.0,4.0,-79.0,-27.0,5.0
1772794251.6517258,4855,1772794251,651586485,,-1.0,1.0,8.0,-60.0,-42.0,1.0
1772794251.6527283,4856,1772794251,652587337,,2.0,1.0,8.0,-58.0,-42.0,4.0
1772794251.6537392,4857,1772794251,653586319,,2.0,1.0,8.0,-58.0,-42.0,4.0
1772794251.6547182,4858,1772794251,654586794,,2.0,-1.0,-1.0,-94.0,-29.0,0.0
1772794251.655739,4859,1772794251,655586354,,2.0,-1.0,-1.0,-94.0,-29.0,0.0
1772794251.6566389,4860,1772794251,656586426,,-1.0,-2.0,-8.0,-102.0,-29.0,-2.0
1772794251.6576881,4861,1772794251,657586610,,-1.0,-2.0,-8.0,-102.0,-29.0,-2.0
1772794251.6586568,4862,1772794251,658586486,,-1.0,-2.0,-8.0,-102.0,-29.0,-2.0
1772794251.6596527,4863,1772794251,659586646,,-1.0,0.0,-13.0,-112.0,-24.0,1.0
1772794251.6606636,4864,1772794251,660585767,,-1.0,0.0,-13.0,-112.0,-24.0,1.0
1772794251.6616545,4865,1772794251,661586465,,-1.0,-2.0,-13.0,-66.0,-11.0,0.0
1772794251.6626496,4866,1772794251,662591952,,-1.0,-2.0,-13.0,-66.0,-11.0,0.0
1772794251.6636372,4867,1772794251,663590755,,0.0,0.0,-4.0,-42.0,-16.0,1.0
1772794251.6646276,4868,1772794251,664585217,,0.0,0.0,-4.0,-42.0,-16.0,1.0
1772794251.6656897,4869,1772794251,665605514,,0.0,-1.0,-4.0,-15.0,-7.0,-1.0
1772794251.6666381,4870,1772794251,666584931,,0.0,-1.0,-4.0,-15.0,-7.0,-1.0
1772794251.6676319,4871,1772794251,667585217,,1.0,-1.0,-7.0,-3.0,-1.0,-7.0
1772794251.6686263,4872,1772794251,668585209,,0.0,-2.0,6.0,35.0,-17.0,-9.0
1772794251.6696243,4873,1772794251,669584427,,0.0,-2.0,6.0,35.0,-17.0,-9.0
1772794251.6706328,4874,1772794251,670584386,,-1.0,-1.0,7.0,58.0,-20.0,-10.0
1772794251.6716158,4875,1772794251,671583622,,-1.0,-1.0,7.0,58.0,-20.0,-10.0
1772794251.672617,4876,1772794251,672583897,,0.0,-2.0,10.0,57.0,-3.0,-15.0
1772794251.6736972,4877,1772794251,673588492,,0.0,-2.0,10.0,57.0,-3.0,-15.0
1772794251.674627,4878,1772794251,674584708,,0.0,-2.0,10.0,57.0,-3.0,-15.0
1772794251.6756184,4879,1772794251,675585557,,0.0,-1.0,14.0,91.0,-6.0,-9.0
1772794251.6766553,4880,1772794251,676584574,,-3.0,0.0,10.0,97.0,-9.0,-7.0
1772794251.6776304,4881,1772794251,677584113,,-3.0,0.0,10.0,97.0,-9.0,-7.0
1772794251.6786382,4882,1772794251,678593154,,-3.0,0.0,10.0,97.0,-9.0,-7.0
1772794251.6796534,4883,1772794251,679592385,,-2.0,0.0,20.0,122.0,9.0,-4.0
1772794251.6806195,4884,1772794251,680585739,,-3.0,0.0,17.0,129.0,7.0,-8.0
1772794251.6816168,4885,1772794251,681584098,,-3.0,0.0,17.0,129.0,7.0,-8.0
1772794251.6826549,4886,1772794251,682584242,,-3.0,0.0,17.0,129.0,7.0,-8.0
1772794251.6835964,4887,1772794251,683553753,,0.0,0.0,22.0,148.0,5.0,-5.0
1772794251.684622,4888,1772794251,684585253,,0.0,-3.0,24.0,169.0,-12.0,-3.0
1772794251.6856165,4889,1772794251,685584289,,0.0,-3.0,24.0,169.0,-12.0,-3.0
1772794251.6866174,4890,1772794251,686584336,,-2.0,-1.0,23.0,151.0,-14.0,-6.0
1772794251.6876287,4891,1772794251,687584225,,-2.0,-1.0,23.0,151.0,-14.0,-6.0
1772794251.6886215,4892,1772794251,688584927,,-4.0,0.0,26.0,127.0,-20.0,-8.0
1772794251.6896176,4893,1772794251,689583946,,-4.0,0.0,26.0,127.0,-20.0,-8.0
1772794251.690621,4894,1772794251,690583971,,-4.0,0.0,26.0,127.0,-20.0,-8.0
1772794251.6916373,4895,1772794251,691584130,,-4.0,-1.0,34.0,146.0,-17.0,-1.0
1772794251.6926181,4896,1772794251,692584290,,-4.0,0.0,20.0,92.0,-14.0,-1.0
1772794251.6936162,4897,1772794251,693584022,,-4.0,0.0,20.0,92.0,-14.0,-1.0
1772794251.6946228,4898,1772794251,694583905,,-4.0,0.0,20.0,92.0,-14.0,-1.0
1772794251.6956434,4899,1772794251,695584220,,-6.0,0.0,16.0,94.0,-10.0,2.0
1772794251.6966672,4900,1772794251,696584597,,-4.0,1.0,7.0,63.0,-6.0,-1.0
1772794251.697634,4901,1772794251,697584145,,-4.0,1.0,7.0,63.0,-6.0,-1.0
1772794251.6986363,4902,1772794251,698583892,,-4.0,1.0,7.0,63.0,-6.0,-1.0
1772794251.6996188,4903,1772794251,699584063,,-2.0,1.0,15.0,74.0,-10.0,5.0
1772794251.7006502,4904,1772794251,700584477,,-2.0,0.0,18.0,40.0,-16.0,3.0
1772794251.7016397,4905,1772794251,701584028,,-2.0,0.0,18.0,40.0,-16.0,3.0
1772794251.702655,4906,1772794251,702584861,,-2.0,2.0,17.0,27.0,-15.0,-3.0
1772794251.7036173,4907,1772794251,703584075,,-2.0,2.0,17.0,27.0,-15.0,-3.0
1772794251.7046473,4908,1772794251,704585170,,-1.0,1.0,16.0,47.0,-14.0,0.0
1772794251.7056563,4909,1772794251,705586717,,-1.0,1.0,16.0,47.0,-14.0,0.0
1772794251.706667,4910,1772794251,706585401,,-1.0,1.0,16.0,47.0,-14.0,0.0
1772794251.7076397,4911,1772794251,707585315,,-1.0,1.0,7.0,-15.0,9.0,-9.0
1772794251.7086265,4912,1772794251,708585338,,-5.0,1.0,1.0,-59.0,8.0,-4.0
1772794251.7096245,4913,1772794251,709584876,,-5.0,1.0,1.0,-59.0,8.0,-4.0
1772794251.7107108,4914,1772794251,710584871,,-5.0,1.0,1.0,-59.0,8.0,-4.0
1772794251.711639,4915,1772794251,711584853,,-2.0,0.0,6.0,-31.0,-4.0,-5.0
1772794251.7126198,4916,1772794251,712584692,,1.0,-2.0,2.0,-71.0,23.0,-1.0
1772794251.71362,4917,1772794251,713584284,,1.0,-2.0,2.0,-71.0,23.0,-1.0
1772794251.7146337,4918,1772794251,714584221,,1.0,-2.0,2.0,-71.0,23.0,-1.0
1772794251.7156198,4919,1772794251,715584686,,3.0,1.0,8.0,-50.0,8.0,5.0
1772794251.7166197,4920,1772794251,716584681,,1.0,0.0,5.0,-59.0,0.0,-2.0
1772794251.7176292,4921,1772794251,717583962,,1.0,0.0,5.0,-59.0,0.0,-2.0
1772794251.7186515,4922,1772794251,718584373,,-1.0,-1.0,-3.0,-66.0,-9.0,0.0
1772794251.7196183,4923,1772794251,719584252,,-1.0,-1.0,-3.0,-66.0,-9.0,0.0
1772794251.7206204,4924,1772794251,720584577,,-1.0,1.0,-1.0,-39.0,-16.0,-4.0
1772794251.7216513,4925,1772794251,721583943,,-1.0,1.0,-1.0,-39.0,-16.0,-4.0
1772794251.7226176,4926,1772794251,722584038,,-1.0,1.0,-1.0,-39.0,-16.0,-4.0
1772794251.7236176,4927,1772794251,723584255,,0.0,3.0,-8.0,-52.0,-14.0,-3.0
1772794251.7246313,4928,1772794251,724583990,,0.0,3.0,-8.0,-52.0,-14.0,-3.0
1772794251.7256172,4929,1772794251,725584348,,0.0,1.0,0.0,-29.0,-17.0,0.0
1772794251.7266178,4930,1772794251,726583950,,0.0,1.0,0.0,-29.0,-17.0,0.0
1772794251.727639,4931,1772794251,727584119,,-1.0,0.0,0.0,-18.0,-29.0,7.0
1772794251.7286644,4932,1772794251,728583923,,-1.0,0.0,0.0,-18.0,-29.0,7.0
1772794251.7296817,4933,1772794251,729584155,,-2.0,0.0,-3.0,-9.0,-44.0,2.0
1772794251.7307472,4934,1772794251,730583733,,-2.0,0.0,-3.0,-9.0,-44.0,2.0
1772794251.7317495,4935,1772794251,731584476,,-2.0,-1.0,1.0,-10.0,-37.0,-2.0
1772794251.732753,4936,1772794251,732584285,,1.0,-1.0,14.0,3.0,-36.0,1.0
1772794251.7337139,4937,1772794251,733583858,,1.0,-1.0,14.0,3.0,-36.0,1.0
1772794251.7346199,4938,1772794251,734584325,,-1.0,-2.0,11.0,11.0,-32.0,-3.0
1772794251.735634,4939,1772794251,735584103,,-1.0,-2.0,11.0,11.0,-32.0,-3.0
1772794251.736648,4940,1772794251,736584607,,-2.0,-2.0,5.0,7.0,-21.0,-6.0
1772794251.7376413,4941,1772794251,737584592,,-2.0,-2.0,5.0,7.0,-21.0,-6.0
1772794251.738638,4942,1772794251,738584994,,-1.0,-1.0,1.0,4.0,-1.0,-1.0
1772794251.7396533,4943,1772794251,739584971,,-1.0,-1.0,1.0,4.0,-1.0,-1.0
1772794251.7406385,4944,1772794251,740584751,,-1.0,-1.0,1.0,4.0,-1.0,-1.0
1772794251.7416325,4945,1772794251,741585331,,2.0,-1.0,10.0,-11.0,22.0,0.0
1772794251.7426434,4946,1772794251,742585527,,-1.0,0.0,10.0,6.0,12.0,7.0
1772794251.7436283,4947,1772794251,743585214,,-1.0,0.0,10.0,6.0,12.0,7.0
1772794251.7446399,4948,1772794251,744585149,,-1.0,0.0,10.0,6.0,12.0,7.0
1772794251.7456565,4949,1772794251,745585974,,0.0,0.0,15.0,22.0,7.0,2.0
1772794251.7466507,4950,1772794251,746586117,,4.0,0.0,14.0,-7.0,30.0,0.0
1772794251.7476385,4951,1772794251,747585423,,4.0,0.0,14.0,-7.0,30.0,0.0
1772794251.7486436,4952,1772794251,748585888,,-2.0,-1.0,17.0,-2.0,0.0,-4.0
1772794251.7496448,4953,1772794251,749585509,,-2.0,-1.0,17.0,-2.0,0.0,-4.0
1772794251.7506337,4954,1772794251,750586154,,0.0,-1.0,17.0,17.0,-7.0,-4.0
1772794251.7516353,4955,1772794251,751585937,,0.0,-1.0,17.0,17.0,-7.0,-4.0
1772794251.7526562,4956,1772794251,752586701,,-1.0,-1.0,19.0,1.0,-21.0,-10.0
1772794251.7536628,4957,1772794251,753586289,,-1.0,-1.0,19.0,1.0,-21.0,-10.0
1772794251.7546532,4958,1772794251,754586460,,-1.0,-1.0,19.0,1.0,-21.0,-10.0
1772794251.7556534,4959,1772794251,755587049,,0.0,0.0,20.0,6.0,-36.0,-12.0
1772794251.7567055,4960,1772794251,756594536,,0.0,0.0,20.0,6.0,-36.0,-12.0
1772794251.7576578,4961,1772794251,757591441,,-1.0,-1.0,15.0,20.0,-47.0,-8.0
1772794251.7586775,4962,1772794251,758587813,,-1.0,-1.0,15.0,20.0,-47.0,-8.0
1772794251.7596486,4963,1772794251,759587754,,-2.0,-2.0,12.0,20.0,-44.0,-11.0
1772794251.760675,4964,1772794251,760587983,,-2.0,-2.0,12.0,20.0,-44.0,-11.0
1772794251.7616494,4965,1772794251,761588233,,0.0,-1.0,16.0,33.0,-44.0,-10.0
1772794251.7626693,4966,1772794251,762588509,,0.0,-1.0,16.0,33.0,-44.0,-10.0
1772794251.7636545,4967,1772794251,763588963,,0.0,-2.0,20.0,32.0,-34.0,-13.0
1772794251.7646506,4968,1772794251,764587756,,-2.0,-2.0,17.0,65.0,-35.0,-17.0
1772794251.765641,4969,1772794251,765587191,,-2.0,-2.0,17.0,65.0,-35.0,-17.0
1772794251.766648,4970,1772794251,766587445,,-2.0,-2.0,20.0,84.0,-29.0,-17.0
1772794251.7676337,4971,1772794251,767586311,,-2.0,-2.0,20.0,84.0,-29.0,-17.0
1772794251.7686362,4972,1772794251,768587038,,-5.0,-1.0,13.0,91.0,-16.0,-9.0
1772794251.7696424,4973,1772794251,769586058,,-5.0,-1.0,13.0,91.0,-16.0,-9.0
1772794251.7706292,4974,1772794251,770585239,,-5.0,-1.0,13.0,91.0,-16.0,-9.0
1772794251.771609,4975,1772794251,771582811,,-2.0,-1.0,13.0,118.0,1.0,-7.0
1772794251.7726355,4976,1772794251,772582344,,-2.0,-1.0,13.0,118.0,1.0,-7.0
1772794251.7736182,4977,1772794251,773584402,,-1.0,1.0,4.0,95.0,4.0,-2.0
1772794251.7747478,4978,1772794251,774584149,,-1.0,1.0,4.0,95.0,4.0,-2.0
1772794251.775769,4979,1772794251,775584460,,0.0,0.0,-1.0,79.0,28.0,0.0
1772794251.7768273,4980,1772794251,776586268,,1.0,1.0,-3.0,95.0,18.0,-1.0
1772794251.7776449,4981,1772794251,777584469,,1.0,1.0,-3.0,95.0,18.0,-1.0
1772794251.7786222,4982,1772794251,778584154,,1.0,1.0,-3.0,95.0,18.0,-1.0
1772794251.7796307,4983,1772794251,779584512,,2.0,0.0,5.0,131.0,15.0,4.0
1772794251.7806304,4984,1772794251,780585080,,1.0,0.0,6.0,126.0,14.0,1.0
1772794251.7816463,4985,1772794251,781584703,,1.0,0.0,6.0,126.0,14.0,1.0
1772794251.782628,4986,1772794251,782585485,,0.0,0.0,12.0,139.0,-1.0,-1.0
1772794251.7836347,4987,1772794251,783584528,,0.0,0.0,12.0,139.0,-1.0,-1.0
1772794251.7846255,4988,1772794251,784584527,,0.0,0.0,12.0,139.0,-1.0,-1.0
1772794251.7856264,4989,1772794251,785584566,,0.0,1.0,13.0,130.0,0.0,-3.0
1772794251.7866225,4990,1772794251,786584382,,0.0,1.0,13.0,130.0,0.0,-3.0
1772794251.787631,4991,1772794251,787584769,,-1.0,2.0,12.0,119.0,-12.0,0.0
1772794251.788652,4992,1772794251,788584571,,-1.0,2.0,12.0,119.0,-12.0,0.0
1772794251.789632,4993,1772794251,789584815,,-3.0,-2.0,-1.0,64.0,8.0,-4.0
1772794251.7906244,4994,1772794251,790584047,,-3.0,-2.0,-1.0,64.0,8.0,-4.0
1772794251.7916336,4995,1772794251,791585014,,-1.0,-1.0,-3.0,33.0,6.0,-8.0
1772794251.7926228,4996,1772794251,792584326,,-1.0,-1.0,-3.0,33.0,6.0,-8.0
1772794251.793632,4997,1772794251,793584709,,0.0,0.0,10.0,27.0,2.0,-5.0
1772794251.7946227,4998,1772794251,794584574,,2.0,2.0,19.0,17.0,-10.0,-1.0
1772794251.7956479,4999,1772794251,795584791,,2.0,2.0,19.0,17.0,-10.0,-1.0
1772794251.7966557,5000,1772794251,796584799,,-1.0,2.0,13.0,-1.0,-27.0,-2.0
1772794251.7976189,5001,1772794251,797583743,,-1.0,2.0,13.0,-1.0,-27.0,-2.0
1772794251.7986312,5002,1772794251,798583978,,-1.0,2.0,13.0,-1.0,-27.0,-2.0
1772794251.7996306,5003,1772794251,799584145,,-1.0,1.0,12.0,-28.0,-28.0,-5.0
1772794251.8006349,5004,1772794251,800584385,,-1.0,1.0,12.0,-28.0,-28.0,-5.0
1772794251.801624,5005,1772794251,801585148,,-2.0,2.0,9.0,-78.0,-34.0,-3.0
1772794251.802623,5006,1772794251,802584458,,-2.0,2.0,9.0,-78.0,-34.0,-3.0
1772794251.8036253,5007,1772794251,803584969,,-1.0,1.0,16.0,-81.0,-33.0,-8.0
1772794251.8046246,5008,1772794251,804584515,,-1.0,1.0,16.0,-81.0,-33.0,-8.0
1772794251.805625,5009,1772794251,805585211,,-1.0,1.0,23.0,-76.0,-32.0,-5.0
1772794251.806624,5010,1772794251,806584331,,-1.0,1.0,23.0,-76.0,-32.0,-5.0
1772794251.8076286,5011,1772794251,807584161,,-1.0,2.0,15.0,-88.0,-43.0,-7.0
1772794251.8086271,5012,1772794251,808583611,,-1.0,2.0,15.0,-88.0,-43.0,-7.0
1772794251.8096178,5013,1772794251,809583635,,-3.0,1.0,17.0,-79.0,-58.0,-2.0
1772794251.8106146,5014,1772794251,810583867,,0.0,0.0,13.0,-80.0,-35.0,-3.0
1772794251.8116834,5015,1772794251,811583956,,0.0,0.0,13.0,-80.0,-35.0,-3.0
1772794251.812651,5016,1772794251,812584333,,0.0,0.0,17.0,-73.0,-27.0,6.0
1772794251.8136225,5017,1772794251,813584007,,0.0,0.0,17.0,-73.0,-27.0,6.0
1772794251.814628,5018,1772794251,814584149,,0.0,0.0,17.0,-73.0,-27.0,6.0
1772794251.815648,5019,1772794251,815584331,,1.0,-1.0,14.0,-84.0,-15.0,4.0
1772794251.8166282,5020,1772794251,816584365,,1.0,-1.0,14.0,-84.0,-15.0,4.0
1772794251.8176167,5021,1772794251,817584171,,1.0,-1.0,10.0,-58.0,-14.0,4.0
1772794251.8186178,5022,1772794251,818583996,,1.0,-1.0,10.0,-58.0,-14.0,4.0
1772794251.819701,5023,1772794251,819606227,,1.0,0.0,13.0,1.0,-18.0,4.0
1772794251.8206398,5024,1772794251,820584048,,0.0,2.0,10.0,-2.0,-10.0,7.0
1772794251.821623,5025,1772794251,821583704,,0.0,2.0,10.0,-2.0,-10.0,7.0
1772794251.8226147,5026,1772794251,822583433,,0.0,2.0,10.0,-2.0,-10.0,7.0
1772794251.8236156,5027,1772794251,823583594,,-2.0,-1.0,12.0,47.0,2.0,-2.0
1772794251.824622,5028,1772794251,824583322,,-2.0,-1.0,12.0,47.0,2.0,-2.0
1772794251.825614,5029,1772794251,825583648,,-4.0,-2.0,12.0,95.0,-10.0,-8.0
1772794251.8266225,5030,1772794251,826583396,,-4.0,-2.0,12.0,95.0,-10.0,-8.0
1772794251.8276196,5031,1772794251,827584037,,-2.0,-2.0,10.0,96.0,11.0,-8.0
1772794251.8286178,5032,1772794251,828584059,,-2.0,-1.0,10.0,123.0,2.0,-5.0
1772794251.829617,5033,1772794251,829584053,,-2.0,-1.0,10.0,123.0,2.0,-5.0
1772794251.8306177,5034,1772794251,830584408,,-4.0,-1.0,13.0,146.0,-11.0,-2.0
1772794251.831623,5035,1772794251,831583823,,-4.0,-1.0,13.0,146.0,-11.0,-2.0
1772794251.8326464,5036,1772794251,832583809,,-4.0,-1.0,13.0,146.0,-11.0,-2.0
1772794251.8336358,5037,1772794251,833585130,,-6.0,0.0,11.0,162.0,-20.0,-12.0
1772794251.8346286,5038,1772794251,834583995,,-6.0,0.0,11.0,162.0,-20.0,-12.0
1772794251.8356175,5039,1772794251,835583981,,-6.0,0.0,10.0,157.0,-21.0,-11.0
1772794251.8366566,5040,1772794251,836601928,,-6.0,0.0,10.0,157.0,-21.0,-11.0
1772794251.83762,5041,1772794251,837585174,,-2.0,0.0,10.0,154.0,-9.0,-7.0
1772794251.838618,5042,1772794251,838584039,,-2.0,0.0,10.0,154.0,-9.0,-7.0
1772794251.83964,5043,1772794251,839584495,,-4.0,0.0,16.0,136.0,-20.0,-10.0
1772794251.840628,5044,1772794251,840585427,,-4.0,0.0,16.0,136.0,-20.0,-10.0
1772794251.8416314,5045,1772794251,841586657,,-4.0,-1.0,12.0,109.0,-16.0,-11.0
1772794251.8426402,5046,1772794251,842585128,,-4.0,-1.0,12.0,109.0,-16.0,-11.0
1772794251.8436208,5047,1772794251,843586128,,-1.0,0.0,17.0,61.0,-7.0,-1.0
1772794251.8446298,5048,1772794251,844585019,,-1.0,0.0,17.0,61.0,-7.0,-1.0
1772794251.8456957,5049,1772794251,845584876,,-3.0,1.0,11.0,24.0,-10.0,0.0
1772794251.8466403,5050,1772794251,846585084,,-1.0,1.0,16.0,11.0,-2.0,2.0
1772794251.8476202,5051,1772794251,847584481,,-1.0,1.0,16.0,11.0,-2.0,2.0
1772794251.848647,5052,1772794251,848584331,,-1.0,1.0,16.0,11.0,-2.0,2.0
1772794251.8496206,5053,1772794251,849584873,,2.0,2.0,11.0,-52.0,4.0,1.0
1772794251.8506868,5054,1772794251,850602630,,2.0,2.0,11.0,-52.0,4.0,1.0
1772794251.851706,5055,1772794251,851607489,,-1.0,1.0,5.0,-85.0,-12.0,1.0
1772794251.8526914,5056,1772794251,852600616,,-1.0,1.0,5.0,-85.0,-12.0,1.0
1772794251.8537064,5057,1772794251,853603686,,-2.0,0.0,5.0,-94.0,-16.0,7.0
1772794251.8546786,5058,1772794251,854600569,,-2.0,0.0,5.0,-94.0,-16.0,7.0
1772794251.8556852,5059,1772794251,855603248,,-4.0,1.0,13.0,-108.0,-34.0,10.0
1772794251.8566535,5060,1772794251,856584523,,-1.0,-1.0,19.0,-125.0,-18.0,7.0
1772794251.8576324,5061,1772794251,857584328,,-1.0,-1.0,19.0,-125.0,-18.0,7.0
1772794251.858648,5062,1772794251,858584183,,-1.0,-1.0,19.0,-125.0,-18.0,7.0
1772794251.8596408,5063,1772794251,859584767,,-1.0,-1.0,15.0,-110.0,-30.0,9.0
1772794251.8606203,5064,1772794251,860584251,,-2.0,-3.0,12.0,-132.0,-29.0,-3.0
1772794251.86163,5065,1772794251,861584014,,-2.0,-3.0,12.0,-132.0,-29.0,-3.0
