Time,header.seq,header.stamp.secs,header.stamp.nsecs,header.frame_id,wrench.force.x,wrench.force.y,wrench.force.z,wrench.torque.x,wrench.torque.y,wrench.torque.z
1772794803.7282932,961,1772794803,728072712,,0.0,-1.0,-7.0,-32.0,15.0,13.0
1772794803.729365,962,1772794803,729094508,,4.0,-1.0,3.0,-6.0,17.0,9.0
1772794803.7302854,963,1772794803,730077890,,4.0,-1.0,3.0,-6.0,17.0,9.0
1772794803.73122,964,1772794803,731072381,,4.0,-1.0,3.0,-6.0,17.0,9.0
1772794803.7322633,965,1772794803,732078006,,4.0,-2.0,10.0,-13.0,19.0,9.0
1772794803.7332785,966,1772794803,733073079,,4.0,-2.0,10.0,-13.0,19.0,9.0
1772794803.734336,967,1772794803,734066166,,3.0,-2.0,7.0,-19.0,20.0,10.0
1772794803.735233,968,1772794803,735057573,,3.0,-2.0,7.0,-19.0,20.0,10.0
1772794803.7362504,969,1772794803,736061917,,1.0,-3.0,3.0,-21.0,13.0,5.0
1772794803.7372248,970,1772794803,737081379,,1.0,-3.0,3.0,-21.0,13.0,5.0
1772794803.7382612,971,1772794803,738079598,,1.0,-2.0,-1.0,-28.0,4.0,13.0
1772794803.7394056,972,1772794803,739161587,,1.0,-2.0,-1.0,-28.0,4.0,13.0
1772794803.740238,973,1772794803,740094744,,2.0,-2.0,-13.0,-42.0,26.0,12.0
1772794803.7412372,974,1772794803,741074270,,2.0,-2.0,-13.0,-42.0,26.0,12.0
1772794803.7422767,975,1772794803,742083873,,4.0,-2.0,-7.0,-14.0,35.0,13.0
1772794803.7433412,976,1772794803,743078941,,4.0,-2.0,-7.0,-14.0,35.0,13.0
1772794803.7443082,977,1772794803,744078964,,2.0,-3.0,-9.0,-35.0,33.0,9.0
1772794803.7452538,978,1772794803,745077111,,2.0,-3.0,-9.0,-35.0,33.0,9.0
1772794803.7463863,979,1772794803,746085668,,3.0,-3.0,-3.0,-22.0,24.0,13.0
1772794803.7472463,980,1772794803,747063952,,3.0,-3.0,-3.0,-22.0,24.0,13.0
1772794803.7483246,981,1772794803,748065220,,2.0,-3.0,-2.0,-14.0,14.0,13.0
1772794803.749233,982,1772794803,749061772,,2.0,-3.0,-2.0,-14.0,14.0,13.0
1772794803.750357,983,1772794803,750077366,,2.0,-3.0,-2.0,-14.0,14.0,13.0
1772794803.751266,984,1772794803,751078859,,3.0,-2.0,1.0,-19.0,26.0,11.0
1772794803.7522745,985,1772794803,752072679,,3.0,-2.0,1.0,-19.0,26.0,11.0
1772794803.7533653,986,1772794803,753080564,,5.0,-2.0,0.0,-12.0,33.0,9.0
1772794803.754269,987,1772794803,754077669,,5.0,-3.0,2.0,-23.0,30.0,13.0
1772794803.7552145,988,1772794803,755074131,,5.0,-3.0,2.0,-23.0,30.0,13.0
1772794803.7563171,989,1772794803,756078286,,7.0,-3.0,8.0,-3.0,31.0,8.0
1772794803.757244,990,1772794803,757072789,,7.0,-3.0,8.0,-3.0,31.0,8.0
1772794803.7582576,991,1772794803,758077277,,6.0,-3.0,10.0,5.0,33.0,13.0
1772794803.759254,992,1772794803,759077293,,8.0,-4.0,5.0,-13.0,30.0,7.0
1772794803.7602873,993,1772794803,760075016,,8.0,-4.0,5.0,-13.0,30.0,7.0
1772794803.7613025,994,1772794803,761069869,,8.0,-4.0,5.0,-13.0,30.0,7.0
1772794803.762359,995,1772794803,762062588,,5.0,0.0,-3.0,-7.0,20.0,11.0
1772794803.7632945,996,1772794803,763063098,,4.0,-3.0,1.0,9.0,12.0,9.0
1772794803.764357,997,1772794803,764057674,,4.0,-3.0,1.0,9.0,12.0,9.0
1772794803.7653203,998,1772794803,765079243,,4.0,-3.0,1.0,9.0,12.0,9.0
1772794803.7662547,999,1772794803,766075729,,4.0,-3.0,1.0,9.0,12.0,9.0
1772794803.7672915,1000,1772794803,767092912,,2.0,-1.0,3.0,-6.0,11.0,7.0
1772794803.7683725,1001,1772794803,768088096,,2.0,-1.0,-1.0,-4.0,24.0,12.0
1772794803.7692568,1002,1772794803,769084893,,2.0,-1.0,-1.0,-4.0,24.0,12.0
1772794803.7702904,1003,1772794803,770095997,,2.0,-3.0,2.0,-3.0,22.0,13.0
1772794803.7713132,1004,1772794803,771093868,,1.0,-2.0,8.0,2.0,15.0,20.0
1772794803.7722013,1005,1772794803,772083318,,1.0,-2.0,8.0,2.0,15.0,20.0
1772794803.7733068,1006,1772794803,773089082,,1.0,-2.0,8.0,2.0,15.0,20.0
1772794803.7742286,1007,1772794803,774091911,,2.0,-3.0,2.0,-2.0,20.0,16.0
1772794803.7752469,1008,1772794803,775093833,,2.0,-3.0,2.0,-2.0,17.0,13.0
1772794803.7762973,1009,1772794803,776063337,,2.0,-3.0,2.0,-2.0,17.0,13.0
1772794803.7773793,1010,1772794803,777066180,,2.0,-3.0,2.0,-2.0,17.0,13.0
1772794803.7782257,1011,1772794803,778067450,,1.0,-1.0,-4.0,-35.0,24.0,8.0
1772794803.7793174,1012,1772794803,779080882,,1.0,-1.0,-4.0,-35.0,24.0,8.0
1772794803.780375,1013,1772794803,780084535,,1.0,-1.0,-4.0,-35.0,24.0,8.0
1772794803.7813141,1014,1772794803,781089920,,3.0,-3.0,-6.0,-29.0,24.0,5.0
1772794803.7823646,1015,1772794803,782086776,,3.0,-3.0,-6.0,-29.0,24.0,5.0
1772794803.7833703,1016,1772794803,783089297,,1.0,-2.0,-2.0,-28.0,13.0,5.0
1772794803.78427,1017,1772794803,784091606,,3.0,-1.0,4.0,-5.0,9.0,14.0
1772794803.7852395,1018,1772794803,785086035,,3.0,-1.0,4.0,-5.0,9.0,14.0
1772794803.7863472,1019,1772794803,786085486,,2.0,-4.0,0.0,-26.0,30.0,6.0
1772794803.7872975,1020,1772794803,787088359,,2.0,-4.0,0.0,-26.0,30.0,6.0
1772794803.788261,1021,1772794803,788089570,,3.0,-3.0,7.0,-29.0,19.0,9.0
1772794803.7893872,1022,1772794803,789082932,,3.0,-3.0,7.0,-29.0,19.0,9.0
1772794803.7903275,1023,1772794803,790092221,,4.0,-2.0,2.0,-24.0,26.0,9.0
1772794803.79134,1024,1772794803,791069562,,4.0,-2.0,2.0,-24.0,26.0,9.0
1772794803.792425,1025,1772794803,792075654,,6.0,-2.0,2.0,-22.0,19.0,15.0
1772794803.7933662,1026,1772794803,793069438,,6.0,-2.0,2.0,-22.0,19.0,15.0
1772794803.794365,1027,1772794803,794085198,,6.0,-2.0,2.0,-22.0,19.0,15.0
1772794803.7953677,1028,1772794803,795095822,,5.0,-2.0,2.0,-4.0,25.0,16.0
1772794803.7963045,1029,1772794803,796085325,,5.0,-2.0,2.0,-4.0,25.0,16.0
1772794803.7973564,1030,1772794803,797095191,,3.0,-1.0,5.0,-7.0,19.0,15.0
1772794803.7982464,1031,1772794803,798091241,,1.0,-3.0,7.0,-4.0,1.0,14.0
1772794803.7993774,1032,1772794803,799091399,,1.0,-3.0,7.0,-4.0,1.0,14.0
1772794803.8003674,1033,1772794803,800087409,,2.0,0.0,10.0,0.0,7.0,17.0
1772794803.8014379,1034,1772794803,801083117,,2.0,0.0,10.0,0.0,7.0,17.0
1772794803.8023343,1035,1772794803,802071474,,2.0,1.0,0.0,-12.0,15.0,15.0
1772794803.8033323,1036,1772794803,803085808,,2.0,1.0,0.0,-12.0,15.0,15.0
1772794803.804384,1037,1772794803,804072304,,0.0,-2.0,-6.0,-18.0,6.0,8.0
1772794803.8052883,1038,1772794803,805067831,,3.0,-1.0,-6.0,-15.0,2.0,11.0
1772794803.8062942,1039,1772794803,806063271,,3.0,-1.0,-6.0,-15.0,2.0,11.0
1772794803.807376,1040,1772794803,807065279,,3.0,-1.0,-6.0,-15.0,2.0,11.0
1772794803.8083105,1041,1772794803,808082133,,3.0,-1.0,-6.0,-15.0,2.0,11.0
1772794803.8094923,1042,1772794803,809087229,,2.0,-2.0,3.0,-21.0,-3.0,13.0
1772794803.810537,1043,1772794803,810082088,,3.0,-4.0,0.0,-37.0,21.0,9.0
1772794803.8114207,1044,1772794803,811085274,,3.0,-4.0,0.0,-37.0,21.0,9.0
1772794803.8124201,1045,1772794803,812082279,,3.0,-2.0,-3.0,-21.0,28.0,9.0
1772794803.8134294,1046,1772794803,813078681,,3.0,-2.0,-3.0,-21.0,28.0,9.0
1772794803.814371,1047,1772794803,814090698,,5.0,-4.0,2.0,-1.0,27.0,6.0
1772794803.8154204,1048,1772794803,815084809,,5.0,-4.0,2.0,-1.0,27.0,6.0
1772794803.8164186,1049,1772794803,816091481,,5.0,-5.0,-3.0,-14.0,30.0,4.0
1772794803.817409,1050,1772794803,817082995,,5.0,-5.0,-3.0,-14.0,30.0,4.0
1772794803.818439,1051,1772794803,818089511,,5.0,-4.0,11.0,32.0,17.0,8.0
1772794803.8194444,1052,1772794803,819065472,,5.0,-4.0,11.0,32.0,17.0,8.0
1772794803.8203306,1053,1772794803,820065854,,4.0,-2.0,7.0,24.0,12.0,6.0
1772794803.821402,1054,1772794803,821066146,,4.0,-2.0,7.0,24.0,12.0,6.0
1772794803.8224506,1055,1772794803,822068786,,5.0,-2.0,8.0,18.0,12.0,9.0
1772794803.8233979,1056,1772794803,823085119,,5.0,-2.0,8.0,18.0,12.0,9.0
1772794803.824504,1057,1772794803,824087329,,3.0,-3.0,-4.0,-24.0,32.0,11.0
1772794803.825504,1058,1772794803,825084245,,3.0,-3.0,-4.0,-24.0,32.0,11.0
1772794803.8263633,1059,1772794803,826080957,,3.0,-3.0,-4.0,-24.0,32.0,11.0
1772794803.8274229,1060,1772794803,827089100,,4.0,-3.0,-3.0,-31.0,37.0,15.0
1772794803.8284426,1061,1772794803,828084875,,1.0,-4.0,-1.0,-12.0,25.0,7.0
1772794803.8293214,1062,1772794803,829082530,,1.0,-4.0,-1.0,-12.0,25.0,7.0
1772794803.8304203,1063,1772794803,830088316,,1.0,-1.0,-1.0,-23.0,12.0,6.0
1772794803.8314364,1064,1772794803,831084478,,1.0,-1.0,-1.0,-23.0,12.0,6.0
1772794803.8323636,1065,1772794803,832079743,,1.0,-3.0,0.0,-9.0,14.0,12.0
1772794803.8333693,1066,1772794803,833067488,,1.0,-3.0,0.0,-9.0,14.0,12.0
1772794803.83442,1067,1772794803,834081627,,1.0,-2.0,4.0,-1.0,14.0,15.0
1772794803.8353522,1068,1772794803,835061069,,1.0,-2.0,4.0,-1.0,14.0,15.0
1772794803.8362887,1069,1772794803,836065538,,4.0,-1.0,2.0,-20.0,34.0,11.0
1772794803.837451,1070,1772794803,837065105,,4.0,-1.0,2.0,-20.0,34.0,11.0
1772794803.8384123,1071,1772794803,838082402,,4.0,-1.0,2.0,-20.0,34.0,11.0
1772794803.8393755,1072,1772794803,839091308,,2.0,-2.0,-1.0,-16.0,29.0,7.0
1772794803.8404965,1073,1772794803,840083022,,2.0,-2.0,-1.0,-16.0,29.0,7.0
1772794803.8414092,1074,1772794803,841090610,,1.0,-2.0,2.0,-15.0,16.0,3.0
1772794803.8424156,1075,1772794803,842085633,,0.0,0.0,4.0,-22.0,12.0,10.0
1772794803.843332,1076,1772794803,843086266,,0.0,0.0,4.0,-22.0,12.0,10.0
1772794803.8443134,1077,1772794803,844084613,,1.0,0.0,6.0,-20.0,16.0,9.0
1772794803.845424,1078,1772794803,845084973,,1.0,0.0,6.0,-20.0,16.0,9.0
1772794803.846324,1079,1772794803,846088035,,1.0,-1.0,0.0,-18.0,12.0,8.0
1772794803.8474083,1080,1772794803,847083234,,1.0,-1.0,0.0,-18.0,12.0,8.0
1772794803.8484595,1081,1772794803,848086707,,1.0,-2.0,-1.0,-31.0,29.0,3.0
1772794803.8493981,1082,1772794803,849065558,,2.0,-2.0,3.0,-13.0,17.0,2.0
1772794803.8503537,1083,1772794803,850063792,,2.0,-2.0,3.0,-13.0,17.0,2.0
1772794803.8513548,1084,1772794803,851065195,,2.0,-2.0,3.0,-13.0,17.0,2.0
1772794803.8523765,1085,1772794803,852067491,,1.0,-1.0,-1.0,-8.0,14.0,9.0
1772794803.8533356,1086,1772794803,853083729,,1.0,-1.0,-1.0,-8.0,14.0,9.0
1772794803.8543973,1087,1772794803,854083522,,1.0,-1.0,-1.0,-8.0,14.0,9.0
1772794803.8553886,1088,1772794803,855087649,,1.0,-2.0,1.0,-6.0,9.0,10.0
1772794803.8563192,1089,1772794803,856082611,,1.0,-2.0,1.0,-6.0,9.0,10.0
1772794803.8574245,1090,1772794803,857090037,,1.0,-2.0,2.0,3.0,19.0,7.0
1772794803.8585,1091,1772794803,858081593,,2.0,-2.0,-1.0,-10.0,19.0,6.0
1772794803.8593843,1092,1772794803,859079388,,2.0,-2.0,-1.0,-10.0,19.0,6.0
1772794803.8604553,1093,1772794803,860084725,,4.0,-3.0,0.0,-13.0,35.0,5.0
1772794803.8615096,1094,1772794803,861086029,,4.0,-3.0,0.0,-13.0,35.0,5.0
1772794803.8623412,1095,1772794803,862088075,,2.0,-2.0,-5.0,-31.0,42.0,5.0
1772794803.863418,1096,1772794803,863082098,,0.0,-3.0,-9.0,-31.0,26.0,11.0
1772794803.8642879,1097,1772794803,864062576,,0.0,-3.0,-9.0,-31.0,26.0,11.0
1772794803.8653724,1098,1772794803,865062207,,0.0,-3.0,-9.0,-31.0,26.0,11.0
1772794803.866273,1099,1772794803,866065244,,3.0,-2.0,5.0,21.0,15.0,15.0
1772794803.867252,1100,1772794803,867066203,,3.0,-4.0,6.0,-5.0,18.0,10.0
1772794803.868224,1101,1772794803,868089450,,3.0,-4.0,6.0,-5.0,18.0,10.0
1772794803.8692274,1102,1772794803,869089931,,3.0,-4.0,6.0,-5.0,18.0,10.0
1772794803.8703287,1103,1772794803,870087423,,3.0,-4.0,6.0,-5.0,18.0,10.0
1772794803.8712027,1104,1772794803,871084786,,7.0,-6.0,4.0,-10.0,36.0,10.0
1772794803.8722775,1105,1772794803,872090675,,6.0,-3.0,5.0,-3.0,20.0,13.0
1772794803.873348,1106,1772794803,873083810,,6.0,-3.0,5.0,-3.0,20.0,13.0
1772794803.8742363,1107,1772794803,874087327,,5.0,-2.0,5.0,1.0,23.0,7.0
1772794803.875257,1108,1772794803,875080816,,5.0,-2.0,5.0,1.0,23.0,7.0
1772794803.8763163,1109,1772794803,876086867,,2.0,-2.0,1.0,-15.0,27.0,6.0
1772794803.877273,1110,1772794803,877083170,,2.0,-2.0,1.0,-15.0,27.0,6.0
1772794803.8782475,1111,1772794803,878089971,,2.0,-3.0,2.0,-31.0,31.0,4.0
1772794803.8793905,1112,1772794803,879086301,,2.0,-3.0,2.0,-31.0,31.0,4.0
1772794803.8802876,1113,1772794803,880072110,,1.0,-2.0,-2.0,-36.0,22.0,9.0
1772794803.8813019,1114,1772794803,881067671,,1.0,-2.0,-2.0,-36.0,22.0,9.0
1772794803.8823602,1115,1772794803,882071116,,3.0,-4.0,-2.0,-33.0,30.0,5.0
1772794803.8833237,1116,1772794803,883085127,,3.0,-4.0,-2.0,-33.0,30.0,5.0
1772794803.8843777,1117,1772794803,884086359,,3.0,-4.0,-2.0,-33.0,30.0,5.0
1772794803.885396,1118,1772794803,885089442,,0.0,-2.0,-1.0,-29.0,20.0,5.0
1772794803.8863509,1119,1772794803,886086605,,0.0,-2.0,-1.0,-29.0,20.0,5.0
1772794803.887399,1120,1772794803,887085601,,2.0,-3.0,6.0,-17.0,6.0,5.0
1772794803.8882701,1121,1772794803,888085876,,2.0,-4.0,7.0,-11.0,16.0,5.0
1772794803.8892894,1122,1772794803,889088189,,2.0,-4.0,7.0,-11.0,16.0,5.0
1772794803.890315,1123,1772794803,890093968,,3.0,-2.0,7.0,-19.0,28.0,6.0
1772794803.8913207,1124,1772794803,891086769,,3.0,-2.0,7.0,-19.0,28.0,6.0
1772794803.8923154,1125,1772794803,892089409,,2.0,-2.0,10.0,4.0,19.0,13.0
1772794803.8933845,1126,1772794803,893089972,,4.0,-2.0,-4.0,-23.0,26.0,5.0
1772794803.8943863,1127,1772794803,894067246,,4.0,-2.0,-4.0,-23.0,26.0,5.0
1772794803.8952336,1128,1772794803,895064982,,4.0,-2.0,-4.0,-23.0,26.0,5.0
1772794803.896324,1129,1772794803,896065488,,2.0,0.0,-3.0,-38.0,14.0,6.0
1772794803.8973439,1130,1772794803,897066711,,4.0,-2.0,9.0,4.0,16.0,13.0
1772794803.8982584,1131,1772794803,898064198,,4.0,-2.0,9.0,4.0,16.0,13.0
1772794803.8993537,1132,1772794803,899082364,,4.0,-2.0,9.0,4.0,16.0,13.0
1772794803.9003596,1133,1772794803,900081898,,4.0,-2.0,9.0,4.0,16.0,13.0
1772794803.901319,1134,1772794803,901091726,,4.0,-2.0,5.0,-4.0,23.0,15.0
1772794803.9023213,1135,1772794803,902070399,,2.0,-3.0,1.0,-16.0,29.0,13.0
1772794803.9034016,1136,1772794803,903087082,,2.0,-3.0,1.0,-16.0,29.0,13.0
1772794803.9043036,1137,1772794803,904096553,,3.0,-3.0,3.0,-5.0,24.0,14.0
1772794803.9053388,1138,1772794803,905093077,,3.0,-2.0,-2.0,-28.0,22.0,13.0
1772794803.906388,1139,1772794803,906082193,,3.0,-2.0,-2.0,-28.0,22.0,13.0
1772794803.9072635,1140,1772794803,907065687,,3.0,-2.0,-2.0,-28.0,22.0,13.0
1772794803.9083734,1141,1772794803,908071911,,1.0,-3.0,2.0,-19.0,15.0,10.0
1772794803.9094186,1142,1772794803,909068161,,1.0,-3.0,2.0,-19.0,15.0,10.0
1772794803.9103024,1143,1772794803,910076161,,1.0,-3.0,2.0,-19.0,15.0,10.0
1772794803.911404,1144,1772794803,911089652,,4.0,-4.0,-5.0,-34.0,24.0,13.0
1772794803.912394,1145,1772794803,912082988,,4.0,-4.0,-5.0,-34.0,24.0,13.0
1772794803.9133434,1146,1772794803,913091021,,1.0,-4.0,-1.0,-48.0,21.0,6.0
1772794803.9143443,1147,1772794803,914081962,,1.0,-4.0,-1.0,-48.0,21.0,6.0
1772794803.9153574,1148,1772794803,915069752,,1.0,-4.0,-6.0,-28.0,28.0,9.0
1772794803.9162998,1149,1772794803,916090301,,6.0,-1.0,2.0,-11.0,36.0,13.0
1772794803.9173477,1150,1772794803,917083375,,6.0,-1.0,2.0,-11.0,36.0,13.0
1772794803.918364,1151,1772794803,918092664,,3.0,-1.0,-4.0,-13.0,32.0,11.0
1772794803.919204,1152,1772794803,919060614,,3.0,-3.0,0.0,-9.0,22.0,8.0
1772794803.9202418,1153,1772794803,920058792,,3.0,-3.0,0.0,-9.0,22.0,8.0
1772794803.9212887,1154,1772794803,921059312,,3.0,-3.0,0.0,-9.0,22.0,8.0
1772794803.9222448,1155,1772794803,922084680,,3.0,-3.0,0.0,-9.0,22.0,8.0
1772794803.923347,1156,1772794803,923088330,,2.0,-3.0,-3.0,-20.0,33.0,4.0
1772794803.924388,1157,1772794803,924084256,,2.0,-3.0,-3.0,-20.0,33.0,4.0
1772794803.9252672,1158,1772794803,925089188,,4.0,-3.0,0.0,-8.0,26.0,3.0
1772794803.9263694,1159,1772794803,926091034,,2.0,-2.0,2.0,-1.0,19.0,11.0
1772794803.9273906,1160,1772794803,927085951,,2.0,-2.0,2.0,-1.0,19.0,11.0
1772794803.928412,1161,1772794803,928090569,,2.0,-5.0,-2.0,-6.0,35.0,6.0
1772794803.92942,1162,1772794803,929085747,,2.0,-5.0,-2.0,-6.0,35.0,6.0
1772794803.9304318,1163,1772794803,930087902,,1.0,-2.0,-4.0,-8.0,18.0,4.0
1772794803.9313934,1164,1772794803,931086827,,1.0,-2.0,-4.0,-8.0,18.0,4.0
1772794803.9323292,1165,1772794803,932087492,,-1.0,-2.0,-3.0,-9.0,19.0,6.0
1772794803.9332626,1166,1772794803,933083253,,-1.0,-2.0,-3.0,-9.0,19.0,6.0
1772794803.934324,1167,1772794803,934083938,,-1.0,-2.0,-3.0,-9.0,19.0,6.0
1772794803.9355276,1168,1772794803,935089700,,2.0,0.0,3.0,3.0,20.0,12.0
1772794803.9364476,1169,1772794803,936071242,,3.0,-2.0,6.0,-19.0,35.0,10.0
1772794803.9372604,1170,1772794803,937088496,,1.0,-3.0,3.0,-20.0,17.0,8.0
1772794803.9383914,1171,1772794803,938084125,,1.0,-3.0,3.0,-20.0,17.0,8.0
1772794803.939218,1172,1772794803,939081126,,1.0,-3.0,3.0,-20.0,17.0,8.0
1772794803.940296,1173,1772794803,940092203,,4.0,-4.0,7.0,-13.0,30.0,16.0
1772794803.9413552,1174,1772794803,941087335,,2.0,-6.0,2.0,-9.0,31.0,7.0
1772794803.9424038,1175,1772794803,942082351,,2.0,-6.0,2.0,-9.0,31.0,7.0
1772794803.9432926,1176,1772794803,943087661,,2.0,-6.0,2.0,-9.0,31.0,7.0
1772794803.9443915,1177,1772794803,944089689,,2.0,-4.0,-3.0,-12.0,31.0,6.0
1772794803.945365,1178,1772794803,945067660,,3.0,-4.0,-1.0,1.0,24.0,8.0
1772794803.9462988,1179,1772794803,946084784,,3.0,-4.0,-1.0,1.0,24.0,8.0
1772794803.9474165,1180,1772794803,947088448,,3.0,-4.0,-1.0,1.0,24.0,8.0
1772794803.9484243,1181,1772794803,948073891,,2.0,-4.0,-1.0,7.0,11.0,5.0
1772794803.9493182,1182,1772794803,949083695,,3.0,-2.0,-4.0,-37.0,9.0,4.0
1772794803.9503396,1183,1772794803,950075857,,3.0,-2.0,-4.0,-37.0,9.0,4.0
1772794803.9513638,1184,1772794803,951074453,,3.0,-2.0,-4.0,-37.0,9.0,4.0
1772794803.9523492,1185,1772794803,952079544,,5.0,-2.0,-3.0,-29.0,24.0,9.0
1772794803.9533234,1186,1772794803,953081030,,5.0,-2.0,-3.0,-29.0,24.0,9.0
1772794803.9543247,1187,1772794803,954077581,,2.0,-2.0,-3.0,-23.0,5.0,10.0
1772794803.9553227,1188,1772794803,955082101,,2.0,-2.0,-3.0,-23.0,5.0,10.0
1772794803.9562373,1189,1772794803,956078589,,1.0,-2.0,-10.0,-2.0,18.0,9.0
1772794803.957367,1190,1772794803,957073141,,1.0,-2.0,-10.0,-2.0,18.0,9.0
1772794803.958387,1191,1772794803,958082825,,4.0,-2.0,3.0,13.0,26.0,8.0
1772794803.9592972,1192,1772794803,959078226,,4.0,-2.0,3.0,13.0,26.0,8.0
1772794803.9603827,1193,1772794803,960073892,,4.0,-2.0,3.0,13.0,26.0,8.0
1772794803.9613733,1194,1772794803,961084963,,5.0,0.0,2.0,-7.0,20.0,10.0
1772794803.9623373,1195,1772794803,962074828,,5.0,0.0,2.0,-7.0,20.0,10.0
1772794803.9633634,1196,1772794803,963078608,,4.0,-2.0,-7.0,-18.0,34.0,4.0
1772794803.964455,1197,1772794803,964081626,,2.0,-2.0,-4.0,-15.0,14.0,12.0
1772794803.9653442,1198,1772794803,965074661,,2.0,-2.0,-4.0,-15.0,14.0,12.0
1772794803.9664845,1199,1772794803,966079090,,0.0,-3.0,0.0,8.0,5.0,14.0
1772794803.9674175,1200,1772794803,967077834,,0.0,-3.0,0.0,8.0,5.0,14.0
1772794803.9683695,1201,1772794803,968079402,,-1.0,-2.0,0.0,15.0,-6.0,10.0
1772794803.969443,1202,1772794803,969073999,,-1.0,-2.0,0.0,15.0,-6.0,10.0
1772794803.9704149,1203,1772794803,970084567,,-1.0,-1.0,9.0,23.0,-7.0,8.0
1772794803.9713116,1204,1772794803,971077307,,2.0,-1.0,11.0,23.0,12.0,7.0
1772794803.972406,1205,1772794803,972073059,,2.0,-1.0,11.0,23.0,12.0,7.0
1772794803.9734101,1206,1772794803,973080170,,2.0,-1.0,11.0,23.0,12.0,7.0
1772794803.9743571,1207,1772794803,974076191,,2.0,0.0,8.0,23.0,8.0,10.0
1772794803.9754395,1208,1772794803,975074746,,2.0,0.0,8.0,23.0,8.0,10.0
1772794803.976401,1209,1772794803,976083662,,1.0,1.0,-1.0,-5.0,15.0,9.0
1772794803.977378,1210,1772794803,977073622,,1.0,1.0,-1.0,-5.0,15.0,9.0
1772794803.9783876,1211,1772794803,978071649,,1.0,1.0,-1.0,-5.0,15.0,9.0
1772794803.9793813,1212,1772794803,979081733,,3.0,-1.0,0.0,-1.0,26.0,15.0
1772794803.9803898,1213,1772794803,980079995,,5.0,-3.0,3.0,-1.0,27.0,8.0
1772794803.9813142,1214,1772794803,981073526,,5.0,-3.0,3.0,-1.0,27.0,8.0
1772794803.9824421,1215,1772794803,982080912,,3.0,-2.0,-5.0,-29.0,18.0,8.0
1772794803.9834375,1216,1772794803,983074117,,3.0,-2.0,-5.0,-29.0,18.0,8.0
1772794803.984382,1217,1772794803,984078196,,5.0,-1.0,5.0,4.0,19.0,14.0
1772794803.985399,1218,1772794803,985060636,,5.0,-1.0,5.0,4.0,19.0,14.0
1772794803.986377,1219,1772794803,986078279,,5.0,-2.0,-2.0,-10.0,41.0,14.0
1772794803.9873946,1220,1772794803,987073335,,5.0,-2.0,-2.0,-10.0,41.0,14.0
1772794803.988275,1221,1772794803,988076828,,3.0,-3.0,2.0,-35.0,47.0,7.0
1772794803.9894094,1222,1772794803,989076521,,3.0,-3.0,2.0,-35.0,47.0,7.0
1772794803.9904902,1223,1772794803,990074150,,3.0,-3.0,2.0,-35.0,47.0,7.0
1772794803.9913301,1224,1772794803,991077844,,2.0,-1.0,2.0,-25.0,29.0,6.0
1772794803.9923766,1225,1772794803,992084073,,1.0,-5.0,-2.0,-21.0,32.0,12.0
1772794803.99342,1226,1772794803,993073655,,1.0,-5.0,-2.0,-21.0,32.0,12.0
1772794803.9942875,1227,1772794803,994075807,,1.0,-3.0,-4.0,-19.0,20.0,10.0
1772794803.995393,1228,1772794803,995077087,,1.0,-3.0,-4.0,-19.0,20.0,10.0
1772794803.9964511,1229,1772794803,996077362,,3.0,-3.0,1.0,-2.0,28.0,11.0
1772794803.9973922,1230,1772794803,997076572,,3.0,-3.0,-2.0,1.0,10.0,14.0
1772794803.9985027,1231,1772794803,998065587,,3.0,-3.0,-2.0,1.0,10.0,14.0
1772794803.9995065,1232,1772794803,999066128,,3.0,-3.0,-2.0,1.0,10.0,14.0
1772794804.0003276,1233,1772794804,71925,,3.0,-3.0,-2.0,1.0,10.0,14.0
1772794804.0012128,1234,1772794804,1060710,,3.0,-3.0,0.0,-11.0,15.0,6.0
1772794804.0023093,1235,1772794804,2060654,,1.0,-4.0,4.0,-9.0,8.0,12.0
1772794804.0032399,1236,1772794804,3075170,,1.0,-4.0,4.0,-9.0,8.0,12.0
1772794804.0042267,1237,1772794804,4075517,,2.0,-2.0,0.0,-24.0,19.0,7.0
1772794804.0053558,1238,1772794804,5083338,,2.0,-4.0,-5.0,-16.0,19.0,9.0
1772794804.006329,1239,1772794804,6074642,,2.0,-4.0,-5.0,-16.0,19.0,9.0
1772794804.0072823,1240,1772794804,7074730,,2.0,-4.0,-5.0,-16.0,19.0,9.0
1772794804.0084858,1241,1772794804,8081941,,2.0,-4.0,-5.0,-16.0,19.0,9.0
1772794804.009307,1242,1772794804,9077594,,2.0,-1.0,1.0,15.0,21.0,18.0
1772794804.0103793,1243,1772794804,10072798,,2.0,-1.0,1.0,15.0,21.0,18.0
1772794804.0114331,1244,1772794804,11065243,,0.0,-3.0,0.0,-19.0,22.0,11.0
1772794804.0123625,1245,1772794804,12076561,,0.0,-2.0,6.0,2.0,3.0,11.0
1772794804.0134068,1246,1772794804,13073569,,0.0,-2.0,6.0,2.0,3.0,11.0
1772794804.014308,1247,1772794804,14075300,,3.0,-1.0,1.0,-2.0,12.0,11.0
1772794804.0153959,1248,1772794804,15079827,,3.0,-1.0,1.0,-2.0,12.0,11.0
1772794804.0164986,1249,1772794804,16074827,,3.0,-1.0,1.0,-2.0,12.0,11.0
1772794804.0174458,1250,1772794804,17064710,,4.0,-2.0,14.0,16.0,17.0,16.0
1772794804.01841,1251,1772794804,18068845,,2.0,-3.0,9.0,-18.0,13.0,15.0
1772794804.0193696,1252,1772794804,19073122,,2.0,-3.0,9.0,-18.0,13.0,15.0
1772794804.02041,1253,1772794804,20077552,,2.0,-1.0,-2.0,-15.0,7.0,13.0
1772794804.0213003,1254,1772794804,21073884,,2.0,-1.0,-2.0,-15.0,7.0,13.0
1772794804.022324,1255,1772794804,22082571,,3.0,-1.0,7.0,11.0,24.0,12.0
1772794804.02331,1256,1772794804,23073257,,3.0,-1.0,7.0,11.0,24.0,12.0
1772794804.0243704,1257,1772794804,24076203,,2.0,-1.0,6.0,0.0,21.0,10.0
1772794804.0252738,1258,1772794804,25079878,,2.0,-1.0,6.0,0.0,21.0,10.0
1772794804.0263555,1259,1772794804,26075642,,2.0,-1.0,6.0,0.0,21.0,10.0
1772794804.0273728,1260,1772794804,27078274,,2.0,-3.0,2.0,9.0,17.0,14.0
1772794804.0282724,1261,1772794804,28080746,,0.0,-3.0,-4.0,12.0,18.0,-1.0
1772794804.0292923,1262,1772794804,29072916,,0.0,-3.0,-4.0,12.0,18.0,-1.0
1772794804.0304084,1263,1772794804,30076707,,3.0,-4.0,-4.0,-22.0,32.0,6.0
1772794804.0313327,1264,1772794804,31077604,,3.0,-4.0,-4.0,-22.0,32.0,6.0
1772794804.0323124,1265,1772794804,32078042,,3.0,-2.0,-10.0,-25.0,22.0,9.0
1772794804.0333662,1266,1772794804,33073728,,3.0,-2.0,-10.0,-25.0,22.0,9.0
1772794804.034351,1267,1772794804,34069212,,3.0,-3.0,-5.0,-3.0,14.0,15.0
1772794804.0352936,1268,1772794804,35077939,,0.0,0.0,-3.0,-10.0,1.0,13.0
1772794804.0363991,1269,1772794804,36073260,,0.0,0.0,-3.0,-10.0,1.0,13.0
1772794804.0373006,1270,1772794804,37057845,,0.0,0.0,-3.0,-10.0,1.0,13.0
1772794804.0383065,1271,1772794804,38077406,,-1.0,-3.0,-1.0,-26.0,10.0,7.0
1772794804.03925,1272,1772794804,39073150,,-1.0,-3.0,-1.0,-26.0,10.0,7.0
1772794804.0402396,1273,1772794804,40082627,,2.0,-2.0,-2.0,-22.0,22.0,5.0
1772794804.041305,1274,1772794804,41078463,,2.0,-2.0,-2.0,-22.0,22.0,5.0
1772794804.0422823,1275,1772794804,42073088,,2.0,-2.0,-2.0,-22.0,22.0,5.0
1772794804.043312,1276,1772794804,43076365,,2.0,-2.0,-3.0,-14.0,32.0,5.0
1772794804.0444021,1277,1772794804,44079455,,2.0,-2.0,-3.0,-14.0,32.0,5.0
1772794804.0454264,1278,1772794804,45076338,,2.0,-1.0,1.0,-17.0,31.0,11.0
1772794804.0463388,1279,1772794804,46073666,,2.0,-1.0,1.0,-17.0,31.0,11.0
1772794804.0474446,1280,1772794804,47080727,,1.0,-3.0,-3.0,-47.0,36.0,10.0
1772794804.0484006,1281,1772794804,48077460,,3.0,-3.0,-2.0,-29.0,20.0,8.0
1772794804.049272,1282,1772794804,49071948,,3.0,-3.0,-2.0,-29.0,20.0,8.0
1772794804.050353,1283,1772794804,50081906,,-1.0,-4.0,0.0,-7.0,19.0,8.0
1772794804.0514076,1284,1772794804,51073276,,-1.0,-4.0,0.0,-7.0,19.0,8.0
1772794804.0523071,1285,1772794804,52075040,,1.0,-3.0,-4.0,-8.0,25.0,4.0
1772794804.0534148,1286,1772794804,53079206,,1.0,-3.0,-4.0,-8.0,25.0,4.0
1772794804.054432,1287,1772794804,54077593,,0.0,-4.0,-1.0,-4.0,18.0,9.0
1772794804.05535,1288,1772794804,55074288,,0.0,-4.0,-1.0,-4.0,18.0,9.0
1772794804.0565014,1289,1772794804,56079233,,0.0,-4.0,-1.0,-4.0,18.0,9.0
1772794804.057462,1290,1772794804,57079931,,1.0,-3.0,-2.0,-28.0,9.0,7.0
1772794804.05834,1291,1772794804,58077031,,2.0,-2.0,0.0,5.0,4.0,7.0
1772794804.0594182,1292,1772794804,59078599,,2.0,-2.0,0.0,5.0,4.0,7.0
1772794804.0603948,1293,1772794804,60073013,,2.0,-2.0,0.0,5.0,4.0,7.0
1772794804.061327,1294,1772794804,61078148,,1.0,-4.0,-1.0,2.0,6.0,7.0
1772794804.0623965,1295,1772794804,62079339,,6.0,-3.0,-4.0,-20.0,41.0,9.0
1772794804.0634987,1296,1772794804,63074049,,6.0,-3.0,-4.0,-20.0,41.0,9.0
1772794804.0643585,1297,1772794804,64079151,,2.0,0.0,1.0,30.0,11.0,12.0
1772794804.06539,1298,1772794804,65078841,,2.0,0.0,1.0,30.0,11.0,12.0
1772794804.066417,1299,1772794804,66060814,,2.0,-1.0,6.0,18.0,18.0,10.0
1772794804.0673425,1300,1772794804,67072941,,2.0,-1.0,6.0,18.0,18.0,10.0
1772794804.0684407,1301,1772794804,68081864,,4.0,-3.0,12.0,27.0,18.0,13.0
1772794804.0693245,1302,1772794804,69077641,,3.0,-1.0,0.0,10.0,30.0,10.0
1772794804.0703573,1303,1772794804,70075933,,3.0,-1.0,0.0,10.0,30.0,10.0
1772794804.0714169,1304,1772794804,71078571,,3.0,-1.0,0.0,10.0,30.0,10.0
1772794804.0724556,1305,1772794804,72072942,,3.0,-1.0,0.0,10.0,30.0,10.0
1772794804.073299,1306,1772794804,73083012,,1.0,-2.0,1.0,-2.0,26.0,9.0
1772794804.074333,1307,1772794804,74078351,,1.0,-2.0,1.0,-2.0,26.0,9.0
1772794804.0754325,1308,1772794804,75059142,,3.0,-2.0,5.0,8.0,24.0,15.0
1772794804.0762923,1309,1772794804,76077998,,3.0,-2.0,5.0,8.0,24.0,15.0
1772794804.0773933,1310,1772794804,77082812,,2.0,-2.0,7.0,-1.0,15.0,11.0
1772794804.0785096,1311,1772794804,78075758,,1.0,-1.0,3.0,1.0,9.0,11.0
1772794804.079352,1312,1772794804,79079611,,1.0,-1.0,3.0,1.0,9.0,11.0
1772794804.0803003,1313,1772794804,80079943,,3.0,-2.0,-2.0,0.0,30.0,11.0
1772794804.0814636,1314,1772794804,81079224,,3.0,-2.0,-2.0,0.0,30.0,11.0
1772794804.0823772,1315,1772794804,82085163,,2.0,-3.0,-3.0,-23.0,26.0,13.0
1772794804.0833893,1316,1772794804,83075388,,2.0,-3.0,-3.0,-23.0,26.0,13.0
1772794804.0844922,1317,1772794804,84084898,,3.0,0.0,-8.0,-21.0,26.0,12.0
1772794804.0853775,1318,1772794804,85081110,,3.0,0.0,-8.0,-21.0,26.0,12.0
1772794804.086333,1319,1772794804,86075659,,5.0,-2.0,0.0,5.0,15.0,18.0
1772794804.0872896,1320,1772794804,87076655,,5.0,-2.0,0.0,5.0,15.0,18.0
1772794804.088263,1321,1772794804,88075742,,5.0,-2.0,0.0,5.0,15.0,18.0
1772794804.0893278,1322,1772794804,89086620,,4.0,-1.0,1.0,-6.0,23.0,13.0
1772794804.090431,1323,1772794804,90078240,,4.0,-1.0,1.0,-6.0,23.0,13.0
1772794804.0913653,1324,1772794804,91084212,,2.0,-1.0,-3.0,-7.0,11.0,10.0
1772794804.0923705,1325,1772794804,92078238,,4.0,-3.0,1.0,-9.0,11.0,10.0
1772794804.093534,1326,1772794804,93076355,,4.0,-3.0,1.0,-9.0,11.0,10.0
1772794804.094353,1327,1772794804,94076865,,4.0,-3.0,1.0,-9.0,11.0,10.0
1772794804.0953457,1328,1772794804,95064028,,4.0,-3.0,-1.0,-13.0,18.0,9.0
1772794804.0964901,1329,1772794804,96083425,,3.0,-2.0,3.0,-5.0,16.0,12.0
1772794804.097267,1330,1772794804,97058047,,3.0,-2.0,3.0,-5.0,16.0,12.0
1772794804.0983205,1331,1772794804,98076948,,3.0,-3.0,2.0,-7.0,20.0,9.0
1772794804.0994065,1332,1772794804,99082452,,4.0,-2.0,-4.0,-12.0,20.0,4.0
1772794804.1002612,1333,1772794804,100074287,,4.0,-2.0,-4.0,-12.0,20.0,4.0
1772794804.1013122,1334,1772794804,101079252,,4.0,-2.0,-4.0,-12.0,20.0,4.0
1772794804.1022856,1335,1772794804,102077844,,3.0,-3.0,6.0,9.0,6.0,4.0
1772794804.1033382,1336,1772794804,103082192,,5.0,-2.0,5.0,-1.0,17.0,10.0
1772794804.104365,1337,1772794804,104079098,,5.0,-2.0,5.0,-1.0,17.0,10.0
1772794804.1054327,1338,1772794804,105073957,,5.0,-2.0,5.0,-1.0,17.0,10.0
1772794804.1063921,1339,1772794804,106075141,,5.0,-2.0,5.0,-1.0,17.0,10.0
1772794804.1073158,1340,1772794804,107065792,,2.0,1.0,-6.0,-25.0,19.0,13.0
1772794804.1085112,1341,1772794804,108076601,,2.0,-2.0,1.0,-21.0,17.0,6.0
1772794804.1093922,1342,1772794804,109070582,,2.0,-2.0,1.0,-21.0,17.0,6.0
1772794804.1103873,1343,1772794804,110078502,,2.0,-2.0,1.0,-21.0,17.0,6.0
1772794804.111495,1344,1772794804,111077085,,4.0,-2.0,-5.0,-38.0,27.0,6.0
1772794804.1123905,1345,1772794804,112080370,,2.0,-4.0,-9.0,-32.0,22.0,3.0
1772794804.1133893,1346,1772794804,113076200,,2.0,-4.0,-9.0,-32.0,22.0,3.0
1772794804.1143498,1347,1772794804,114075544,,4.0,-4.0,-1.0,-11.0,38.0,9.0
1772794804.115455,1348,1772794804,115078497,,4.0,-4.0,-1.0,-11.0,38.0,9.0
1772794804.1164024,1349,1772794804,116080367,,4.0,-4.0,-1.0,-11.0,38.0,9.0
1772794804.117373,1350,1772794804,117065028,,2.0,-2.0,-9.0,-25.0,29.0,9.0
1772794804.1185267,1351,1772794804,118063646,,2.0,-2.0,-9.0,-25.0,29.0,9.0
1772794804.1194372,1352,1772794804,119077258,,3.0,-3.0,-4.0,-23.0,36.0,6.0
1772794804.1205065,1353,1772794804,120077234,,3.0,-3.0,-4.0,-23.0,36.0,6.0
1772794804.1214304,1354,1772794804,121076527,,2.0,-5.0,0.0,-17.0,29.0,4.0
1772794804.122486,1355,1772794804,122084218,,2.0,-5.0,3.0,-13.0,16.0,14.0
1772794804.1234455,1356,1772794804,123073973,,2.0,-5.0,3.0,-13.0,16.0,14.0
1772794804.1246102,1357,1772794804,124084011,,5.0,-4.0,6.0,-11.0,32.0,13.0
1772794804.1253977,1358,1772794804,125064526,,3.0,-2.0,6.0,-13.0,21.0,9.0
1772794804.1263387,1359,1772794804,126058208,,3.0,-2.0,6.0,-13.0,21.0,9.0
1772794804.127443,1360,1772794804,127059102,,3.0,-2.0,6.0,-13.0,21.0,9.0
1772794804.1282854,1361,1772794804,128059940,,1.0,-3.0,7.0,-11.0,19.0,7.0
1772794804.129339,1362,1772794804,129077043,,1.0,-3.0,1.0,-13.0,21.0,3.0
1772794804.13042,1363,1772794804,130080216,,1.0,-3.0,1.0,-13.0,21.0,3.0
1772794804.131323,1364,1772794804,131076735,,1.0,-3.0,1.0,-13.0,21.0,3.0
1772794804.1323483,1365,1772794804,132061106,,1.0,-3.0,1.0,-13.0,21.0,3.0
1772794804.1333055,1366,1772794804,133064773,,-1.0,-3.0,0.0,-25.0,16.0,6.0
1772794804.1343641,1367,1772794804,134065203,,2.0,-4.0,4.0,-15.0,26.0,11.0
1772794804.1352618,1368,1772794804,135059443,,2.0,-4.0,4.0,-15.0,26.0,11.0
1772794804.136386,1369,1772794804,136080774,,4.0,-4.0,3.0,-12.0,24.0,8.0
1772794804.1373806,1370,1772794804,137078992,,4.0,-4.0,3.0,-12.0,24.0,8.0
1772794804.1383038,1371,1772794804,138079502,,2.0,-3.0,2.0,3.0,14.0,9.0
1772794804.1393964,1372,1772794804,139075242,,2.0,-3.0,2.0,3.0,14.0,9.0
1772794804.140399,1373,1772794804,140063558,,4.0,-2.0,-2.0,-23.0,29.0,6.0
1772794804.1413352,1374,1772794804,141062244,,2.0,-2.0,-3.0,-21.0,27.0,5.0
1772794804.142386,1375,1772794804,142081695,,2.0,-2.0,-3.0,-21.0,27.0,5.0
1772794804.143386,1376,1772794804,143079041,,2.0,-2.0,-3.0,-21.0,27.0,5.0
1772794804.1442823,1377,1772794804,144077969,,3.0,-5.0,-6.0,-20.0,34.0,4.0
1772794804.1453328,1378,1772794804,145058888,,3.0,-4.0,1.0,-1.0,22.0,12.0
1772794804.1463594,1379,1772794804,146076553,,3.0,-4.0,1.0,-1.0,22.0,12.0
1772794804.147271,1380,1772794804,147072620,,3.0,-4.0,1.0,-1.0,22.0,12.0
1772794804.148383,1381,1772794804,148080437,,3.0,-4.0,1.0,-1.0,22.0,12.0
1772794804.1493683,1382,1772794804,149060029,,4.0,-2.0,-3.0,1.0,15.0,11.0
1772794804.1518953,1383,1772794804,150076944,,5.0,-2.0,8.0,7.0,12.0,14.0
1772794804.1519086,1384,1772794804,151071445,,5.0,-2.0,8.0,7.0,12.0,14.0
1772794804.1522849,1385,1772794804,152058134,,5.0,-2.0,8.0,7.0,12.0,14.0
1772794804.1533463,1386,1772794804,153082193,,4.0,-3.0,6.0,-1.0,14.0,12.0
1772794804.1542711,1387,1772794804,154064019,,3.0,-2.0,-2.0,-48.0,28.0,14.0
1772794804.155388,1388,1772794804,155080082,,3.0,-2.0,-2.0,-48.0,28.0,14.0
1772794804.1564097,1389,1772794804,156075863,,3.0,-3.0,2.0,-20.0,27.0,14.0
1772794804.157274,1390,1772794804,157072494,,3.0,-3.0,2.0,-20.0,27.0,14.0
1772794804.158397,1391,1772794804,158082694,,2.0,-1.0,9.0,-2.0,12.0,15.0
1772794804.1593623,1392,1772794804,159073765,,2.0,-1.0,9.0,-2.0,12.0,15.0
1772794804.1603959,1393,1772794804,160077064,,4.0,-4.0,4.0,-27.0,32.0,13.0
1772794804.1614397,1394,1772794804,161079188,,4.0,-4.0,4.0,-27.0,32.0,13.0
1772794804.1623745,1395,1772794804,162078500,,5.0,-2.0,1.0,-17.0,26.0,13.0
1772794804.1633701,1396,1772794804,163056024,,5.0,-2.0,1.0,-17.0,26.0,13.0
1772794804.1643858,1397,1772794804,164075918,,5.0,-2.0,1.0,-17.0,26.0,13.0
1772794804.1654267,1398,1772794804,165077981,,3.0,-4.0,-8.0,-25.0,29.0,7.0
1772794804.1664615,1399,1772794804,166074417,,3.0,-4.0,-8.0,-25.0,29.0,7.0
1772794804.1673994,1400,1772794804,167063485,,2.0,-3.0,-5.0,-27.0,35.0,2.0
1772794804.168427,1401,1772794804,168079155,,1.0,-4.0,0.0,-11.0,26.0,0.0
1772794804.1694105,1402,1772794804,169074151,,1.0,-4.0,0.0,-11.0,26.0,0.0
1772794804.1704106,1403,1772794804,170082781,,3.0,-3.0,-1.0,-2.0,18.0,12.0
1772794804.1713974,1404,1772794804,171073336,,3.0,-3.0,-1.0,-2.0,18.0,12.0
1772794804.1723588,1405,1772794804,172076289,,2.0,-4.0,1.0,-14.0,19.0,11.0
1772794804.1733472,1406,1772794804,173077659,,2.0,-4.0,1.0,-14.0,19.0,11.0
1772794804.17431,1407,1772794804,174076834,,3.0,-4.0,3.0,-15.0,10.0,10.0
1772794804.1753316,1408,1772794804,175056265,,3.0,-2.0,4.0,-10.0,19.0,10.0
1772794804.1762967,1409,1772794804,176076795,,3.0,-2.0,4.0,-10.0,19.0,10.0
1772794804.177272,1410,1772794804,177072846,,3.0,-2.0,4.0,-10.0,19.0,10.0
1772794804.178363,1411,1772794804,178082419,,3.0,-2.0,4.0,-10.0,19.0,10.0
1772794804.1792803,1412,1772794804,179066151,,2.0,-3.0,-1.0,-26.0,22.0,7.0
1772794804.1802874,1413,1772794804,180090287,,0.0,-4.0,5.0,-26.0,16.0,13.0
1772794804.1813586,1414,1772794804,181081130,,0.0,-4.0,5.0,-26.0,16.0,13.0
1772794804.1823537,1415,1772794804,182084684,,0.0,-4.0,5.0,-26.0,16.0,13.0
1772794804.1833975,1416,1772794804,183089620,,2.0,-3.0,1.0,-21.0,15.0,9.0
1772794804.1844163,1417,1772794804,184084989,,2.0,-3.0,1.0,-21.0,15.0,9.0
1772794804.1854253,1418,1772794804,185092203,,2.0,-3.0,-3.0,-18.0,18.0,10.0
1772794804.1864152,1419,1772794804,186075246,,2.0,-3.0,-1.0,-15.0,20.0,12.0
1772794804.1874654,1420,1772794804,187085178,,2.0,-3.0,-1.0,-15.0,20.0,12.0
1772794804.1884491,1421,1772794804,188086366,,2.0,-4.0,1.0,-29.0,10.0,8.0
1772794804.1894362,1422,1772794804,189069392,,2.0,-4.0,1.0,-29.0,10.0,8.0
1772794804.1905227,1423,1772794804,190089942,,3.0,-3.0,2.0,-15.0,-2.0,13.0
1772794804.191393,1424,1772794804,191081561,,3.0,-3.0,2.0,-15.0,-2.0,13.0
1772794804.1923752,1425,1772794804,192087530,,2.0,-3.0,-14.0,-31.0,17.0,16.0
1772794804.193422,1426,1772794804,193086562,,2.0,-3.0,-14.0,-31.0,17.0,16.0
1772794804.1943617,1427,1772794804,194083426,,2.0,-3.0,-14.0,-31.0,17.0,16.0
1772794804.1953852,1428,1772794804,195091814,,1.0,-1.0,-3.0,-5.0,8.0,9.0
1772794804.1963382,1429,1772794804,196088821,,1.0,-1.0,-3.0,-5.0,8.0,9.0
1772794804.1973298,1430,1772794804,197090386,,2.0,-2.0,-3.0,-22.0,12.0,16.0
1772794804.1982908,1431,1772794804,198062910,,2.0,-2.0,-3.0,-22.0,12.0,16.0
1772794804.199356,1432,1772794804,199086136,,3.0,-3.0,4.0,-5.0,14.0,13.0
1772794804.2002435,1433,1772794804,200084705,,3.0,-3.0,4.0,-5.0,14.0,13.0
1772794804.201326,1434,1772794804,201084577,,1.0,-3.0,-5.0,-39.0,11.0,12.0
1772794804.202402,1435,1772794804,202092256,,1.0,-3.0,-8.0,-29.0,11.0,7.0
1772794804.2033129,1436,1772794804,203085086,,1.0,-3.0,-8.0,-29.0,11.0,7.0
1772794804.2043624,1437,1772794804,204090918,,4.0,-4.0,1.0,-17.0,23.0,5.0
1772794804.2054117,1438,1772794804,205081389,,4.0,-4.0,1.0,-17.0,23.0,5.0
1772794804.2062964,1439,1772794804,206088534,,1.0,-3.0,-6.0,-38.0,18.0,6.0
1772794804.20737,1440,1772794804,207080727,,1.0,-3.0,-6.0,-38.0,18.0,6.0
1772794804.2083619,1441,1772794804,208090200,,1.0,-1.0,-2.0,-40.0,17.0,6.0
1772794804.2092552,1442,1772794804,209082607,,1.0,-1.0,-2.0,-40.0,17.0,6.0
1772794804.2103374,1443,1772794804,210082903,,1.0,-1.0,-2.0,-40.0,17.0,6.0
1772794804.2113442,1444,1772794804,211087999,,3.0,-2.0,-3.0,-32.0,27.0,9.0
1772794804.2122211,1445,1772794804,212090460,,3.0,-2.0,-3.0,-32.0,27.0,9.0
1772794804.2133098,1446,1772794804,213085898,,3.0,-2.0,-2.0,-33.0,24.0,12.0
1772794804.214359,1447,1772794804,214087954,,3.0,-2.0,-2.0,-33.0,24.0,12.0
1772794804.2152717,1448,1772794804,215089546,,0.0,0.0,9.0,7.0,-7.0,11.0
1772794804.216366,1449,1772794804,216085471,,0.0,0.0,9.0,7.0,-7.0,11.0
1772794804.2173805,1450,1772794804,217067837,,2.0,-2.0,5.0,5.0,7.0,13.0
1772794804.218294,1451,1772794804,218082737,,3.0,-2.0,1.0,-14.0,20.0,15.0
1772794804.2192347,1452,1772794804,219082417,,3.0,-2.0,1.0,-14.0,20.0,15.0
1772794804.2202272,1453,1772794804,220084190,,3.0,-3.0,-2.0,-13.0,27.0,13.0
1772794804.221237,1454,1772794804,221065629,,3.0,-1.0,-7.0,-35.0,29.0,11.0
1772794804.2222738,1455,1772794804,222085944,,3.0,-1.0,-7.0,-35.0,29.0,11.0
1772794804.223349,1456,1772794804,223084156,,3.0,-1.0,-7.0,-35.0,29.0,11.0
1772794804.2242904,1457,1772794804,224084354,,3.0,-1.0,-1.0,-12.0,28.0,5.0
1772794804.225262,1458,1772794804,225068217,,3.0,-1.0,-1.0,-12.0,28.0,5.0
1772794804.2263827,1459,1772794804,226087732,,6.0,-2.0,1.0,-26.0,38.0,7.0
1772794804.227307,1460,1772794804,227083534,,6.0,-2.0,1.0,-26.0,38.0,7.0
1772794804.2283087,1461,1772794804,228070609,,6.0,-2.0,1.0,-26.0,38.0,7.0
1772794804.2293904,1462,1772794804,229072995,,2.0,-3.0,-1.0,-44.0,27.0,12.0
1772794804.230319,1463,1772794804,230089340,,4.0,-2.0,-6.0,-51.0,32.0,8.0
1772794804.2313125,1464,1772794804,231085576,,4.0,-2.0,-6.0,-51.0,32.0,8.0
1772794804.232383,1465,1772794804,232085898,,1.0,-1.0,-10.0,-44.0,24.0,4.0
1772794804.2333126,1466,1772794804,233071919,,1.0,-1.0,-10.0,-44.0,24.0,4.0
1772794804.2342925,1467,1772794804,234086850,,2.0,-4.0,-2.0,-24.0,17.0,11.0
1772794804.2353795,1468,1772794804,235085139,,2.0,-4.0,-2.0,-24.0,17.0,11.0
1772794804.2362745,1469,1772794804,236085935,,1.0,-4.0,-4.0,-40.0,19.0,13.0
1772794804.237226,1470,1772794804,237065423,,2.0,-2.0,-2.0,-34.0,14.0,12.0
1772794804.238344,1471,1772794804,238081559,,2.0,-2.0,-2.0,-34.0,14.0,12.0
1772794804.2392762,1472,1772794804,239062004,,2.0,-2.0,-2.0,-34.0,14.0,12.0
1772794804.2402408,1473,1772794804,240087002,,2.0,-2.0,-2.0,-34.0,14.0,12.0
1772794804.2413466,1474,1772794804,241066495,,2.0,-3.0,-9.0,-40.0,28.0,9.0
1772794804.242303,1475,1772794804,242084279,,0.0,-1.0,-8.0,-29.0,19.0,6.0
1772794804.2432373,1476,1772794804,243085216,,0.0,-1.0,-8.0,-29.0,19.0,6.0
1772794804.2443397,1477,1772794804,244085002,,0.0,-1.0,-8.0,-29.0,19.0,6.0
1772794804.245323,1478,1772794804,245065692,,-1.0,-2.0,-5.0,-22.0,11.0,8.0
1772794804.2462568,1479,1772794804,246085293,,0.0,0.0,-4.0,-12.0,0.0,4.0
1772794804.247362,1480,1772794804,247080420,,0.0,0.0,-4.0,-12.0,0.0,4.0
1772794804.2483454,1481,1772794804,248080377,,1.0,-2.0,0.0,-6.0,1.0,5.0
1772794804.2492766,1482,1772794804,249067261,,1.0,-2.0,0.0,-6.0,1.0,5.0
1772794804.2503932,1483,1772794804,250083197,,1.0,-2.0,-4.0,-20.0,2.0,8.0
1772794804.2514076,1484,1772794804,251084994,,1.0,-2.0,-4.0,-20.0,2.0,8.0
1772794804.2522752,1485,1772794804,252084807,,3.0,-4.0,1.0,-26.0,15.0,7.0
1772794804.2533762,1486,1772794804,253069920,,3.0,-3.0,-3.0,-29.0,30.0,8.0
1772794804.2543666,1487,1772794804,254084692,,3.0,-3.0,-3.0,-29.0,30.0,8.0
1772794804.2552745,1488,1772794804,255083998,,3.0,-3.0,-3.0,-29.0,30.0,8.0
1772794804.2563994,1489,1772794804,256082782,,3.0,-3.0,-3.0,-29.0,30.0,8.0
1772794804.2573397,1490,1772794804,257070414,,2.0,-2.0,-4.0,-20.0,24.0,7.0
1772794804.2583086,1491,1772794804,258086102,,3.0,-2.0,-5.0,-29.0,34.0,6.0
1772794804.2593937,1492,1772794804,259084020,,3.0,-2.0,-5.0,-29.0,34.0,6.0
1772794804.2603593,1493,1772794804,260083054,,3.0,-2.0,-5.0,-29.0,34.0,6.0
1772794804.2612576,1494,1772794804,261068069,,2.0,-1.0,2.0,-33.0,16.0,13.0
1772794804.2623718,1495,1772794804,262091242,,3.0,-2.0,-2.0,-41.0,20.0,14.0
1772794804.263337,1496,1772794804,263081557,,3.0,-2.0,-2.0,-41.0,20.0,14.0
1772794804.2642574,1497,1772794804,264085747,,1.0,-1.0,1.0,-23.0,16.0,12.0
1772794804.265386,1498,1772794804,265067795,,1.0,-1.0,1.0,-23.0,16.0,12.0
1772794804.2663317,1499,1772794804,266090830,,2.0,-4.0,11.0,-21.0,17.0,7.0
1772794804.267284,1500,1772794804,267081459,,2.0,-4.0,11.0,-21.0,17.0,7.0
1772794804.2683628,1501,1772794804,268085053,,2.0,-4.0,5.0,-30.0,23.0,10.0
1772794804.2693193,1502,1772794804,269063777,,2.0,-4.0,5.0,-30.0,23.0,10.0
1772794804.2702453,1503,1772794804,270091904,,1.0,-2.0,11.0,4.0,4.0,7.0
1772794804.2713428,1504,1772794804,271083498,,1.0,-2.0,11.0,4.0,4.0,7.0
1772794804.2723227,1505,1772794804,272083594,,1.0,-2.0,11.0,4.0,4.0,7.0
1772794804.2732275,1506,1772794804,273065492,,1.0,-4.0,7.0,-9.0,4.0,13.0
1772794804.2743664,1507,1772794804,274084624,,2.0,-1.0,3.0,-4.0,2.0,14.0
1772794804.275348,1508,1772794804,275083022,,2.0,-1.0,3.0,-4.0,2.0,14.0
1772794804.2762754,1509,1772794804,276082521,,2.0,-1.0,3.0,-4.0,2.0,14.0
1772794804.2773578,1510,1772794804,277068759,,2.0,-3.0,-6.0,-48.0,16.0,13.0
1772794804.2783558,1511,1772794804,278095388,,3.0,-3.0,-4.0,-29.0,23.0,14.0
1772794804.2792957,1512,1772794804,279081775,,3.0,-3.0,-4.0,-29.0,23.0,14.0
1772794804.2804062,1513,1772794804,280083140,,4.0,-2.0,8.0,12.0,8.0,21.0
1772794804.281355,1514,1772794804,281067667,,4.0,-2.0,8.0,12.0,8.0,21.0
1772794804.2822883,1515,1772794804,282087514,,3.0,-3.0,-2.0,-25.0,10.0,16.0
1772794804.2833529,1516,1772794804,283082484,,3.0,-3.0,-2.0,-25.0,10.0,16.0
1772794804.2843168,1517,1772794804,284088040,,5.0,-1.0,0.0,-6.0,10.0,18.0
1772794804.2852461,1518,1772794804,285083193,,5.0,-1.0,0.0,-6.0,10.0,18.0
1772794804.286365,1519,1772794804,286085051,,5.0,-1.0,0.0,-6.0,10.0,18.0
1772794804.287349,1520,1772794804,287091363,,3.0,-1.0,1.0,-1.0,10.0,11.0
1772794804.2882762,1521,1772794804,288089457,,3.0,-1.0,1.0,-1.0,10.0,11.0
1772794804.289384,1522,1772794804,289068159,,4.0,-2.0,-3.0,-11.0,17.0,13.0
1772794804.290383,1523,1772794804,290085954,,4.0,-2.0,-3.0,-11.0,17.0,13.0
1772794804.2913046,1524,1772794804,291086598,,2.0,-3.0,-3.0,-16.0,24.0,9.0
1772794804.2923822,1525,1772794804,292083530,,2.0,-3.0,-3.0,-16.0,24.0,9.0
1772794804.2933717,1526,1772794804,293089168,,2.0,-3.0,1.0,-22.0,20.0,8.0
1772794804.2943077,1527,1772794804,294080386,,2.0,-3.0,1.0,-22.0,20.0,8.0
1772794804.2953992,1528,1772794804,295086548,,2.0,-2.0,0.0,-31.0,27.0,6.0
1772794804.2963614,1529,1772794804,296082881,,5.0,-1.0,3.0,-19.0,29.0,11.0
1772794804.2972758,1530,1772794804,297080690,,5.0,-1.0,3.0,-19.0,29.0,11.0
1772794804.2984152,1531,1772794804,298096086,,2.0,-2.0,1.0,-29.0,27.0,6.0
1772794804.2993608,1532,1772794804,299079716,,2.0,-2.0,1.0,-29.0,27.0,6.0
1772794804.3002746,1533,1772794804,300083814,,-1.0,-4.0,-2.0,-38.0,3.0,7.0
1772794804.3013945,1534,1772794804,301080789,,-1.0,-4.0,-2.0,-38.0,3.0,7.0
1772794804.302361,1535,1772794804,302083566,,2.0,-3.0,-3.0,-31.0,14.0,6.0
1772794804.303264,1536,1772794804,303069015,,2.0,-3.0,-3.0,-31.0,14.0,6.0
1772794804.3043592,1537,1772794804,304080613,,3.0,-2.0,0.0,-26.0,11.0,9.0
1772794804.305339,1538,1772794804,305082502,,3.0,-2.0,0.0,-26.0,11.0,9.0
1772794804.306258,1539,1772794804,306081031,,3.0,-2.0,0.0,-26.0,11.0,9.0
1772794804.3073738,1540,1772794804,307069282,,5.0,-2.0,4.0,-12.0,11.0,10.0
1772794804.3083525,1541,1772794804,308088796,,2.0,-3.0,-3.0,-38.0,24.0,6.0
1772794804.3092916,1542,1772794804,309084833,,2.0,-3.0,-3.0,-38.0,24.0,6.0
1772794804.3104255,1543,1772794804,310086418,,2.0,-3.0,-3.0,-38.0,24.0,6.0
1772794804.3113525,1544,1772794804,311069931,,5.0,-5.0,1.0,-22.0,33.0,11.0
1772794804.3123074,1545,1772794804,312090943,,3.0,-3.0,1.0,-13.0,20.0,7.0
1772794804.313389,1546,1772794804,313084766,,3.0,-3.0,1.0,-13.0,20.0,7.0
1772794804.3143497,1547,1772794804,314088227,,3.0,-3.0,-5.0,-44.0,19.0,8.0
1772794804.3152835,1548,1772794804,315084786,,3.0,-3.0,-5.0,-44.0,19.0,8.0
1772794804.316375,1549,1772794804,316085555,,3.0,-4.0,1.0,-25.0,17.0,6.0
1772794804.3173563,1550,1772794804,317084647,,3.0,-4.0,1.0,-25.0,17.0,6.0
1772794804.3182814,1551,1772794804,318083006,,3.0,-4.0,1.0,-25.0,17.0,6.0
1772794804.319362,1552,1772794804,319081332,,1.0,-3.0,3.0,-33.0,20.0,10.0
1772794804.3203278,1553,1772794804,320082441,,1.0,-3.0,3.0,-33.0,20.0,10.0
1772794804.3212717,1554,1772794804,321085322,,2.0,-4.0,0.0,-40.0,20.0,12.0
1772794804.322375,1555,1772794804,322083627,,2.0,-4.0,0.0,-40.0,20.0,12.0
1772794804.323356,1556,1772794804,323082303,,3.0,-3.0,1.0,-34.0,17.0,8.0
1772794804.3243098,1557,1772794804,324081746,,3.0,-3.0,1.0,-34.0,17.0,8.0
1772794804.325389,1558,1772794804,325083365,,2.0,-1.0,0.0,-44.0,10.0,13.0
1772794804.3263583,1559,1772794804,326066201,,2.0,-1.0,0.0,-44.0,10.0,13.0
1772794804.327282,1560,1772794804,327094727,,4.0,-3.0,3.0,-26.0,17.0,16.0
1772794804.3283508,1561,1772794804,328093226,,1.0,-2.0,-2.0,-27.0,13.0,9.0
1772794804.3293004,1562,1772794804,329063022,,1.0,-2.0,-2.0,-27.0,13.0,9.0
1772794804.330277,1563,1772794804,330085337,,2.0,-3.0,4.0,-16.0,25.0,11.0
1772794804.3313715,1564,1772794804,331083917,,2.0,-3.0,4.0,-16.0,25.0,11.0
1772794804.332326,1565,1772794804,332066610,,3.0,-4.0,1.0,-22.0,26.0,8.0
1772794804.333232,1566,1772794804,333063380,,3.0,-4.0,1.0,-22.0,26.0,8.0
1772794804.33435,1567,1772794804,334085807,,3.0,-3.0,-3.0,-38.0,23.0,8.0
1772794804.335215,1568,1772794804,335085426,,3.0,-3.0,-3.0,-38.0,23.0,8.0
1772794804.3363082,1569,1772794804,336082364,,3.0,-3.0,-3.0,-38.0,23.0,8.0
1772794804.3372755,1570,1772794804,337059821,,1.0,-2.0,-2.0,-30.0,23.0,5.0
1772794804.338208,1571,1772794804,338085074,,2.0,-4.0,3.0,-17.0,12.0,9.0
1772794804.3392766,1572,1772794804,339081362,,2.0,-4.0,3.0,-17.0,12.0,9.0
1772794804.3402896,1573,1772794804,340081550,,2.0,-4.0,3.0,-17.0,12.0,9.0
1772794804.341161,1574,1772794804,341058208,,2.0,-3.0,-9.0,-39.0,25.0,7.0
1772794804.342197,1575,1772794804,342058048,,4.0,-3.0,-1.0,-36.0,24.0,9.0
1772794804.3432593,1576,1772794804,343056199,,4.0,-3.0,-1.0,-36.0,24.0,9.0
1772794804.3441923,1577,1772794804,344082163,,3.0,-2.0,4.0,-21.0,25.0,12.0
1772794804.345271,1578,1772794804,345081670,,3.0,-2.0,4.0,-21.0,25.0,12.0
1772794804.3462868,1579,1772794804,346084362,,2.0,-1.0,1.0,-18.0,11.0,14.0
1772794804.3472087,1580,1772794804,347084606,,2.0,-1.0,1.0,-18.0,11.0,14.0
1772794804.3482964,1581,1772794804,348084478,,2.0,-1.0,1.0,-18.0,11.0,14.0
1772794804.3492994,1582,1772794804,349092729,,0.0,-3.0,-3.0,-16.0,3.0,11.0
1772794804.3503664,1583,1772794804,350080298,,0.0,-3.0,-3.0,-16.0,3.0,11.0
1772794804.3513203,1584,1772794804,351080138,,1.0,-4.0,5.0,-8.0,12.0,12.0
1772794804.3523297,1585,1772794804,352082469,,1.0,-4.0,5.0,-8.0,12.0,12.0
1772794804.3532197,1586,1772794804,353084732,,4.0,-4.0,7.0,16.0,26.0,12.0
1772794804.3543143,1587,1772794804,354087778,,4.0,-4.0,7.0,16.0,26.0,12.0
1772794804.3553572,1588,1772794804,355092452,,1.0,-4.0,5.0,-6.0,12.0,15.0
1772794804.3562672,1589,1772794804,356086240,,1.0,-4.0,5.0,-6.0,12.0,15.0
1772794804.3572252,1590,1772794804,357085956,,1.0,-4.0,-4.0,-16.0,19.0,16.0
1772794804.3583682,1591,1772794804,358084389,,3.0,-2.0,2.0,-14.0,27.0,12.0
1772794804.3592513,1592,1772794804,359083036,,3.0,-2.0,2.0,-14.0,27.0,12.0
1772794804.360257,1593,1772794804,360085892,,1.0,-2.0,4.0,-9.0,29.0,7.0
1772794804.3613532,1594,1772794804,361082842,,1.0,-2.0,4.0,-9.0,29.0,7.0
1772794804.3622823,1595,1772794804,362063931,,1.0,-4.0,2.0,11.0,18.0,6.0
1772794804.3632615,1596,1772794804,363059378,,3.0,-2.0,0.0,-1.0,29.0,7.0
1772794804.3645003,1597,1772794804,364073649,,3.0,-2.0,0.0,-1.0,29.0,7.0
1772794804.3652275,1598,1772794804,365073463,,3.0,-2.0,0.0,-1.0,29.0,7.0
1772794804.3663542,1599,1772794804,366075548,,3.0,-2.0,0.0,-1.0,29.0,7.0
1772794804.3673792,1600,1772794804,367057881,,2.0,-3.0,-3.0,-13.0,18.0,10.0
1772794804.3682506,1601,1772794804,368077170,,3.0,-2.0,0.0,-11.0,18.0,8.0
1772794804.3693342,1602,1772794804,369075037,,3.0,-2.0,0.0,-11.0,18.0,8.0
1772794804.37036,1603,1772794804,370060627,,3.0,-2.0,0.0,-11.0,18.0,8.0
1772794804.3712623,1604,1772794804,371063585,,3.0,-2.0,1.0,-8.0,10.0,10.0
1772794804.3723328,1605,1772794804,372066061,,4.0,-4.0,5.0,-3.0,10.0,9.0
1772794804.3732338,1606,1772794804,373072543,,4.0,-4.0,5.0,-3.0,10.0,9.0
1772794804.3742595,1607,1772794804,374077185,,3.0,-2.0,3.0,-22.0,10.0,10.0
1772794804.375236,1608,1772794804,375058087,,3.0,-2.0,3.0,-22.0,10.0,10.0
1772794804.3763273,1609,1772794804,376077081,,3.0,-2.0,6.0,-6.0,13.0,12.0
1772794804.3772297,1610,1772794804,377073202,,3.0,-2.0,6.0,-6.0,13.0,12.0
1772794804.3782334,1611,1772794804,378075615,,3.0,-2.0,2.0,-18.0,14.0,13.0
1772794804.379324,1612,1772794804,379057842,,3.0,-2.0,2.0,-18.0,14.0,13.0
1772794804.3802269,1613,1772794804,380078198,,2.0,-2.0,4.0,-20.0,4.0,9.0
1772794804.3812587,1614,1772794804,381073630,,2.0,-2.0,4.0,-20.0,4.0,9.0
1772794804.382374,1615,1772794804,382073585,,2.0,-2.0,4.0,-20.0,4.0,9.0
1772794804.383242,1616,1772794804,383080186,,2.0,-3.0,-2.0,-17.0,14.0,6.0
1772794804.384334,1617,1772794804,384073984,,2.0,-3.0,-2.0,-17.0,14.0,6.0
1772794804.3851936,1618,1772794804,385076222,,4.0,-3.0,-5.0,-27.0,16.0,7.0
1772794804.3862262,1619,1772794804,386073319,,4.0,-3.0,-5.0,-27.0,16.0,7.0
1772794804.3871865,1620,1772794804,387078928,,1.0,-3.0,-8.0,-21.0,10.0,6.0
1772794804.3882043,1621,1772794804,388080604,,3.0,-2.0,-1.0,-18.0,21.0,8.0
1772794804.3892035,1622,1772794804,389056467,,3.0,-2.0,-1.0,-18.0,21.0,8.0
1772794804.390248,1623,1772794804,390079130,,0.0,-2.0,3.0,-18.0,4.0,5.0
1772794804.3912504,1624,1772794804,391072689,,0.0,-2.0,3.0,-18.0,4.0,5.0
1772794804.3922043,1625,1772794804,392075991,,3.0,-1.0,3.0,-8.0,34.0,9.0
1772794804.3932292,1626,1772794804,393073045,,3.0,-1.0,3.0,-8.0,34.0,9.0
1772794804.394241,1627,1772794804,394076513,,2.0,-1.0,0.0,-12.0,32.0,9.0
1772794804.3952146,1628,1772794804,395072705,,2.0,-1.0,0.0,-12.0,32.0,9.0
1772794804.3962674,1629,1772794804,396073658,,2.0,-1.0,0.0,-12.0,32.0,9.0
1772794804.3972695,1630,1772794804,397076564,,1.0,-3.0,9.0,-9.0,22.0,7.0
1772794804.3983934,1631,1772794804,398073631,,1.0,-3.0,9.0,-9.0,22.0,7.0
1772794804.399249,1632,1772794804,399076553,,4.0,-2.0,-2.0,-40.0,34.0,6.0
1772794804.400289,1633,1772794804,400084887,,4.0,-2.0,-2.0,-40.0,34.0,6.0
1772794804.4013326,1634,1772794804,401061616,,4.0,-3.0,-2.0,-23.0,27.0,13.0
1772794804.40222,1635,1772794804,402077718,,4.0,1.0,3.0,-35.0,32.0,11.0
1772794804.4032495,1636,1772794804,403075299,,4.0,1.0,3.0,-35.0,32.0,11.0
1772794804.4043472,1637,1772794804,404077444,,3.0,-1.0,4.0,-15.0,22.0,6.0
1772794804.4052231,1638,1772794804,405057583,,3.0,-1.0,4.0,-15.0,22.0,6.0
1772794804.4062324,1639,1772794804,406077582,,1.0,-1.0,-1.0,-10.0,17.0,6.0
1772794804.4073853,1640,1772794804,407073499,,1.0,-1.0,-1.0,-10.0,17.0,6.0
1772794804.4082239,1641,1772794804,408075934,,1.0,-3.0,0.0,-7.0,21.0,6.0
1772794804.4092193,1642,1772794804,409062027,,3.0,-1.0,1.0,13.0,24.0,15.0
1772794804.4103987,1643,1772794804,410071718,,3.0,-1.0,1.0,13.0,24.0,15.0
1772794804.4112766,1644,1772794804,411073510,,3.0,-1.0,1.0,13.0,24.0,15.0
1772794804.4122536,1645,1772794804,412073083,,3.0,-1.0,1.0,13.0,24.0,15.0
1772794804.4132202,1646,1772794804,413074848,,1.0,-1.0,0.0,13.0,15.0,11.0
1772794804.4143894,1647,1772794804,414078124,,1.0,-1.0,0.0,13.0,15.0,11.0
1772794804.415284,1648,1772794804,415077239,,2.0,-3.0,6.0,7.0,24.0,12.0
1772794804.4162593,1649,1772794804,416073414,,2.0,-3.0,6.0,7.0,24.0,12.0
1772794804.417388,1650,1772794804,417074175,,4.0,0.0,-3.0,-18.0,37.0,13.0
1772794804.4182796,1651,1772794804,418072301,,4.0,0.0,-3.0,-18.0,37.0,13.0
1772794804.4192677,1652,1772794804,419076715,,2.0,-2.0,5.0,-3.0,16.0,5.0
1772794804.4203358,1653,1772794804,420075509,,0.0,-2.0,7.0,-4.0,2.0,13.0
1772794804.4212425,1654,1772794804,421072926,,0.0,-2.0,7.0,-4.0,2.0,13.0
1772794804.4222205,1655,1772794804,422076086,,1.0,-2.0,2.0,-17.0,5.0,9.0
1772794804.4232247,1656,1772794804,423072600,,1.0,-2.0,2.0,-17.0,5.0,9.0
1772794804.4242563,1657,1772794804,424076925,,3.0,-2.0,4.0,-8.0,9.0,11.0
1772794804.4252381,1658,1772794804,425072598,,3.0,-2.0,4.0,-8.0,9.0,11.0
1772794804.4263387,1659,1772794804,426060452,,3.0,-2.0,4.0,-8.0,9.0,11.0
1772794804.4272635,1660,1772794804,427063373,,2.0,-2.0,2.0,-20.0,7.0,12.0
1772794804.4282587,1661,1772794804,428082293,,3.0,-3.0,1.0,-40.0,16.0,17.0
1772794804.429241,1662,1772794804,429078526,,3.0,-3.0,1.0,-40.0,16.0,17.0
1772794804.430276,1663,1772794804,430073588,,3.0,-3.0,1.0,-40.0,16.0,17.0
1772794804.4312606,1664,1772794804,431063865,,4.0,-3.0,3.0,-32.0,20.0,8.0
1772794804.4322996,1665,1772794804,432076173,,3.0,-1.0,-1.0,-39.0,17.0,14.0
1772794804.4332745,1666,1772794804,433073395,,3.0,-1.0,-1.0,-39.0,17.0,14.0
1772794804.4342668,1667,1772794804,434076913,,3.0,-3.0,-7.0,-39.0,24.0,11.0
1772794804.4352036,1668,1772794804,435059218,,3.0,-3.0,-7.0,-39.0,24.0,11.0
1772794804.436223,1669,1772794804,436076268,,6.0,-3.0,3.0,-20.0,25.0,14.0
1772794804.4372742,1670,1772794804,437072547,,6.0,-3.0,3.0,-20.0,25.0,14.0
1772794804.4382584,1671,1772794804,438077341,,4.0,-2.0,0.0,-22.0,20.0,11.0
1772794804.4393532,1672,1772794804,439062893,,3.0,-2.0,-3.0,-32.0,22.0,7.0
1772794804.4402661,1673,1772794804,440074808,,3.0,-2.0,-3.0,-32.0,22.0,7.0
1772794804.441256,1674,1772794804,441073837,,3.0,-2.0,-3.0,-32.0,22.0,7.0
1772794804.4422383,1675,1772794804,442074477,,3.0,-2.0,-3.0,-32.0,22.0,7.0
1772794804.443208,1676,1772794804,443063258,,-1.0,-3.0,-9.0,-44.0,15.0,5.0
1772794804.444298,1677,1772794804,444078752,,0.0,-2.0,-2.0,-29.0,10.0,9.0
1772794804.445292,1678,1772794804,445073880,,0.0,-2.0,-2.0,-29.0,10.0,9.0
1772794804.4462824,1679,1772794804,446074277,,0.0,-2.0,-2.0,-29.0,10.0,9.0
1772794804.44724,1680,1772794804,447061729,,1.0,1.0,-2.0,-24.0,10.0,12.0
1772794804.4482472,1681,1772794804,448076769,,5.0,-1.0,-1.0,-15.0,22.0,18.0
1772794804.449224,1682,1772794804,449072224,,5.0,-1.0,-1.0,-15.0,22.0,18.0
1772794804.4502223,1683,1772794804,450076709,,4.0,-1.0,0.0,8.0,13.0,17.0
1772794804.4512944,1684,1772794804,451073134,,4.0,-1.0,0.0,8.0,13.0,17.0
1772794804.452393,1685,1772794804,452075628,,4.0,-4.0,-3.0,-24.0,24.0,9.0
1772794804.453275,1686,1772794804,453071464,,4.0,-4.0,-3.0,-24.0,24.0,9.0
1772794804.4542704,1687,1772794804,454075074,,3.0,-3.0,2.0,-24.0,20.0,6.0
1772794804.455408,1688,1772794804,455073989,,3.0,-3.0,2.0,-24.0,20.0,6.0
1772794804.456225,1689,1772794804,456072312,,3.0,-3.0,2.0,-24.0,20.0,6.0
1772794804.4572346,1690,1772794804,457074309,,3.0,-1.0,7.0,-1.0,0.0,14.0
1772794804.4583454,1691,1772794804,458072704,,3.0,-1.0,7.0,-1.0,0.0,14.0
1772794804.4592574,1692,1772794804,459077678,,3.0,-3.0,6.0,-45.0,24.0,12.0
1772794804.4602373,1693,1772794804,460073144,,3.0,-3.0,6.0,-45.0,24.0,12.0
1772794804.461365,1694,1772794804,461076583,,5.0,-1.0,3.0,-18.0,21.0,8.0
1772794804.4622657,1695,1772794804,462075860,,5.0,-1.0,3.0,-18.0,21.0,8.0
1772794804.4632459,1696,1772794804,463077637,,2.0,1.0,-7.0,-30.0,12.0,6.0
1772794804.4642131,1697,1772794804,464061762,,2.0,1.0,-7.0,-30.0,12.0,6.0
1772794804.4652772,1698,1772794804,465075983,,4.0,0.0,-6.0,-17.0,22.0,10.0
1772794804.4662786,1699,1772794804,466077407,,1.0,0.0,1.0,8.0,14.0,15.0
1772794804.4672716,1700,1772794804,467073390,,1.0,0.0,1.0,8.0,14.0,15.0
1772794804.468267,1701,1772794804,468077562,,0.0,-1.0,-3.0,-20.0,20.0,14.0
1772794804.469261,1702,1772794804,469074738,,0.0,-1.0,-3.0,-20.0,20.0,14.0
1772794804.470242,1703,1772794804,470076751,,3.0,-1.0,2.0,8.0,10.0,18.0
1772794804.4711926,1704,1772794804,471072621,,3.0,-1.0,2.0,8.0,10.0,18.0
1772794804.4722433,1705,1772794804,472075579,,3.0,-1.0,2.0,8.0,10.0,18.0
1772794804.4732335,1706,1772794804,473062369,,2.0,-2.0,5.0,3.0,6.0,15.0
1772794804.4743526,1707,1772794804,474080838,,4.0,-1.0,4.0,-10.0,22.0,15.0
1772794804.475286,1708,1772794804,475074206,,4.0,-1.0,4.0,-10.0,22.0,15.0
1772794804.4762776,1709,1772794804,476072953,,4.0,-1.0,4.0,-10.0,22.0,15.0
1772794804.4773717,1710,1772794804,477061815,,0.0,0.0,8.0,-9.0,13.0,17.0
1772794804.478246,1711,1772794804,478079299,,1.0,-2.0,5.0,-24.0,20.0,11.0
1772794804.4792588,1712,1772794804,479072817,,1.0,-2.0,5.0,-24.0,20.0,11.0
1772794804.4804552,1713,1772794804,480082547,,1.0,-3.0,4.0,-27.0,26.0,9.0
1772794804.4812806,1714,1772794804,481073163,,4.0,-3.0,0.0,-28.0,30.0,11.0
1772794804.4822907,1715,1772794804,482087572,,4.0,-3.0,0.0,-28.0,30.0,11.0
1772794804.483406,1716,1772794804,483067572,,4.0,-3.0,0.0,-28.0,30.0,11.0
1772794804.4842947,1717,1772794804,484083939,,4.0,-3.0,0.0,-28.0,30.0,11.0
1772794804.4852722,1718,1772794804,485068448,,2.0,-4.0,12.0,-19.0,10.0,15.0
1772794804.4863656,1719,1772794804,486080486,,2.0,-3.0,5.0,-19.0,14.0,18.0
1772794804.4872591,1720,1772794804,487085619,,2.0,-3.0,5.0,-19.0,14.0,18.0
1772794804.4882615,1721,1772794804,488084222,,2.0,-3.0,5.0,-19.0,14.0,18.0
1772794804.4893434,1722,1772794804,489063745,,1.0,-2.0,3.0,-24.0,18.0,19.0
1772794804.4902852,1723,1772794804,490088707,,-1.0,-2.0,6.0,-25.0,14.0,12.0
1772794804.4912553,1724,1772794804,491082351,,-1.0,-2.0,6.0,-25.0,14.0,12.0
1772794804.492243,1725,1772794804,492083526,,2.0,-3.0,-3.0,-28.0,25.0,12.0
1772794804.4932694,1726,1772794804,493080099,,2.0,-3.0,-3.0,-28.0,25.0,12.0
1772794804.4942253,1727,1772794804,494079599,,2.0,-3.0,-3.0,-28.0,25.0,12.0
1772794804.495379,1728,1772794804,495085546,,3.0,-4.0,-5.0,-40.0,34.0,7.0
1772794804.4963787,1729,1772794804,496087696,,3.0,-4.0,-5.0,-40.0,34.0,7.0
1772794804.497242,1730,1772794804,497091893,,2.0,-4.0,1.0,-42.0,20.0,6.0
1772794804.498362,1731,1772794804,498090246,,1.0,-3.0,-2.0,-37.0,8.0,14.0
1772794804.499352,1732,1772794804,499087333,,1.0,-3.0,-2.0,-37.0,8.0,14.0
1772794804.500266,1733,1772794804,500082837,,1.0,-2.0,2.0,-8.0,3.0,16.0
1772794804.501235,1734,1772794804,501080421,,1.0,-2.0,2.0,-8.0,3.0,16.0
1772794804.502455,1735,1772794804,502098050,,1.0,-2.0,2.0,-8.0,3.0,16.0
1772794804.50331,1736,1772794804,503063906,,1.0,-2.0,-1.0,-12.0,12.0,11.0
1772794804.504302,1737,1772794804,504074553,,2.0,-2.0,11.0,-8.0,13.0,6.0
1772794804.5053675,1738,1772794804,505083821,,2.0,-2.0,11.0,-8.0,13.0,6.0
1772794804.5062642,1739,1772794804,506081203,,2.0,-2.0,11.0,-8.0,13.0,6.0
1772794804.5073972,1740,1772794804,507069159,,3.0,-3.0,12.0,1.0,17.0,7.0
1772794804.5083869,1741,1772794804,508091783,,3.0,-1.0,10.0,11.0,10.0,8.0
1772794804.5092738,1742,1772794804,509080334,,3.0,-1.0,10.0,11.0,10.0,8.0
1772794804.5102446,1743,1772794804,510086949,,3.0,-4.0,-2.0,-4.0,21.0,16.0
1772794804.5113218,1744,1772794804,511066319,,1.0,-2.0,-3.0,-19.0,21.0,12.0
1772794804.5122783,1745,1772794804,512085135,,1.0,-2.0,-3.0,-19.0,21.0,12.0
1772794804.5133662,1746,1772794804,513082540,,1.0,-2.0,-3.0,-19.0,21.0,12.0
1772794804.5143015,1747,1772794804,514085571,,1.0,-2.0,-3.0,-19.0,21.0,12.0
1772794804.5152562,1748,1772794804,515068403,,2.0,-1.0,1.0,-14.0,20.0,9.0
1772794804.5163646,1749,1772794804,516084409,,4.0,-4.0,5.0,1.0,26.0,11.0
1772794804.5173502,1750,1772794804,517082145,,4.0,-4.0,5.0,1.0,26.0,11.0
1772794804.5182655,1751,1772794804,518080782,,4.0,-4.0,5.0,1.0,26.0,11.0
1772794804.519346,1752,1772794804,519067223,,4.0,-1.0,7.0,20.0,19.0,12.0
1772794804.5203986,1753,1772794804,520089101,,4.0,-1.0,11.0,16.0,20.0,15.0
1772794804.5212777,1754,1772794804,521085504,,4.0,-1.0,11.0,16.0,20.0,15.0
1772794804.5222554,1755,1772794804,522081481,,2.0,-3.0,1.0,-16.0,33.0,8.0
1772794804.5232372,1756,1772794804,523066568,,2.0,-3.0,1.0,-16.0,33.0,8.0
1772794804.524285,1757,1772794804,524082266,,1.0,-3.0,-2.0,-11.0,4.0,7.0
1772794804.525397,1758,1772794804,525082834,,1.0,-3.0,-2.0,-11.0,4.0,7.0
1772794804.5263693,1759,1772794804,526079978,,1.0,-3.0,-2.0,-11.0,4.0,7.0
