Time,header.seq,header.stamp.secs,header.stamp.nsecs,header.frame_id,wrench.force.x,wrench.force.y,wrench.force.z,wrench.torque.x,wrench.torque.y,wrench.torque.z
1772794803.728298,961,1772794803,728088962,,0.0,-0.02808199943836001,-0.7,-0.2962962962962963,0.10714285714285714,0.015384615384615385
1772794803.7293923,962,1772794803,729107933,,0.11855364552459988,-0.02808199943836001,0.3,-0.05555555555555555,0.12142857142857143,0.010650887573964497
1772794803.7302983,963,1772794803,730096862,,0.11855364552459988,-0.02808199943836001,0.3,-0.05555555555555555,0.12142857142857143,0.010650887573964497
1772794803.7312243,964,1772794803,731093570,,0.11855364552459988,-0.02808199943836001,0.3,-0.05555555555555555,0.12142857142857143,0.010650887573964497
1772794803.7322738,965,1772794803,732098152,,0.11855364552459988,-0.05616399887672002,1.0,-0.12037037037037036,0.1357142857142857,0.010650887573964497
1772794803.7333097,966,1772794803,733086556,,0.11855364552459988,-0.05616399887672002,1.0,-0.12037037037037036,0.1357142857142857,0.010650887573964497
1772794803.7343373,967,1772794803,734081382,,0.0889152341434499,-0.05616399887672002,0.7,-0.17592592592592593,0.14285714285714285,0.011834319526627219
1772794803.7352293,968,1772794803,735066803,,0.0889152341434499,-0.05616399887672002,0.7,-0.17592592592592593,0.14285714285714285,0.011834319526627219
1772794803.736269,969,1772794803,736072760,,0.02963841138114997,-0.08424599831508003,0.3,-0.19444444444444445,0.09285714285714286,0.005917159763313609
1772794803.737392,970,1772794803,737100903,,0.02963841138114997,-0.08424599831508003,0.3,-0.19444444444444445,0.09285714285714286,0.005917159763313609
1772794803.738281,971,1772794803,738096533,,0.02963841138114997,-0.05616399887672002,-0.1,-0.25925925925925924,0.02857142857142857,0.015384615384615385
1772794803.7394898,972,1772794803,739188191,,0.02963841138114997,-0.05616399887672002,-0.1,-0.25925925925925924,0.02857142857142857,0.015384615384615385
1772794803.7403076,973,1772794803,740110348,,0.05927682276229994,-0.05616399887672002,-1.3,-0.3888888888888889,0.18571428571428572,0.014201183431952662
1772794803.7412477,974,1772794803,741094566,,0.05927682276229994,-0.05616399887672002,-1.3,-0.3888888888888889,0.18571428571428572,0.014201183431952662
1772794803.7422974,975,1772794803,742101842,,0.11855364552459988,-0.05616399887672002,-0.7,-0.12962962962962962,0.25,0.015384615384615385
1772794803.7433677,976,1772794803,743099574,,0.11855364552459988,-0.05616399887672002,-0.7,-0.12962962962962962,0.25,0.015384615384615385
1772794803.74434,977,1772794803,744089387,,0.05927682276229994,-0.08424599831508003,-0.9,-0.32407407407407407,0.2357142857142857,0.010650887573964497
1772794803.745369,978,1772794803,745091158,,0.05927682276229994,-0.08424599831508003,-0.9,-0.32407407407407407,0.2357142857142857,0.010650887573964497
1772794803.7464283,979,1772794803,746101975,,0.0889152341434499,-0.08424599831508003,-0.3,-0.2037037037037037,0.17142857142857143,0.015384615384615385
1772794803.747276,980,1772794803,747077127,,0.0889152341434499,-0.08424599831508003,-0.3,-0.2037037037037037,0.17142857142857143,0.015384615384615385
1772794803.7483456,981,1772794803,748078974,,0.05927682276229994,-0.08424599831508003,-0.2,-0.12962962962962962,0.1,0.015384615384615385
1772794803.7492537,982,1772794803,749073923,,0.05927682276229994,-0.08424599831508003,-0.2,-0.12962962962962962,0.1,0.015384615384615385
1772794803.7503712,983,1772794803,750091317,,0.05927682276229994,-0.08424599831508003,-0.2,-0.12962962962962962,0.1,0.015384615384615385
1772794803.7512832,984,1772794803,751095017,,0.0889152341434499,-0.05616399887672002,0.1,-0.17592592592592593,0.18571428571428572,0.01301775147928994
1772794803.752295,985,1772794803,752095116,,0.0889152341434499,-0.05616399887672002,0.1,-0.17592592592592593,0.18571428571428572,0.01301775147928994
1772794803.753363,986,1772794803,753095122,,0.14819205690574985,-0.05616399887672002,0.0,-0.1111111111111111,0.2357142857142857,0.010650887573964497
1772794803.7543,987,1772794803,754091042,,0.14819205690574985,-0.08424599831508003,0.2,-0.21296296296296297,0.21428571428571427,0.015384615384615385
1772794803.7553017,988,1772794803,755090177,,0.14819205690574985,-0.08424599831508003,0.2,-0.21296296296296297,0.21428571428571427,0.015384615384615385
1772794803.7563345,989,1772794803,756097578,,0.20746887966804978,-0.08424599831508003,0.8,-0.027777777777777776,0.22142857142857142,0.009467455621301775
1772794803.7572758,990,1772794803,757096245,,0.20746887966804978,-0.08424599831508003,0.8,-0.027777777777777776,0.22142857142857142,0.009467455621301775
1772794803.7582722,991,1772794803,758092235,,0.1778304682868998,-0.08424599831508003,1.0,0.046296296296296294,0.2357142857142857,0.015384615384615385
1772794803.759272,992,1772794803,759102299,,0.23710729104919975,-0.11232799775344005,0.5,-0.12037037037037036,0.21428571428571427,0.008284023668639054
1772794803.7603247,993,1772794803,760091567,,0.23710729104919975,-0.11232799775344005,0.5,-0.12037037037037036,0.21428571428571427,0.008284023668639054
1772794803.761322,994,1772794803,761087256,,0.23710729104919975,-0.11232799775344005,0.5,-0.12037037037037036,0.21428571428571427,0.008284023668639054
1772794803.7623773,995,1772794803,762075963,,0.14819205690574985,0.0,-0.3,-0.06481481481481481,0.14285714285714285,0.01301775147928994
1772794803.763313,996,1772794803,763078350,,0.11855364552459988,-0.08424599831508003,0.1,0.08333333333333333,0.08571428571428572,0.010650887573964497
1772794803.7643805,997,1772794803,764081323,,0.11855364552459988,-0.08424599831508003,0.1,0.08333333333333333,0.08571428571428572,0.010650887573964497
1772794803.7653484,998,1772794803,765095572,,0.11855364552459988,-0.08424599831508003,0.1,0.08333333333333333,0.08571428571428572,0.010650887573964497
1772794803.766375,999,1772794803,766088998,,0.11855364552459988,-0.08424599831508003,0.1,0.08333333333333333,0.08571428571428572,0.010650887573964497
1772794803.7673082,1000,1772794803,767111110,,0.05927682276229994,-0.02808199943836001,0.3,-0.05555555555555555,0.07857142857142857,0.008284023668639054
1772794803.7684064,1001,1772794803,768102544,,0.05927682276229994,-0.02808199943836001,-0.1,-0.037037037037037035,0.17142857142857143,0.014201183431952662
1772794803.7692854,1002,1772794803,769097580,,0.05927682276229994,-0.02808199943836001,-0.1,-0.037037037037037035,0.17142857142857143,0.014201183431952662
1772794803.7703066,1003,1772794803,770112319,,0.05927682276229994,-0.08424599831508003,0.2,-0.027777777777777776,0.15714285714285714,0.015384615384615385
1772794803.7713277,1004,1772794803,771105384,,0.02963841138114997,-0.05616399887672002,0.8,0.018518518518518517,0.10714285714285714,0.023668639053254437
1772794803.7722168,1005,1772794803,772093965,,0.02963841138114997,-0.05616399887672002,0.8,0.018518518518518517,0.10714285714285714,0.023668639053254437
1772794803.773323,1006,1772794803,773107773,,0.02963841138114997,-0.05616399887672002,0.8,0.018518518518518517,0.10714285714285714,0.023668639053254437
1772794803.7742422,1007,1772794803,774105311,,0.05927682276229994,-0.08424599831508003,0.2,-0.018518518518518517,0.14285714285714285,0.01893491124260355
1772794803.7752585,1008,1772794803,775106921,,0.05927682276229994,-0.08424599831508003,0.2,-0.018518518518518517,0.12142857142857143,0.015384615384615385
1772794803.7763157,1009,1772794803,776076319,,0.05927682276229994,-0.08424599831508003,0.2,-0.018518518518518517,0.12142857142857143,0.015384615384615385
1772794803.777396,1010,1772794803,777080543,,0.05927682276229994,-0.08424599831508003,0.2,-0.018518518518518517,0.12142857142857143,0.015384615384615385
1772794803.7782395,1011,1772794803,778081871,,0.02963841138114997,-0.02808199943836001,-0.4,-0.32407407407407407,0.17142857142857143,0.009467455621301775
1772794803.7793424,1012,1772794803,779097668,,0.02963841138114997,-0.02808199943836001,-0.4,-0.32407407407407407,0.17142857142857143,0.009467455621301775
1772794803.7803993,1013,1772794803,780100450,,0.02963841138114997,-0.02808199943836001,-0.4,-0.32407407407407407,0.17142857142857143,0.009467455621301775
1772794803.7813299,1014,1772794803,781105655,,0.0889152341434499,-0.08424599831508003,-0.6,-0.26851851851851855,0.17142857142857143,0.005917159763313609
1772794803.7823663,1015,1772794803,782106658,,0.0889152341434499,-0.08424599831508003,-0.6,-0.26851851851851855,0.17142857142857143,0.005917159763313609
1772794803.783387,1016,1772794803,783102074,,0.02963841138114997,-0.05616399887672002,-0.2,-0.25925925925925924,0.09285714285714286,0.005917159763313609
1772794803.784287,1017,1772794803,784105710,,0.0889152341434499,-0.02808199943836001,0.4,-0.046296296296296294,0.06428571428571428,0.016568047337278107
1772794803.7852604,1018,1772794803,785100822,,0.0889152341434499,-0.02808199943836001,0.4,-0.046296296296296294,0.06428571428571428,0.016568047337278107
1772794803.7863662,1019,1772794803,786098433,,0.05927682276229994,-0.11232799775344005,0.0,-0.24074074074074073,0.21428571428571427,0.007100591715976331
1772794803.7873318,1020,1772794803,787104248,,0.05927682276229994,-0.11232799775344005,0.0,-0.24074074074074073,0.21428571428571427,0.007100591715976331
1772794803.788277,1021,1772794803,788102611,,0.0889152341434499,-0.08424599831508003,0.7,-0.26851851851851855,0.1357142857142857,0.010650887573964497
1772794803.7894092,1022,1772794803,789097342,,0.0889152341434499,-0.08424599831508003,0.7,-0.26851851851851855,0.1357142857142857,0.010650887573964497
1772794803.7903495,1023,1772794803,790109723,,0.11855364552459988,-0.05616399887672002,0.2,-0.2222222222222222,0.18571428571428572,0.010650887573964497
1772794803.7913418,1024,1772794803,791087866,,0.11855364552459988,-0.05616399887672002,0.2,-0.2222222222222222,0.18571428571428572,0.010650887573964497
1772794803.7924466,1025,1772794803,792091769,,0.1778304682868998,-0.05616399887672002,0.2,-0.2037037037037037,0.1357142857142857,0.01775147928994083
1772794803.7933881,1026,1772794803,793085747,,0.1778304682868998,-0.05616399887672002,0.2,-0.2037037037037037,0.1357142857142857,0.01775147928994083
1772794803.7943933,1027,1772794803,794099597,,0.1778304682868998,-0.05616399887672002,0.2,-0.2037037037037037,0.1357142857142857,0.01775147928994083
1772794803.7953858,1028,1772794803,795109785,,0.14819205690574985,-0.05616399887672002,0.2,-0.037037037037037035,0.17857142857142858,0.01893491124260355
1772794803.7963157,1029,1772794803,796097070,,0.14819205690574985,-0.05616399887672002,0.2,-0.037037037037037035,0.17857142857142858,0.01893491124260355
1772794803.7973602,1030,1772794803,797108526,,0.0889152341434499,-0.02808199943836001,0.5,-0.06481481481481481,0.1357142857142857,0.01775147928994083
1772794803.798267,1031,1772794803,798105776,,0.02963841138114997,-0.08424599831508003,0.7,-0.037037037037037035,0.007142857142857143,0.016568047337278107
1772794803.7993896,1032,1772794803,799107419,,0.02963841138114997,-0.08424599831508003,0.7,-0.037037037037037035,0.007142857142857143,0.016568047337278107
1772794803.8003974,1033,1772794803,800100791,,0.05927682276229994,0.0,1.0,0.0,0.05,0.020118343195266272
1772794803.8014839,1034,1772794803,801098600,,0.05927682276229994,0.0,1.0,0.0,0.05,0.020118343195266272
1772794803.8023608,1035,1772794803,802086500,,0.05927682276229994,0.02808199943836001,0.0,-0.1111111111111111,0.10714285714285714,0.01775147928994083
1772794803.8033564,1036,1772794803,803102893,,0.05927682276229994,0.02808199943836001,0.0,-0.1111111111111111,0.10714285714285714,0.01775147928994083
1772794803.8044086,1037,1772794803,804102339,,0.0,-0.05616399887672002,-0.6,-0.16666666666666666,0.04285714285714286,0.009467455621301775
1772794803.8053102,1038,1772794803,805081901,,0.0889152341434499,-0.02808199943836001,-0.6,-0.1388888888888889,0.014285714285714285,0.01301775147928994
1772794803.8063102,1039,1772794803,806075977,,0.0889152341434499,-0.02808199943836001,-0.6,-0.1388888888888889,0.014285714285714285,0.01301775147928994
1772794803.8073995,1040,1772794803,807078954,,0.0889152341434499,-0.02808199943836001,-0.6,-0.1388888888888889,0.014285714285714285,0.01301775147928994
1772794803.8083277,1041,1772794803,808097955,,0.0889152341434499,-0.02808199943836001,-0.6,-0.1388888888888889,0.014285714285714285,0.01301775147928994
1772794803.8094974,1042,1772794803,809100393,,0.05927682276229994,-0.05616399887672002,0.3,-0.19444444444444445,-0.02142857142857143,0.015384615384615385
1772794803.8105597,1043,1772794803,810096905,,0.0889152341434499,-0.11232799775344005,0.0,-0.3425925925925926,0.15,0.010650887573964497
1772794803.81144,1044,1772794803,811101659,,0.0889152341434499,-0.11232799775344005,0.0,-0.3425925925925926,0.15,0.010650887573964497
1772794803.8124406,1045,1772794803,812096396,,0.0889152341434499,-0.05616399887672002,-0.3,-0.19444444444444445,0.2,0.010650887573964497
1772794803.8134515,1046,1772794803,813090772,,0.0889152341434499,-0.05616399887672002,-0.3,-0.19444444444444445,0.2,0.010650887573964497
1772794803.8143878,1047,1772794803,814105533,,0.14819205690574985,-0.11232799775344005,0.2,-0.009259259259259259,0.19285714285714287,0.007100591715976331
1772794803.815435,1048,1772794803,815097979,,0.14819205690574985,-0.11232799775344005,0.2,-0.009259259259259259,0.19285714285714287,0.007100591715976331
1772794803.8164406,1049,1772794803,816106559,,0.14819205690574985,-0.14040999719180006,-0.3,-0.12962962962962962,0.21428571428571427,0.004733727810650888
1772794803.8174295,1050,1772794803,817097901,,0.14819205690574985,-0.14040999719180006,-0.3,-0.12962962962962962,0.21428571428571427,0.004733727810650888
1772794803.818462,1051,1772794803,818109421,,0.14819205690574985,-0.11232799775344005,1.1,0.2962962962962963,0.12142857142857143,0.009467455621301775
1772794803.8194637,1052,1772794803,819095253,,0.14819205690574985,-0.11232799775344005,1.1,0.2962962962962963,0.12142857142857143,0.009467455621301775
1772794803.8203475,1053,1772794803,820078155,,0.11855364552459988,-0.05616399887672002,0.7,0.2222222222222222,0.08571428571428572,0.007100591715976331
1772794803.821422,1054,1772794803,821079442,,0.11855364552459988,-0.05616399887672002,0.7,0.2222222222222222,0.08571428571428572,0.007100591715976331
1772794803.8224568,1055,1772794803,822082358,,0.14819205690574985,-0.05616399887672002,0.8,0.16666666666666666,0.08571428571428572,0.010650887573964497
1772794803.823417,1056,1772794803,823100255,,0.14819205690574985,-0.05616399887672002,0.8,0.16666666666666666,0.08571428571428572,0.010650887573964497
1772794803.8245149,1057,1772794803,824102211,,0.0889152341434499,-0.08424599831508003,-0.4,-0.2222222222222222,0.22857142857142856,0.01301775147928994
1772794803.8255277,1058,1772794803,825097130,,0.0889152341434499,-0.08424599831508003,-0.4,-0.2222222222222222,0.22857142857142856,0.01301775147928994
1772794803.8263824,1059,1772794803,826092817,,0.0889152341434499,-0.08424599831508003,-0.4,-0.2222222222222222,0.22857142857142856,0.01301775147928994
1772794803.8274646,1060,1772794803,827101744,,0.11855364552459988,-0.08424599831508003,-0.3,-0.28703703703703703,0.2642857142857143,0.01775147928994083
1772794803.8284645,1061,1772794803,828099022,,0.02963841138114997,-0.11232799775344005,-0.1,-0.1111111111111111,0.17857142857142858,0.008284023668639054
1772794803.8293478,1062,1772794803,829097894,,0.02963841138114997,-0.11232799775344005,-0.1,-0.1111111111111111,0.17857142857142858,0.008284023668639054
1772794803.8304462,1063,1772794803,830103314,,0.02963841138114997,-0.02808199943836001,-0.1,-0.21296296296296297,0.08571428571428572,0.007100591715976331
1772794803.8314567,1064,1772794803,831101536,,0.02963841138114997,-0.02808199943836001,-0.1,-0.21296296296296297,0.08571428571428572,0.007100591715976331
1772794803.8323796,1065,1772794803,832091273,,0.02963841138114997,-0.08424599831508003,0.0,-0.08333333333333333,0.1,0.014201183431952662
1772794803.8333902,1066,1772794803,833088450,,0.02963841138114997,-0.08424599831508003,0.0,-0.08333333333333333,0.1,0.014201183431952662
1772794803.8344202,1067,1772794803,834092246,,0.02963841138114997,-0.05616399887672002,0.4,-0.009259259259259259,0.1,0.01775147928994083
1772794803.8353739,1068,1772794803,835071636,,0.02963841138114997,-0.05616399887672002,0.4,-0.009259259259259259,0.1,0.01775147928994083
1772794803.8363082,1069,1772794803,836077589,,0.11855364552459988,-0.02808199943836001,0.2,-0.18518518518518517,0.24285714285714285,0.01301775147928994
1772794803.8374643,1070,1772794803,837078537,,0.11855364552459988,-0.02808199943836001,0.2,-0.18518518518518517,0.24285714285714285,0.01301775147928994
1772794803.8384311,1071,1772794803,838095894,,0.11855364552459988,-0.02808199943836001,0.2,-0.18518518518518517,0.24285714285714285,0.01301775147928994
1772794803.8393977,1072,1772794803,839108082,,0.05927682276229994,-0.05616399887672002,-0.1,-0.14814814814814814,0.20714285714285716,0.008284023668639054
1772794803.8405194,1073,1772794803,840096069,,0.05927682276229994,-0.05616399887672002,-0.1,-0.14814814814814814,0.20714285714285716,0.008284023668639054
1772794803.8414328,1074,1772794803,841105199,,0.02963841138114997,-0.05616399887672002,0.2,-0.1388888888888889,0.11428571428571428,0.0035502958579881655
1772794803.8424299,1075,1772794803,842096232,,0.0,0.0,0.4,-0.2037037037037037,0.08571428571428572,0.011834319526627219
1772794803.8433528,1076,1772794803,843103858,,0.0,0.0,0.4,-0.2037037037037037,0.08571428571428572,0.011834319526627219
1772794803.8443303,1077,1772794803,844096622,,0.02963841138114997,0.0,0.6,-0.18518518518518517,0.11428571428571428,0.010650887573964497
1772794803.8454359,1078,1772794803,845102040,,0.02963841138114997,0.0,0.6,-0.18518518518518517,0.11428571428571428,0.010650887573964497
1772794803.8463433,1079,1772794803,846100866,,0.02963841138114997,-0.02808199943836001,0.0,-0.16666666666666666,0.08571428571428572,0.009467455621301775
1772794803.8474271,1080,1772794803,847098298,,0.02963841138114997,-0.02808199943836001,0.0,-0.16666666666666666,0.08571428571428572,0.009467455621301775
1772794803.8484857,1081,1772794803,848099703,,0.02963841138114997,-0.05616399887672002,-0.1,-0.28703703703703703,0.20714285714285716,0.0035502958579881655
1772794803.8494217,1082,1772794803,849077051,,0.05927682276229994,-0.05616399887672002,0.3,-0.12037037037037036,0.12142857142857143,0.002366863905325444
1772794803.8503683,1083,1772794803,850076653,,0.05927682276229994,-0.05616399887672002,0.3,-0.12037037037037036,0.12142857142857143,0.002366863905325444
1772794803.8513765,1084,1772794803,851078245,,0.05927682276229994,-0.05616399887672002,0.3,-0.12037037037037036,0.12142857142857143,0.002366863905325444
1772794803.8523922,1085,1772794803,852080551,,0.02963841138114997,-0.02808199943836001,-0.1,-0.07407407407407407,0.1,0.010650887573964497
1772794803.8533604,1086,1772794803,853096462,,0.02963841138114997,-0.02808199943836001,-0.1,-0.07407407407407407,0.1,0.010650887573964497
1772794803.8544016,1087,1772794803,854094252,,0.02963841138114997,-0.02808199943836001,-0.1,-0.07407407407407407,0.1,0.010650887573964497
1772794803.855403,1088,1772794803,855097197,,0.02963841138114997,-0.05616399887672002,0.1,-0.05555555555555555,0.06428571428571428,0.011834319526627219
1772794803.856348,1089,1772794803,856103046,,0.02963841138114997,-0.05616399887672002,0.1,-0.05555555555555555,0.06428571428571428,0.011834319526627219
1772794803.8575006,1090,1772794803,857101644,,0.02963841138114997,-0.05616399887672002,0.2,0.027777777777777776,0.1357142857142857,0.008284023668639054
1772794803.858493,1091,1772794803,858094600,,0.05927682276229994,-0.05616399887672002,-0.1,-0.09259259259259259,0.1357142857142857,0.007100591715976331
1772794803.8594112,1092,1772794803,859092618,,0.05927682276229994,-0.05616399887672002,-0.1,-0.09259259259259259,0.1357142857142857,0.007100591715976331
1772794803.8604972,1093,1772794803,860099980,,0.11855364552459988,-0.08424599831508003,0.0,-0.12037037037037036,0.25,0.005917159763313609
1772794803.8615324,1094,1772794803,861102583,,0.11855364552459988,-0.08424599831508003,0.0,-0.12037037037037036,0.25,0.005917159763313609
1772794803.862358,1095,1772794803,862101715,,0.05927682276229994,-0.05616399887672002,-0.5,-0.28703703703703703,0.3,0.005917159763313609
1772794803.8634377,1096,1772794803,863094033,,0.0,-0.08424599831508003,-0.9,-0.28703703703703703,0.18571428571428572,0.01301775147928994
1772794803.864304,1097,1772794803,864090295,,0.0,-0.08424599831508003,-0.9,-0.28703703703703703,0.18571428571428572,0.01301775147928994
1772794803.8653882,1098,1772794803,865074483,,0.0,-0.08424599831508003,-0.9,-0.28703703703703703,0.18571428571428572,0.01301775147928994
1772794803.8662934,1099,1772794803,866080007,,0.0889152341434499,-0.05616399887672002,0.5,0.19444444444444445,0.10714285714285714,0.01775147928994083
1772794803.867261,1100,1772794803,867081802,,0.0889152341434499,-0.11232799775344005,0.6,-0.046296296296296294,0.12857142857142856,0.011834319526627219
1772794803.8682353,1101,1772794803,868100062,,0.0889152341434499,-0.11232799775344005,0.6,-0.046296296296296294,0.12857142857142856,0.011834319526627219
1772794803.8692377,1102,1772794803,869104924,,0.0889152341434499,-0.11232799775344005,0.6,-0.046296296296296294,0.12857142857142856,0.011834319526627219
1772794803.870339,1103,1772794803,870102912,,0.0889152341434499,-0.11232799775344005,0.6,-0.046296296296296294,0.12857142857142856,0.011834319526627219
1772794803.8712604,1104,1772794803,871095343,,0.20746887966804978,-0.16849199663016007,0.4,-0.09259259259259259,0.2571428571428571,0.011834319526627219
1772794803.8722916,1105,1772794803,872102294,,0.1778304682868998,-0.08424599831508003,0.5,-0.027777777777777776,0.14285714285714285,0.015384615384615385
1772794803.8733637,1106,1772794803,873102015,,0.1778304682868998,-0.08424599831508003,0.5,-0.027777777777777776,0.14285714285714285,0.015384615384615385
1772794803.8742466,1107,1772794803,874104199,,0.14819205690574985,-0.05616399887672002,0.5,0.009259259259259259,0.16428571428571428,0.008284023668639054
1772794803.8752682,1108,1772794803,875092389,,0.14819205690574985,-0.05616399887672002,0.5,0.009259259259259259,0.16428571428571428,0.008284023668639054
1772794803.8763366,1109,1772794803,876098725,,0.05927682276229994,-0.05616399887672002,0.1,-0.1388888888888889,0.19285714285714287,0.007100591715976331
1772794803.8772867,1110,1772794803,877098421,,0.05927682276229994,-0.05616399887672002,0.1,-0.1388888888888889,0.19285714285714287,0.007100591715976331
1772794803.8783662,1111,1772794803,878106421,,0.05927682276229994,-0.08424599831508003,0.2,-0.28703703703703703,0.22142857142857142,0.004733727810650888
1772794803.8794215,1112,1772794803,879101007,,0.05927682276229994,-0.08424599831508003,0.2,-0.28703703703703703,0.22142857142857142,0.004733727810650888
1772794803.8803031,1113,1772794803,880087182,,0.02963841138114997,-0.05616399887672002,-0.2,-0.3333333333333333,0.15714285714285714,0.010650887573964497
1772794803.8813214,1114,1772794803,881082273,,0.02963841138114997,-0.05616399887672002,-0.2,-0.3333333333333333,0.15714285714285714,0.010650887573964497
1772794803.8823805,1115,1772794803,882086063,,0.0889152341434499,-0.11232799775344005,-0.2,-0.3055555555555556,0.21428571428571427,0.005917159763313609
1772794803.8833427,1116,1772794803,883101994,,0.0889152341434499,-0.11232799775344005,-0.2,-0.3055555555555556,0.21428571428571427,0.005917159763313609
1772794803.8844025,1117,1772794803,884104970,,0.0889152341434499,-0.11232799775344005,-0.2,-0.3055555555555556,0.21428571428571427,0.005917159763313609
1772794803.8854206,1118,1772794803,885105617,,0.0,-0.05616399887672002,-0.1,-0.26851851851851855,0.14285714285714285,0.005917159763313609
1772794803.8864062,1119,1772794803,886103280,,0.0,-0.05616399887672002,-0.1,-0.26851851851851855,0.14285714285714285,0.005917159763313609
1772794803.887418,1120,1772794803,887102155,,0.05927682276229994,-0.08424599831508003,0.6,-0.1574074074074074,0.04285714285714286,0.005917159763313609
1772794803.888288,1121,1772794803,888100690,,0.05927682276229994,-0.11232799775344005,0.7,-0.10185185185185185,0.11428571428571428,0.005917159763313609
1772794803.8893085,1122,1772794803,889102907,,0.05927682276229994,-0.11232799775344005,0.7,-0.10185185185185185,0.11428571428571428,0.005917159763313609
1772794803.8903363,1123,1772794803,890108621,,0.0889152341434499,-0.05616399887672002,0.7,-0.17592592592592593,0.2,0.007100591715976331
1772794803.891335,1124,1772794803,891106668,,0.0889152341434499,-0.05616399887672002,0.7,-0.17592592592592593,0.2,0.007100591715976331
1772794803.8923407,1125,1772794803,892105522,,0.05927682276229994,-0.05616399887672002,1.0,0.037037037037037035,0.1357142857142857,0.015384615384615385
1772794803.8934057,1126,1772794803,893105858,,0.11855364552459988,-0.05616399887672002,-0.4,-0.21296296296296297,0.18571428571428572,0.005917159763313609
1772794803.894415,1127,1772794803,894097113,,0.11855364552459988,-0.05616399887672002,-0.4,-0.21296296296296297,0.18571428571428572,0.005917159763313609
1772794803.8952484,1128,1772794803,895078548,,0.11855364552459988,-0.05616399887672002,-0.4,-0.21296296296296297,0.18571428571428572,0.005917159763313609
1772794803.8963578,1129,1772794803,896078141,,0.05927682276229994,0.0,-0.3,-0.35185185185185186,0.1,0.007100591715976331
1772794803.8973665,1130,1772794803,897080270,,0.11855364552459988,-0.05616399887672002,0.9,0.037037037037037035,0.11428571428571428,0.015384615384615385
1772794803.8982773,1131,1772794803,898077922,,0.11855364552459988,-0.05616399887672002,0.9,0.037037037037037035,0.11428571428571428,0.015384615384615385
1772794803.8993776,1132,1772794803,899097978,,0.11855364552459988,-0.05616399887672002,0.9,0.037037037037037035,0.11428571428571428,0.015384615384615385
1772794803.9003847,1133,1772794803,900096784,,0.11855364552459988,-0.05616399887672002,0.9,0.037037037037037035,0.11428571428571428,0.015384615384615385
1772794803.9013374,1134,1772794803,901109530,,0.11855364552459988,-0.05616399887672002,0.5,-0.037037037037037035,0.16428571428571428,0.01775147928994083
1772794803.9023445,1135,1772794803,902086039,,0.05927682276229994,-0.08424599831508003,0.1,-0.14814814814814814,0.20714285714285716,0.015384615384615385
1772794803.9033992,1136,1772794803,903108556,,0.05927682276229994,-0.08424599831508003,0.1,-0.14814814814814814,0.20714285714285716,0.015384615384615385
1772794803.90432,1137,1772794803,904112097,,0.0889152341434499,-0.08424599831508003,0.3,-0.046296296296296294,0.17142857142857143,0.016568047337278107
1772794803.9053516,1138,1772794803,905109784,,0.0889152341434499,-0.05616399887672002,-0.2,-0.25925925925925924,0.15714285714285714,0.015384615384615385
1772794803.9064052,1139,1772794803,906096975,,0.0889152341434499,-0.05616399887672002,-0.2,-0.25925925925925924,0.15714285714285714,0.015384615384615385
1772794803.907279,1140,1772794803,907079316,,0.0889152341434499,-0.05616399887672002,-0.2,-0.25925925925925924,0.15714285714285714,0.015384615384615385
1772794803.908385,1141,1772794803,908087754,,0.02963841138114997,-0.08424599831508003,0.2,-0.17592592592592593,0.10714285714285714,0.011834319526627219
1772794803.9094422,1142,1772794803,909083882,,0.02963841138114997,-0.08424599831508003,0.2,-0.17592592592592593,0.10714285714285714,0.011834319526627219
1772794803.9103212,1143,1772794803,910091490,,0.02963841138114997,-0.08424599831508003,0.2,-0.17592592592592593,0.10714285714285714,0.011834319526627219
1772794803.9114192,1144,1772794803,911104969,,0.11855364552459988,-0.11232799775344005,-0.5,-0.3148148148148148,0.17142857142857143,0.015384615384615385
1772794803.9124165,1145,1772794803,912100384,,0.11855364552459988,-0.11232799775344005,-0.5,-0.3148148148148148,0.17142857142857143,0.015384615384615385
1772794803.913365,1146,1772794803,913108860,,0.02963841138114997,-0.11232799775344005,-0.1,-0.4444444444444444,0.15,0.007100591715976331
1772794803.9143689,1147,1772794803,914099338,,0.02963841138114997,-0.11232799775344005,-0.1,-0.4444444444444444,0.15,0.007100591715976331
1772794803.915379,1148,1772794803,915084637,,0.02963841138114997,-0.11232799775344005,-0.6,-0.25925925925925924,0.2,0.010650887573964497
1772794803.9163165,1149,1772794803,916107989,,0.1778304682868998,-0.02808199943836001,0.2,-0.10185185185185185,0.2571428571428571,0.015384615384615385
1772794803.9173605,1150,1772794803,917095425,,0.1778304682868998,-0.02808199943836001,0.2,-0.10185185185185185,0.2571428571428571,0.015384615384615385
1772794803.9183803,1151,1772794803,918104044,,0.0889152341434499,-0.02808199943836001,-0.4,-0.12037037037037036,0.22857142857142856,0.01301775147928994
1772794803.919215,1152,1772794803,919070448,,0.0889152341434499,-0.08424599831508003,0.0,-0.08333333333333333,0.15714285714285714,0.009467455621301775
1772794803.9202564,1153,1772794803,920068605,,0.0889152341434499,-0.08424599831508003,0.0,-0.08333333333333333,0.15714285714285714,0.009467455621301775
1772794803.9213169,1154,1772794803,921069098,,0.0889152341434499,-0.08424599831508003,0.0,-0.08333333333333333,0.15714285714285714,0.009467455621301775
1772794803.9222577,1155,1772794803,922099226,,0.0889152341434499,-0.08424599831508003,0.0,-0.08333333333333333,0.15714285714285714,0.009467455621301775
1772794803.9233925,1156,1772794803,923104366,,0.05927682276229994,-0.08424599831508003,-0.3,-0.18518518518518517,0.2357142857142857,0.004733727810650888
1772794803.9244108,1157,1772794803,924099186,,0.05927682276229994,-0.08424599831508003,-0.3,-0.18518518518518517,0.2357142857142857,0.004733727810650888
1772794803.925284,1158,1772794803,925103490,,0.11855364552459988,-0.08424599831508003,0.0,-0.07407407407407407,0.18571428571428572,0.0035502958579881655
1772794803.9263716,1159,1772794803,926103192,,0.05927682276229994,-0.05616399887672002,0.2,-0.009259259259259259,0.1357142857142857,0.01301775147928994
1772794803.9274049,1160,1772794803,927104006,,0.05927682276229994,-0.05616399887672002,0.2,-0.009259259259259259,0.1357142857142857,0.01301775147928994
1772794803.9284134,1161,1772794803,928104926,,0.05927682276229994,-0.14040999719180006,-0.2,-0.05555555555555555,0.25,0.007100591715976331
1772794803.9294226,1162,1772794803,929102930,,0.05927682276229994,-0.14040999719180006,-0.2,-0.05555555555555555,0.25,0.007100591715976331
1772794803.930451,1163,1772794803,930102561,,0.02963841138114997,-0.05616399887672002,-0.4,-0.07407407407407407,0.12857142857142856,0.004733727810650888
1772794803.9314263,1164,1772794803,931103164,,0.02963841138114997,-0.05616399887672002,-0.4,-0.07407407407407407,0.12857142857142856,0.004733727810650888
1772794803.9323533,1165,1772794803,932102395,,-0.02963841138114997,-0.05616399887672002,-0.3,-0.08333333333333333,0.1357142857142857,0.007100591715976331
1772794803.933284,1166,1772794803,933098974,,-0.02963841138114997,-0.05616399887672002,-0.3,-0.08333333333333333,0.1357142857142857,0.007100591715976331
1772794803.9343748,1167,1772794803,934100631,,-0.02963841138114997,-0.05616399887672002,-0.3,-0.08333333333333333,0.1357142857142857,0.007100591715976331
1772794803.9355276,1168,1772794803,935107326,,0.05927682276229994,0.0,0.3,0.027777777777777776,0.14285714285714285,0.014201183431952662
1772794803.936495,1169,1772794803,936089388,,0.0889152341434499,-0.05616399887672002,0.6,-0.17592592592592593,0.25,0.011834319526627219
1772794803.9372838,1170,1772794803,937103321,,0.02963841138114997,-0.08424599831508003,0.3,-0.18518518518518517,0.12142857142857143,0.009467455621301775
1772794803.938397,1171,1772794803,938098972,,0.02963841138114997,-0.08424599831508003,0.3,-0.18518518518518517,0.12142857142857143,0.009467455621301775
1772794803.9392364,1172,1772794803,939100846,,0.02963841138114997,-0.08424599831508003,0.3,-0.18518518518518517,0.12142857142857143,0.009467455621301775
1772794803.940314,1173,1772794803,940110090,,0.11855364552459988,-0.11232799775344005,0.7,-0.12037037037037036,0.21428571428571427,0.01893491124260355
1772794803.941376,1174,1772794803,941101601,,0.05927682276229994,-0.16849199663016007,0.2,-0.08333333333333333,0.22142857142857142,0.008284023668639054
1772794803.9424272,1175,1772794803,942101132,,0.05927682276229994,-0.16849199663016007,0.2,-0.08333333333333333,0.22142857142857142,0.008284023668639054
1772794803.9433074,1176,1772794803,943106094,,0.05927682276229994,-0.16849199663016007,0.2,-0.08333333333333333,0.22142857142857142,0.008284023668639054
1772794803.944435,1177,1772794803,944106241,,0.05927682276229994,-0.11232799775344005,-0.3,-0.1111111111111111,0.22142857142857142,0.007100591715976331
1772794803.9453785,1178,1772794803,945084691,,0.0889152341434499,-0.11232799775344005,-0.1,0.009259259259259259,0.17142857142857143,0.009467455621301775
1772794803.9463158,1179,1772794803,946103470,,0.0889152341434499,-0.11232799775344005,-0.1,0.009259259259259259,0.17142857142857143,0.009467455621301775
1772794803.9474165,1180,1772794803,947108447,,0.0889152341434499,-0.11232799775344005,-0.1,0.009259259259259259,0.17142857142857143,0.009467455621301775
1772794803.9484358,1181,1772794803,948091868,,0.05927682276229994,-0.11232799775344005,-0.1,0.06481481481481481,0.07857142857142857,0.005917159763313609
1772794803.9493341,1182,1772794803,949101190,,0.0889152341434499,-0.05616399887672002,-0.4,-0.3425925925925926,0.06428571428571428,0.004733727810650888
1772794803.9503682,1183,1772794803,950090746,,0.0889152341434499,-0.05616399887672002,-0.4,-0.3425925925925926,0.06428571428571428,0.004733727810650888
1772794803.951387,1184,1772794803,951092846,,0.0889152341434499,-0.05616399887672002,-0.4,-0.3425925925925926,0.06428571428571428,0.004733727810650888
1772794803.9523602,1185,1772794803,952092667,,0.14819205690574985,-0.05616399887672002,-0.3,-0.26851851851851855,0.17142857142857143,0.010650887573964497
1772794803.9533417,1186,1772794803,953100220,,0.14819205690574985,-0.05616399887672002,-0.3,-0.26851851851851855,0.17142857142857143,0.010650887573964497
1772794803.954339,1187,1772794803,954089929,,0.05927682276229994,-0.05616399887672002,-0.3,-0.21296296296296297,0.03571428571428571,0.011834319526627219
1772794803.9553366,1188,1772794803,955098163,,0.05927682276229994,-0.05616399887672002,-0.3,-0.21296296296296297,0.03571428571428571,0.011834319526627219
1772794803.956254,1189,1772794803,956091645,,0.02963841138114997,-0.05616399887672002,-1.0,-0.018518518518518517,0.12857142857142856,0.010650887573964497
1772794803.9573865,1190,1772794803,957089341,,0.02963841138114997,-0.05616399887672002,-1.0,-0.018518518518518517,0.12857142857142856,0.010650887573964497
1772794803.9584079,1191,1772794803,958103152,,0.11855364552459988,-0.05616399887672002,0.3,0.12037037037037036,0.18571428571428572,0.009467455621301775
1772794803.9593341,1192,1772794803,959100176,,0.11855364552459988,-0.05616399887672002,0.3,0.12037037037037036,0.18571428571428572,0.009467455621301775
1772794803.9604208,1193,1772794803,960097258,,0.11855364552459988,-0.05616399887672002,0.3,0.12037037037037036,0.18571428571428572,0.009467455621301775
1772794803.9614036,1194,1772794803,961101138,,0.14819205690574985,0.0,0.2,-0.06481481481481481,0.14285714285714285,0.011834319526627219
1772794803.9623518,1195,1772794803,962089503,,0.14819205690574985,0.0,0.2,-0.06481481481481481,0.14285714285714285,0.011834319526627219
1772794803.9633796,1196,1772794803,963092230,,0.11855364552459988,-0.05616399887672002,-0.7,-0.16666666666666666,0.24285714285714285,0.004733727810650888
1772794803.964455,1197,1772794803,964093284,,0.05927682276229994,-0.05616399887672002,-0.4,-0.1388888888888889,0.1,0.014201183431952662
1772794803.9653552,1198,1772794803,965087152,,0.05927682276229994,-0.05616399887672002,-0.4,-0.1388888888888889,0.1,0.014201183431952662
1772794803.9665039,1199,1772794803,966094997,,0.0,-0.08424599831508003,0.0,0.07407407407407407,0.03571428571428571,0.016568047337278107
1772794803.9674413,1200,1772794803,967089966,,0.0,-0.08424599831508003,0.0,0.07407407407407407,0.03571428571428571,0.016568047337278107
1772794803.968381,1201,1772794803,968091526,,-0.02963841138114997,-0.05616399887672002,0.0,0.1388888888888889,-0.04285714285714286,0.011834319526627219
1772794803.9694564,1202,1772794803,969083834,,-0.02963841138114997,-0.05616399887672002,0.0,0.1388888888888889,-0.04285714285714286,0.011834319526627219
1772794803.9704304,1203,1772794803,970101970,,-0.02963841138114997,-0.02808199943836001,0.9,0.21296296296296297,-0.05,0.009467455621301775
1772794803.971325,1204,1772794803,971088801,,0.05927682276229994,-0.02808199943836001,1.1,0.21296296296296297,0.08571428571428572,0.008284023668639054
1772794803.9724188,1205,1772794803,972087504,,0.05927682276229994,-0.02808199943836001,1.1,0.21296296296296297,0.08571428571428572,0.008284023668639054
1772794803.9734251,1206,1772794803,973095144,,0.05927682276229994,-0.02808199943836001,1.1,0.21296296296296297,0.08571428571428572,0.008284023668639054
1772794803.9743605,1207,1772794803,974086493,,0.05927682276229994,0.0,0.8,0.21296296296296297,0.05714285714285714,0.011834319526627219
1772794803.9754581,1208,1772794803,975090806,,0.05927682276229994,0.0,0.8,0.21296296296296297,0.05714285714285714,0.011834319526627219
1772794803.9764085,1209,1772794803,976100381,,0.02963841138114997,0.02808199943836001,-0.1,-0.046296296296296294,0.10714285714285714,0.010650887573964497
1772794803.9773943,1210,1772794803,977087779,,0.02963841138114997,0.02808199943836001,-0.1,-0.046296296296296294,0.10714285714285714,0.010650887573964497
1772794803.978402,1211,1772794803,978084660,,0.02963841138114997,0.02808199943836001,-0.1,-0.046296296296296294,0.10714285714285714,0.010650887573964497
1772794803.9793985,1212,1772794803,979095047,,0.0889152341434499,-0.02808199943836001,0.0,-0.009259259259259259,0.18571428571428572,0.01775147928994083
1772794803.9804044,1213,1772794803,980101916,,0.14819205690574985,-0.08424599831508003,0.3,-0.009259259259259259,0.19285714285714287,0.009467455621301775
1772794803.9813256,1214,1772794803,981091563,,0.14819205690574985,-0.08424599831508003,0.3,-0.009259259259259259,0.19285714285714287,0.009467455621301775
1772794803.982452,1215,1772794803,982092927,,0.0889152341434499,-0.05616399887672002,-0.5,-0.26851851851851855,0.12857142857142856,0.009467455621301775
1772794803.9834661,1216,1772794803,983086241,,0.0889152341434499,-0.05616399887672002,-0.5,-0.26851851851851855,0.12857142857142856,0.009467455621301775
1772794803.9844155,1217,1772794803,984098400,,0.14819205690574985,-0.02808199943836001,0.5,0.037037037037037035,0.1357142857142857,0.016568047337278107
1772794803.985411,1218,1772794803,985071848,,0.14819205690574985,-0.02808199943836001,0.5,0.037037037037037035,0.1357142857142857,0.016568047337278107
1772794803.9863877,1219,1772794803,986087702,,0.14819205690574985,-0.05616399887672002,-0.2,-0.09259259259259259,0.29285714285714287,0.016568047337278107
1772794803.9874043,1220,1772794803,987093311,,0.14819205690574985,-0.05616399887672002,-0.2,-0.09259259259259259,0.29285714285714287,0.016568047337278107
1772794803.9884417,1221,1772794803,988087571,,0.0889152341434499,-0.08424599831508003,0.2,-0.32407407407407407,0.3357142857142857,0.008284023668639054
1772794803.9894276,1222,1772794803,989087905,,0.0889152341434499,-0.08424599831508003,0.2,-0.32407407407407407,0.3357142857142857,0.008284023668639054
1772794803.9905279,1223,1772794803,990086494,,0.0889152341434499,-0.08424599831508003,0.2,-0.32407407407407407,0.3357142857142857,0.008284023668639054
1772794803.991346,1224,1772794803,991091981,,0.05927682276229994,-0.02808199943836001,0.2,-0.23148148148148148,0.20714285714285716,0.007100591715976331
1772794803.9923842,1225,1772794803,992094841,,0.02963841138114997,-0.14040999719180006,-0.2,-0.19444444444444445,0.22857142857142856,0.014201183431952662
1772794803.9934385,1226,1772794803,993082959,,0.02963841138114997,-0.14040999719180006,-0.2,-0.19444444444444445,0.22857142857142856,0.014201183431952662
1772794803.9942994,1227,1772794803,994084305,,0.02963841138114997,-0.08424599831508003,-0.4,-0.17592592592592593,0.14285714285714285,0.011834319526627219
1772794803.9954104,1228,1772794803,995090108,,0.02963841138114997,-0.08424599831508003,-0.4,-0.17592592592592593,0.14285714285714285,0.011834319526627219
1772794803.9964848,1229,1772794803,996088478,,0.0889152341434499,-0.08424599831508003,0.1,-0.018518518518518517,0.2,0.01301775147928994
1772794803.9974124,1230,1772794803,997088878,,0.0889152341434499,-0.08424599831508003,-0.2,0.009259259259259259,0.07142857142857142,0.016568047337278107
1772794803.9985027,1231,1772794803,998078955,,0.0889152341434499,-0.08424599831508003,-0.2,0.009259259259259259,0.07142857142857142,0.016568047337278107
1772794803.9995372,1232,1772794803,999087306,,0.0889152341434499,-0.08424599831508003,-0.2,0.009259259259259259,0.07142857142857142,0.016568047337278107
1772794804.0003371,1233,1772794804,87204,,0.0889152341434499,-0.08424599831508003,-0.2,0.009259259259259259,0.07142857142857142,0.016568047337278107
1772794804.0012298,1234,1772794804,1070997,,0.0889152341434499,-0.08424599831508003,0.0,-0.10185185185185185,0.10714285714285714,0.007100591715976331
1772794804.0023465,1235,1772794804,2071421,,0.02963841138114997,-0.11232799775344005,0.4,-0.08333333333333333,0.05714285714285714,0.014201183431952662
1772794804.0032573,1236,1772794804,3098039,,0.02963841138114997,-0.11232799775344005,0.4,-0.08333333333333333,0.05714285714285714,0.014201183431952662
1772794804.0042403,1237,1772794804,4092413,,0.05927682276229994,-0.05616399887672002,0.0,-0.2222222222222222,0.1357142857142857,0.008284023668639054
1772794804.0053682,1238,1772794804,5101631,,0.05927682276229994,-0.11232799775344005,-0.5,-0.14814814814814814,0.1357142857142857,0.010650887573964497
1772794804.0063426,1239,1772794804,6090909,,0.05927682276229994,-0.11232799775344005,-0.5,-0.14814814814814814,0.1357142857142857,0.010650887573964497
1772794804.0073004,1240,1772794804,7087811,,0.05927682276229994,-0.11232799775344005,-0.5,-0.14814814814814814,0.1357142857142857,0.010650887573964497
1772794804.0084858,1241,1772794804,8101150,,0.05927682276229994,-0.11232799775344005,-0.5,-0.14814814814814814,0.1357142857142857,0.010650887573964497
1772794804.0093162,1242,1772794804,9093416,,0.05927682276229994,-0.02808199943836001,0.1,0.1388888888888889,0.15,0.021301775147928994
1772794804.0103905,1243,1772794804,10081079,,0.05927682276229994,-0.02808199943836001,0.1,0.1388888888888889,0.15,0.021301775147928994
1772794804.011451,1244,1772794804,11089614,,0.0,-0.08424599831508003,0.0,-0.17592592592592593,0.15714285714285714,0.01301775147928994
1772794804.0123804,1245,1772794804,12087995,,0.0,-0.05616399887672002,0.6,0.018518518518518517,0.02142857142857143,0.01301775147928994
1772794804.0134115,1246,1772794804,13094704,,0.0,-0.05616399887672002,0.6,0.018518518518518517,0.02142857142857143,0.01301775147928994
1772794804.014349,1247,1772794804,14085076,,0.0889152341434499,-0.02808199943836001,0.1,-0.018518518518518517,0.08571428571428572,0.01301775147928994
1772794804.0154047,1248,1772794804,15097564,,0.0889152341434499,-0.02808199943836001,0.1,-0.018518518518518517,0.08571428571428572,0.01301775147928994
1772794804.016557,1249,1772794804,16089600,,0.0889152341434499,-0.02808199943836001,0.1,-0.018518518518518517,0.08571428571428572,0.01301775147928994
1772794804.0175097,1250,1772794804,17076295,,0.11855364552459988,-0.05616399887672002,1.4,0.14814814814814814,0.12142857142857143,0.01893491124260355
1772794804.0184283,1251,1772794804,18087020,,0.05927682276229994,-0.08424599831508003,0.9,-0.16666666666666666,0.09285714285714286,0.01775147928994083
1772794804.0193772,1252,1772794804,19090812,,0.05927682276229994,-0.08424599831508003,0.9,-0.16666666666666666,0.09285714285714286,0.01775147928994083
1772794804.0204277,1253,1772794804,20090253,,0.05927682276229994,-0.02808199943836001,-0.2,-0.1388888888888889,0.05,0.015384615384615385
1772794804.021328,1254,1772794804,21084803,,0.05927682276229994,-0.02808199943836001,-0.2,-0.1388888888888889,0.05,0.015384615384615385
1772794804.0223403,1255,1772794804,22093217,,0.0889152341434499,-0.02808199943836001,0.7,0.10185185185185185,0.17142857142857143,0.014201183431952662
1772794804.0233238,1256,1772794804,23087271,,0.0889152341434499,-0.02808199943836001,0.7,0.10185185185185185,0.17142857142857143,0.014201183431952662
1772794804.02438,1257,1772794804,24087559,,0.05927682276229994,-0.02808199943836001,0.6,0.0,0.15,0.011834319526627219
1772794804.0252867,1258,1772794804,25103133,,0.05927682276229994,-0.02808199943836001,0.6,0.0,0.15,0.011834319526627219
1772794804.0263722,1259,1772794804,26088147,,0.05927682276229994,-0.02808199943836001,0.6,0.0,0.15,0.011834319526627219
1772794804.0273838,1260,1772794804,27100241,,0.05927682276229994,-0.08424599831508003,0.2,0.08333333333333333,0.12142857142857143,0.016568047337278107
1772794804.0282884,1261,1772794804,28089801,,0.0,-0.08424599831508003,-0.4,0.1111111111111111,0.12857142857142856,-0.001183431952662722
1772794804.0293064,1262,1772794804,29090682,,0.0,-0.08424599831508003,-0.4,0.1111111111111111,0.12857142857142856,-0.001183431952662722
1772794804.030422,1263,1772794804,30091435,,0.0889152341434499,-0.11232799775344005,-0.4,-0.2037037037037037,0.22857142857142856,0.007100591715976331
1772794804.031346,1264,1772794804,31088381,,0.0889152341434499,-0.11232799775344005,-0.4,-0.2037037037037037,0.22857142857142856,0.007100591715976331
1772794804.0323274,1265,1772794804,32090791,,0.0889152341434499,-0.05616399887672002,-1.0,-0.23148148148148148,0.15714285714285714,0.010650887573964497
1772794804.033374,1266,1772794804,33088520,,0.0889152341434499,-0.05616399887672002,-1.0,-0.23148148148148148,0.15714285714285714,0.010650887573964497
1772794804.0343652,1267,1772794804,34085248,,0.0889152341434499,-0.08424599831508003,-0.5,-0.027777777777777776,0.1,0.01775147928994083
1772794804.035319,1268,1772794804,35089780,,0.0,0.0,-0.3,-0.09259259259259259,0.007142857142857143,0.015384615384615385
1772794804.0363963,1269,1772794804,36091232,,0.0,0.0,-0.3,-0.09259259259259259,0.007142857142857143,0.015384615384615385
1772794804.0373106,1270,1772794804,37066793,,0.0,0.0,-0.3,-0.09259259259259259,0.007142857142857143,0.015384615384615385
1772794804.03832,1271,1772794804,38091563,,-0.02963841138114997,-0.08424599831508003,-0.1,-0.24074074074074073,0.07142857142857142,0.008284023668639054
1772794804.039261,1272,1772794804,39084867,,-0.02963841138114997,-0.08424599831508003,-0.1,-0.24074074074074073,0.07142857142857142,0.008284023668639054
1772794804.0402725,1273,1772794804,40094145,,0.05927682276229994,-0.05616399887672002,-0.2,-0.2037037037037037,0.15714285714285714,0.005917159763313609
1772794804.0413213,1274,1772794804,41092197,,0.05927682276229994,-0.05616399887672002,-0.2,-0.2037037037037037,0.15714285714285714,0.005917159763313609
1772794804.0422974,1275,1772794804,42082338,,0.05927682276229994,-0.05616399887672002,-0.2,-0.2037037037037037,0.15714285714285714,0.005917159763313609
1772794804.043326,1276,1772794804,43087883,,0.05927682276229994,-0.05616399887672002,-0.3,-0.12962962962962962,0.22857142857142856,0.005917159763313609
1772794804.044423,1277,1772794804,44105931,,0.05927682276229994,-0.05616399887672002,-0.3,-0.12962962962962962,0.22857142857142856,0.005917159763313609
1772794804.045462,1278,1772794804,45086248,,0.05927682276229994,-0.02808199943836001,0.1,-0.1574074074074074,0.22142857142857142,0.01301775147928994
1772794804.0463526,1279,1772794804,46095267,,0.05927682276229994,-0.02808199943836001,0.1,-0.1574074074074074,0.22142857142857142,0.01301775147928994
1772794804.047443,1280,1772794804,47090594,,0.02963841138114997,-0.08424599831508003,-0.3,-0.4351851851851852,0.2571428571428571,0.011834319526627219
1772794804.048417,1281,1772794804,48086675,,0.0889152341434499,-0.08424599831508003,-0.2,-0.26851851851851855,0.14285714285714285,0.009467455621301775
1772794804.0492823,1282,1772794804,49086143,,0.0889152341434499,-0.08424599831508003,-0.2,-0.26851851851851855,0.14285714285714285,0.009467455621301775
1772794804.0503604,1283,1772794804,50091532,,-0.02963841138114997,-0.11232799775344005,0.0,-0.06481481481481481,0.1357142857142857,0.009467455621301775
1772794804.0514214,1284,1772794804,51086110,,-0.02963841138114997,-0.11232799775344005,0.0,-0.06481481481481481,0.1357142857142857,0.009467455621301775
1772794804.0523207,1285,1772794804,52083658,,0.02963841138114997,-0.08424599831508003,-0.4,-0.07407407407407407,0.17857142857142858,0.004733727810650888
1772794804.053426,1286,1772794804,53090712,,0.02963841138114997,-0.08424599831508003,-0.4,-0.07407407407407407,0.17857142857142858,0.004733727810650888
1772794804.0544472,1287,1772794804,54087837,,0.0,-0.11232799775344005,-0.1,-0.037037037037037035,0.12857142857142856,0.010650887573964497
1772794804.0553672,1288,1772794804,55089223,,0.0,-0.11232799775344005,-0.1,-0.037037037037037035,0.12857142857142856,0.010650887573964497
1772794804.056526,1289,1772794804,56095763,,0.0,-0.11232799775344005,-0.1,-0.037037037037037035,0.12857142857142856,0.010650887573964497
1772794804.0574942,1290,1772794804,57092682,,0.02963841138114997,-0.08424599831508003,-0.2,-0.25925925925925924,0.06428571428571428,0.008284023668639054
1772794804.0583546,1291,1772794804,58091619,,0.05927682276229994,-0.05616399887672002,0.0,0.046296296296296294,0.02857142857142857,0.008284023668639054
1772794804.0594306,1292,1772794804,59090943,,0.05927682276229994,-0.05616399887672002,0.0,0.046296296296296294,0.02857142857142857,0.008284023668639054
1772794804.0604107,1293,1772794804,60094499,,0.05927682276229994,-0.05616399887672002,0.0,0.046296296296296294,0.02857142857142857,0.008284023668639054
1772794804.0613396,1294,1772794804,61093602,,0.02963841138114997,-0.11232799775344005,-0.1,0.018518518518518517,0.04285714285714286,0.008284023668639054
1772794804.0624166,1295,1772794804,62090269,,0.1778304682868998,-0.08424599831508003,-0.4,-0.18518518518518517,0.29285714285714287,0.010650887573964497
1772794804.0635128,1296,1772794804,63091332,,0.1778304682868998,-0.08424599831508003,-0.4,-0.18518518518518517,0.29285714285714287,0.010650887573964497
1772794804.0643737,1297,1772794804,64089865,,0.05927682276229994,0.0,0.1,0.2777777777777778,0.07857142857142857,0.014201183431952662
1772794804.065404,1298,1772794804,65093177,,0.05927682276229994,0.0,0.1,0.2777777777777778,0.07857142857142857,0.014201183431952662
1772794804.0664318,1299,1772794804,66069981,,0.05927682276229994,-0.02808199943836001,0.6,0.16666666666666666,0.12857142857142856,0.011834319526627219
1772794804.067359,1300,1772794804,67087138,,0.05927682276229994,-0.02808199943836001,0.6,0.16666666666666666,0.12857142857142856,0.011834319526627219
1772794804.068483,1301,1772794804,68098010,,0.11855364552459988,-0.08424599831508003,1.2,0.25,0.12857142857142856,0.015384615384615385
1772794804.069342,1302,1772794804,69091243,,0.0889152341434499,-0.02808199943836001,0.0,0.09259259259259259,0.21428571428571427,0.011834319526627219
1772794804.0703704,1303,1772794804,70087941,,0.0889152341434499,-0.02808199943836001,0.0,0.09259259259259259,0.21428571428571427,0.011834319526627219
1772794804.0714388,1304,1772794804,71097765,,0.0889152341434499,-0.02808199943836001,0.0,0.09259259259259259,0.21428571428571427,0.011834319526627219
1772794804.072483,1305,1772794804,72086019,,0.0889152341434499,-0.02808199943836001,0.0,0.09259259259259259,0.21428571428571427,0.011834319526627219
1772794804.0733428,1306,1772794804,73093647,,0.02963841138114997,-0.05616399887672002,0.1,-0.018518518518518517,0.18571428571428572,0.010650887573964497
1772794804.0743494,1307,1772794804,74090836,,0.02963841138114997,-0.05616399887672002,0.1,-0.018518518518518517,0.18571428571428572,0.010650887573964497
1772794804.0754452,1308,1772794804,75067051,,0.0889152341434499,-0.05616399887672002,0.5,0.07407407407407407,0.17142857142857143,0.01775147928994083
1772794804.0763042,1309,1772794804,76095111,,0.0889152341434499,-0.05616399887672002,0.5,0.07407407407407407,0.17142857142857143,0.01775147928994083
1772794804.0774035,1310,1772794804,77091654,,0.05927682276229994,-0.05616399887672002,0.7,-0.009259259259259259,0.10714285714285714,0.01301775147928994
1772794804.0785336,1311,1772794804,78087853,,0.02963841138114997,-0.02808199943836001,0.3,0.009259259259259259,0.06428571428571428,0.01301775147928994
1772794804.079369,1312,1772794804,79095700,,0.02963841138114997,-0.02808199943836001,0.3,0.009259259259259259,0.06428571428571428,0.01301775147928994
1772794804.080341,1313,1772794804,80090821,,0.0889152341434499,-0.05616399887672002,-0.2,0.0,0.21428571428571427,0.01301775147928994
1772794804.081542,1314,1772794804,81093057,,0.0889152341434499,-0.05616399887672002,-0.2,0.0,0.21428571428571427,0.01301775147928994
1772794804.0823889,1315,1772794804,82097110,,0.05927682276229994,-0.08424599831508003,-0.3,-0.21296296296296297,0.18571428571428572,0.015384615384615385
1772794804.0834064,1316,1772794804,83089913,,0.05927682276229994,-0.08424599831508003,-0.3,-0.21296296296296297,0.18571428571428572,0.015384615384615385
1772794804.084511,1317,1772794804,84107678,,0.0889152341434499,0.0,-0.8,-0.19444444444444445,0.18571428571428572,0.014201183431952662
1772794804.0853941,1318,1772794804,85099208,,0.0889152341434499,0.0,-0.8,-0.19444444444444445,0.18571428571428572,0.014201183431952662
1772794804.0863497,1319,1772794804,86084970,,0.14819205690574985,-0.05616399887672002,0.0,0.046296296296296294,0.10714285714285714,0.021301775147928994
1772794804.0873075,1320,1772794804,87089306,,0.14819205690574985,-0.05616399887672002,0.0,0.046296296296296294,0.10714285714285714,0.021301775147928994
1772794804.088308,1321,1772794804,88088481,,0.14819205690574985,-0.05616399887672002,0.0,0.046296296296296294,0.10714285714285714,0.021301775147928994
1772794804.0893416,1322,1772794804,89095201,,0.11855364552459988,-0.02808199943836001,0.1,-0.05555555555555555,0.16428571428571428,0.015384615384615385
1772794804.0904467,1323,1772794804,90094200,,0.11855364552459988,-0.02808199943836001,0.1,-0.05555555555555555,0.16428571428571428,0.015384615384615385
1772794804.091384,1324,1772794804,91097849,,0.05927682276229994,-0.02808199943836001,-0.3,-0.06481481481481481,0.07857142857142857,0.011834319526627219
1772794804.0923858,1325,1772794804,92093606,,0.11855364552459988,-0.08424599831508003,0.1,-0.08333333333333333,0.07857142857142857,0.011834319526627219
1772794804.0935605,1326,1772794804,93089505,,0.11855364552459988,-0.08424599831508003,0.1,-0.08333333333333333,0.07857142857142857,0.011834319526627219
1772794804.0944076,1327,1772794804,94092331,,0.11855364552459988,-0.08424599831508003,0.1,-0.08333333333333333,0.07857142857142857,0.011834319526627219
1772794804.0953953,1328,1772794804,95084264,,0.11855364552459988,-0.08424599831508003,-0.1,-0.12037037037037036,0.12857142857142856,0.010650887573964497
1772794804.0965214,1329,1772794804,96099537,,0.0889152341434499,-0.05616399887672002,0.3,-0.046296296296296294,0.11428571428571428,0.014201183431952662
1772794804.0972855,1330,1772794804,97066942,,0.0889152341434499,-0.05616399887672002,0.3,-0.046296296296296294,0.11428571428571428,0.014201183431952662
1772794804.0983307,1331,1772794804,98090620,,0.0889152341434499,-0.08424599831508003,0.2,-0.06481481481481481,0.14285714285714285,0.010650887573964497
1772794804.09942,1332,1772794804,99092713,,0.11855364552459988,-0.05616399887672002,-0.4,-0.1111111111111111,0.14285714285714285,0.004733727810650888
1772794804.1003006,1333,1772794804,100082194,,0.11855364552459988,-0.05616399887672002,-0.4,-0.1111111111111111,0.14285714285714285,0.004733727810650888
1772794804.1013243,1334,1772794804,101090972,,0.11855364552459988,-0.05616399887672002,-0.4,-0.1111111111111111,0.14285714285714285,0.004733727810650888
1772794804.1023006,1335,1772794804,102090387,,0.0889152341434499,-0.08424599831508003,0.6,0.08333333333333333,0.04285714285714286,0.004733727810650888
1772794804.1033523,1336,1772794804,103093221,,0.14819205690574985,-0.05616399887672002,0.5,-0.009259259259259259,0.12142857142857143,0.011834319526627219
1772794804.1043813,1337,1772794804,104097092,,0.14819205690574985,-0.05616399887672002,0.5,-0.009259259259259259,0.12142857142857143,0.011834319526627219
1772794804.1054459,1338,1772794804,105087987,,0.14819205690574985,-0.05616399887672002,0.5,-0.009259259259259259,0.12142857142857143,0.011834319526627219
1772794804.1064167,1339,1772794804,106088387,,0.14819205690574985,-0.05616399887672002,0.5,-0.009259259259259259,0.12142857142857143,0.011834319526627219
1772794804.1073494,1340,1772794804,107078724,,0.05927682276229994,0.02808199943836001,-0.6,-0.23148148148148148,0.1357142857142857,0.015384615384615385
1772794804.1085238,1341,1772794804,108090713,,0.05927682276229994,-0.05616399887672002,0.1,-0.19444444444444445,0.12142857142857143,0.007100591715976331
1772794804.1094177,1342,1772794804,109089321,,0.05927682276229994,-0.05616399887672002,0.1,-0.19444444444444445,0.12142857142857143,0.007100591715976331
1772794804.1104026,1343,1772794804,110093125,,0.05927682276229994,-0.05616399887672002,0.1,-0.19444444444444445,0.12142857142857143,0.007100591715976331
1772794804.111488,1344,1772794804,111087834,,0.11855364552459988,-0.05616399887672002,-0.5,-0.35185185185185186,0.19285714285714287,0.007100591715976331
1772794804.1124077,1345,1772794804,112093501,,0.05927682276229994,-0.11232799775344005,-0.9,-0.2962962962962963,0.15714285714285714,0.0035502958579881655
1772794804.1134014,1346,1772794804,113089383,,0.05927682276229994,-0.11232799775344005,-0.9,-0.2962962962962963,0.15714285714285714,0.0035502958579881655
1772794804.1144156,1347,1772794804,114086790,,0.11855364552459988,-0.11232799775344005,-0.1,-0.10185185185185185,0.2714285714285714,0.010650887573964497
1772794804.1155071,1348,1772794804,115095315,,0.11855364552459988,-0.11232799775344005,-0.1,-0.10185185185185185,0.2714285714285714,0.010650887573964497
1772794804.1164186,1349,1772794804,116101559,,0.11855364552459988,-0.11232799775344005,-0.1,-0.10185185185185185,0.2714285714285714,0.010650887573964497
1772794804.117396,1350,1772794804,117075858,,0.05927682276229994,-0.05616399887672002,-0.9,-0.23148148148148148,0.20714285714285716,0.010650887573964497
1772794804.1185575,1351,1772794804,118076600,,0.05927682276229994,-0.05616399887672002,-0.9,-0.23148148148148148,0.20714285714285716,0.010650887573964497
1772794804.1194556,1352,1772794804,119088648,,0.0889152341434499,-0.08424599831508003,-0.4,-0.21296296296296297,0.2571428571428571,0.007100591715976331
1772794804.120534,1353,1772794804,120090303,,0.0889152341434499,-0.08424599831508003,-0.4,-0.21296296296296297,0.2571428571428571,0.007100591715976331
1772794804.1214519,1354,1772794804,121087859,,0.05927682276229994,-0.14040999719180006,0.0,-0.1574074074074074,0.20714285714285716,0.004733727810650888
1772794804.122494,1355,1772794804,122101567,,0.05927682276229994,-0.14040999719180006,0.3,-0.12037037037037036,0.11428571428571428,0.016568047337278107
1772794804.123456,1356,1772794804,123094193,,0.05927682276229994,-0.14040999719180006,0.3,-0.12037037037037036,0.11428571428571428,0.016568047337278107
1772794804.1246266,1357,1772794804,124103436,,0.14819205690574985,-0.11232799775344005,0.6,-0.10185185185185185,0.22857142857142856,0.015384615384615385
1772794804.125409,1358,1772794804,125077222,,0.0889152341434499,-0.05616399887672002,0.6,-0.12037037037037036,0.15,0.010650887573964497
1772794804.1263552,1359,1772794804,126067566,,0.0889152341434499,-0.05616399887672002,0.6,-0.12037037037037036,0.15,0.010650887573964497
1772794804.127457,1360,1772794804,127083443,,0.0889152341434499,-0.05616399887672002,0.6,-0.12037037037037036,0.15,0.010650887573964497
