Time,header.seq,header.stamp.secs,header.stamp.nsecs,header.frame_id,wrench.force.x,wrench.force.y,wrench.force.z,wrench.torque.x,wrench.torque.y,wrench.torque.z
1772794350.3554354,1360,1772794350,355230462,,0.0,-2.0,-3.0,-20.0,-13.0,-6.0
1772794350.3563302,1361,1772794350,356149626,,0.0,-2.0,-3.0,-20.0,-13.0,-6.0
1772794350.3573265,1362,1772794350,357180733,,0.0,-1.0,9.0,-19.0,-26.0,-6.0
1772794350.3583157,1363,1772794350,358143423,,0.0,-1.0,9.0,-19.0,-26.0,-6.0
1772794350.3592544,1364,1772794350,359145420,,1.0,-2.0,11.0,1.0,-28.0,-6.0
1772794350.3602638,1365,1772794350,360142769,,1.0,-2.0,11.0,1.0,-28.0,-6.0
1772794350.361287,1366,1772794350,361145807,,3.0,-1.0,8.0,-21.0,-18.0,-7.0
1772794350.362444,1367,1772794350,362146305,,3.0,-3.0,4.0,-22.0,3.0,-4.0
1772794350.3633506,1368,1772794350,363146515,,3.0,-3.0,4.0,-22.0,3.0,-4.0
1772794350.3644476,1369,1772794350,364145683,,3.0,-3.0,4.0,-22.0,3.0,-4.0
1772794350.365306,1370,1772794350,365147306,,3.0,-3.0,4.0,-22.0,3.0,-4.0
1772794350.3664064,1371,1772794350,366179777,,1.0,-1.0,4.0,-3.0,-21.0,-6.0
1772794350.367325,1372,1772794350,367148130,,1.0,-4.0,12.0,-23.0,-26.0,-10.0
1772794350.3684165,1373,1772794350,368169191,,1.0,-4.0,12.0,-23.0,-26.0,-10.0
1772794350.3693295,1374,1772794350,369157057,,2.0,-2.0,8.0,-7.0,-27.0,-9.0
1772794350.3704472,1375,1772794350,370151199,,2.0,-2.0,8.0,-7.0,-27.0,-9.0
1772794350.3714495,1376,1772794350,371156666,,5.0,-2.0,2.0,-24.0,1.0,-8.0
1772794350.372356,1377,1772794350,372152825,,3.0,-1.0,-1.0,-34.0,-3.0,-11.0
1772794350.3734972,1378,1772794350,373152837,,3.0,-1.0,-1.0,-34.0,-3.0,-11.0
1772794350.3745823,1379,1772794350,374170319,,3.0,-1.0,-1.0,-34.0,-3.0,-11.0
1772794350.3757064,1380,1772794350,375166553,,3.0,-1.0,-1.0,-34.0,-3.0,-11.0
1772794350.3764548,1381,1772794350,376168924,,0.0,-3.0,-3.0,-41.0,-1.0,-3.0
1772794350.3775458,1382,1772794350,377172551,,2.0,-3.0,11.0,-17.0,-2.0,-5.0
1772794350.3784502,1383,1772794350,378160516,,2.0,-3.0,11.0,-17.0,-2.0,-5.0
1772794350.3795314,1384,1772794350,379172941,,3.0,-1.0,5.0,-22.0,-8.0,-6.0
1772794350.3804243,1385,1772794350,380152150,,3.0,-1.0,5.0,-22.0,-8.0,-6.0
1772794350.3816667,1386,1772794350,381152863,,0.0,-2.0,3.0,-13.0,-23.0,-5.0
1772794350.3824642,1387,1772794350,382154021,,1.0,-3.0,1.0,-26.0,-14.0,-1.0
1772794350.3835611,1388,1772794350,383168642,,1.0,-3.0,1.0,-26.0,-14.0,-1.0
1772794350.3846114,1389,1772794350,384175660,,1.0,-3.0,1.0,-26.0,-14.0,-1.0
1772794350.38541,1390,1772794350,385177944,,0.0,-3.0,3.0,-5.0,-21.0,-1.0
1772794350.3864517,1391,1772794350,386171617,,0.0,-3.0,3.0,-5.0,-21.0,-1.0
1772794350.387452,1392,1772794350,387176158,,1.0,0.0,0.0,-12.0,-13.0,7.0
1772794350.3885474,1393,1772794350,388175047,,1.0,0.0,0.0,-12.0,-13.0,7.0
1772794350.3894918,1394,1772794350,389174516,,1.0,0.0,0.0,-12.0,-13.0,7.0
1772794350.3905194,1395,1772794350,390175054,,0.0,-1.0,9.0,7.0,-25.0,3.0
1772794350.391566,1396,1772794350,391154542,,1.0,-1.0,3.0,-6.0,-10.0,-2.0
1772794350.3925524,1397,1772794350,392153951,,1.0,-1.0,3.0,-6.0,-10.0,-2.0
1772794350.3937151,1398,1772794350,393159013,,4.0,-3.0,9.0,18.0,-5.0,-4.0
1772794350.3945372,1399,1772794350,394157971,,4.0,-3.0,9.0,18.0,-5.0,-4.0
1772794350.3956099,1400,1772794350,395162097,,5.0,-3.0,18.0,30.0,5.0,-6.0
1772794350.3965368,1401,1772794350,396165674,,6.0,-1.0,14.0,29.0,9.0,-3.0
1772794350.3975418,1402,1772794350,397161441,,6.0,-1.0,14.0,29.0,9.0,-3.0
1772794350.3984993,1403,1772794350,398158768,,6.0,-1.0,14.0,29.0,9.0,-3.0
1772794350.3994799,1404,1772794350,399181082,,3.0,-2.0,17.0,12.0,-9.0,-7.0
1772794350.400461,1405,1772794350,400157281,,3.0,-2.0,17.0,12.0,-9.0,-7.0
1772794350.4015012,1406,1772794350,401155561,,4.0,0.0,10.0,7.0,-5.0,-4.0
1772794350.4023557,1407,1772794350,402149359,,4.0,0.0,10.0,7.0,-5.0,-4.0
1772794350.403443,1408,1772794350,403145870,,4.0,0.0,10.0,7.0,-5.0,-4.0
1772794350.4043546,1409,1772794350,404180728,,-2.0,-2.0,-1.0,-5.0,-13.0,-11.0
1772794350.405355,1410,1772794350,405179766,,-2.0,0.0,6.0,20.0,-31.0,-8.0
1772794350.4063702,1411,1772794350,406170829,,-2.0,0.0,6.0,20.0,-31.0,-8.0
1772794350.4074395,1412,1772794350,407179432,,3.0,-3.0,11.0,2.0,-3.0,-11.0
1772794350.408353,1413,1772794350,408170713,,3.0,-3.0,11.0,2.0,-3.0,-11.0
1772794350.409362,1414,1772794350,409175543,,4.0,-2.0,5.0,8.0,11.0,-5.0
1772794350.41036,1415,1772794350,410176144,,4.0,-2.0,13.0,0.0,2.0,-3.0
1772794350.4118319,1416,1772794350,411307502,,4.0,-2.0,13.0,0.0,2.0,-3.0
1772794350.412378,1417,1772794350,412159166,,4.0,-2.0,13.0,0.0,2.0,-3.0
1772794350.413335,1418,1772794350,413155503,,2.0,-2.0,7.0,10.0,-6.0,0.0
1772794350.414295,1419,1772794350,414150125,,2.0,-2.0,8.0,31.0,-11.0,-2.0
1772794350.415314,1420,1772794350,415144180,,2.0,-2.0,8.0,31.0,-11.0,-2.0
1772794350.4163177,1421,1772794350,416144050,,2.0,-2.0,8.0,31.0,-11.0,-2.0
1772794350.4173346,1422,1772794350,417159424,,4.0,-2.0,10.0,-1.0,13.0,0.0
1772794350.4183311,1423,1772794350,418172619,,4.0,-2.0,10.0,-1.0,13.0,0.0
1772794350.4193103,1424,1772794350,419177717,,2.0,-1.0,8.0,27.0,-12.0,-2.0
1772794350.4203584,1425,1772794350,420176887,,2.0,-1.0,8.0,27.0,-12.0,-2.0
1772794350.4213629,1426,1772794350,421171847,,4.0,-1.0,-2.0,-1.0,7.0,2.0
1772794350.4223323,1427,1772794350,422167413,,4.0,-1.0,-2.0,-1.0,7.0,2.0
1772794350.4233847,1428,1772794350,423180429,,4.0,-1.0,-3.0,5.0,4.0,9.0
1772794350.4243848,1429,1772794350,424153177,,4.0,-1.0,-3.0,5.0,4.0,9.0
1772794350.4253936,1430,1772794350,425157264,,2.0,-3.0,-3.0,-10.0,3.0,0.0
1772794350.426383,1431,1772794350,426153960,,2.0,-3.0,-3.0,-10.0,3.0,0.0
1772794350.4274178,1432,1772794350,427159103,,4.0,-2.0,0.0,-20.0,9.0,4.0
1772794350.4285533,1433,1772794350,428158531,,3.0,-2.0,4.0,-5.0,9.0,2.0
1772794350.429597,1434,1772794350,429159249,,3.0,-2.0,4.0,-5.0,9.0,2.0
1772794350.4303763,1435,1772794350,430167168,,3.0,-2.0,4.0,-5.0,9.0,2.0
1772794350.4315012,1436,1772794350,431152446,,3.0,-2.0,4.0,-5.0,9.0,2.0
1772794350.4326437,1437,1772794350,432157045,,2.0,-2.0,6.0,-2.0,-1.0,-2.0
1772794350.4333994,1438,1772794350,433176947,,-1.0,-4.0,3.0,-34.0,-14.0,-13.0
1772794350.4343386,1439,1772794350,434147702,,-1.0,-4.0,3.0,-34.0,-14.0,-13.0
1772794350.4353194,1440,1772794350,435147558,,1.0,-2.0,7.0,4.0,-11.0,-7.0
1772794350.4363601,1441,1772794350,436144780,,1.0,-2.0,7.0,4.0,-11.0,-7.0
1772794350.4373198,1442,1772794350,437165047,,2.0,-3.0,10.0,-6.0,1.0,-4.0
1772794350.4384549,1443,1772794350,438171579,,2.0,-3.0,10.0,-6.0,1.0,-4.0
1772794350.4393473,1444,1772794350,439175041,,0.0,0.0,5.0,-7.0,-16.0,1.0
1772794350.4403386,1445,1772794350,440150626,,0.0,0.0,5.0,-7.0,-16.0,1.0
1772794350.4415078,1446,1772794350,441155071,,2.0,1.0,6.0,-16.0,-5.0,-3.0
1772794350.4423351,1447,1772794350,442156979,,1.0,0.0,4.0,0.0,-10.0,-3.0
1772794350.443384,1448,1772794350,443172610,,1.0,0.0,4.0,0.0,-10.0,-3.0
1772794350.4445314,1449,1772794350,444171793,,1.0,0.0,4.0,0.0,-10.0,-3.0
1772794350.4454103,1450,1772794350,445177239,,1.0,0.0,4.0,0.0,-10.0,-3.0
1772794350.4464052,1451,1772794350,446154214,,1.0,-2.0,4.0,4.0,-13.0,-5.0
1772794350.447531,1452,1772794350,447151973,,2.0,-1.0,9.0,16.0,-19.0,-7.0
1772794350.4483817,1453,1772794350,448147453,,2.0,-1.0,9.0,16.0,-19.0,-7.0
1772794350.4494023,1454,1772794350,449150239,,6.0,-1.0,6.0,-2.0,5.0,-2.0
1772794350.4505522,1455,1772794350,450174333,,6.0,-1.0,6.0,-2.0,5.0,-2.0
1772794350.4514077,1456,1772794350,451177011,,3.0,-1.0,10.0,12.0,-20.0,-1.0
1772794350.452302,1457,1772794350,452167489,,3.0,-1.0,10.0,12.0,-20.0,-1.0
1772794350.4534452,1458,1772794350,453169749,,0.0,-2.0,5.0,6.0,-10.0,-3.0
1772794350.4544044,1459,1772794350,454144380,,0.0,-2.0,5.0,6.0,-10.0,-3.0
1772794350.4553094,1460,1772794350,455147680,,1.0,-5.0,7.0,-9.0,-8.0,-14.0
1772794350.4563115,1461,1772794350,456148468,,4.0,-3.0,14.0,19.0,1.0,-1.0
1772794350.457393,1462,1772794350,457176729,,4.0,-3.0,14.0,19.0,1.0,-1.0
1772794350.4583693,1463,1772794350,458149664,,4.0,-3.0,14.0,19.0,1.0,-1.0
1772794350.459443,1464,1772794350,459148818,,4.0,-3.0,14.0,19.0,1.0,-1.0
1772794350.4604318,1465,1772794350,460151217,,1.0,-2.0,8.0,0.0,-7.0,-2.0
1772794350.4613156,1466,1772794350,461153450,,3.0,-1.0,8.0,14.0,-5.0,-3.0
1772794350.462338,1467,1772794350,462170465,,3.0,-1.0,8.0,14.0,-5.0,-3.0
1772794350.4635057,1468,1772794350,463179336,,6.0,-1.0,7.0,-4.0,20.0,-2.0
1772794350.464384,1469,1772794350,464167019,,6.0,-1.0,7.0,-4.0,20.0,-2.0
1772794350.465368,1470,1772794350,465180458,,2.0,0.0,11.0,-6.0,-5.0,3.0
1772794350.4663067,1471,1772794350,466149827,,2.0,0.0,11.0,-6.0,-5.0,3.0
1772794350.4673517,1472,1772794350,467178880,,3.0,-2.0,10.0,12.0,10.0,-2.0
1772794350.4682984,1473,1772794350,468171038,,3.0,-2.0,10.0,12.0,10.0,-2.0
1772794350.4692612,1474,1772794350,469147141,,5.0,-3.0,13.0,10.0,23.0,-4.0
1772794350.4703698,1475,1772794350,470145128,,5.0,-3.0,13.0,10.0,23.0,-4.0
1772794350.4713027,1476,1772794350,471148405,,2.0,-2.0,7.0,12.0,3.0,-10.0
1772794350.4722657,1477,1772794350,472143273,,2.0,-2.0,7.0,12.0,3.0,-10.0
1772794350.4734902,1478,1772794350,473183236,,2.0,-2.0,7.0,12.0,3.0,-10.0
1772794350.4743626,1479,1772794350,474170352,,3.0,-2.0,3.0,11.0,10.0,-9.0
1772794350.4754078,1480,1772794350,475168090,,3.0,-2.0,3.0,11.0,10.0,-9.0
1772794350.4763765,1481,1772794350,476156429,,5.0,-1.0,6.0,14.0,14.0,-2.0
1772794350.4773903,1482,1772794350,477175086,,1.0,-1.0,11.0,23.0,-17.0,-9.0
1772794350.4785082,1483,1772794350,478166033,,1.0,-1.0,11.0,23.0,-17.0,-9.0
1772794350.4793665,1484,1772794350,479160642,,1.0,1.0,9.0,33.0,-22.0,-2.0
1772794350.4803784,1485,1772794350,480170844,,1.0,1.0,9.0,33.0,-22.0,-2.0
1772794350.4814963,1486,1772794350,481173260,,2.0,-2.0,1.0,9.0,-9.0,-5.0
1772794350.4823608,1487,1772794350,482175403,,5.0,-2.0,7.0,8.0,5.0,-10.0
1772794350.4832952,1488,1772794350,483145614,,5.0,-2.0,7.0,8.0,5.0,-10.0
1772794350.4843647,1489,1772794350,484144869,,5.0,-2.0,7.0,8.0,5.0,-10.0
1772794350.4852479,1490,1772794350,485145812,,3.0,-2.0,9.0,10.0,-11.0,-8.0
1772794350.486315,1491,1772794350,486171485,,3.0,-2.0,9.0,10.0,-11.0,-8.0
1772794350.487415,1492,1772794350,487167966,,1.0,-2.0,12.0,9.0,-24.0,-5.0
1772794350.4883606,1493,1772794350,488165662,,1.0,-2.0,12.0,9.0,-24.0,-5.0
1772794350.4893641,1494,1772794350,489171200,,1.0,-2.0,12.0,9.0,-24.0,-5.0
1772794350.4904025,1495,1772794350,490177835,,0.0,-2.0,17.0,32.0,-28.0,-11.0
1772794350.4913955,1496,1772794350,491174816,,-2.0,-1.0,10.0,26.0,-25.0,-9.0
1772794350.4923508,1497,1772794350,492167924,,-2.0,-1.0,10.0,26.0,-25.0,-9.0
1772794350.4933832,1498,1772794350,493170406,,2.0,-3.0,8.0,15.0,1.0,-6.0
1772794350.4944227,1499,1772794350,494169501,,2.0,0.0,14.0,12.0,-11.0,-3.0
1772794350.4954515,1500,1772794350,495171335,,2.0,0.0,14.0,12.0,-11.0,-3.0
1772794350.4963624,1501,1772794350,496147633,,2.0,0.0,14.0,12.0,-11.0,-3.0
1772794350.4974227,1502,1772794350,497153752,,2.0,-2.0,9.0,-19.0,-2.0,-2.0
1772794350.4996064,1503,1772794350,498148860,,2.0,-2.0,9.0,-19.0,-2.0,-2.0
1772794350.4996533,1504,1772794350,499153117,,3.0,-2.0,15.0,-7.0,-1.0,-2.0
1772794350.5004058,1505,1772794350,500166458,,3.0,-2.0,15.0,-7.0,-1.0,-2.0
1772794350.501324,1506,1772794350,501164279,,2.0,-2.0,19.0,8.0,-24.0,-2.0
1772794350.5024002,1507,1772794350,502169325,,2.0,-2.0,19.0,8.0,-24.0,-2.0
1772794350.5033898,1508,1772794350,503151702,,0.0,0.0,9.0,-8.0,-15.0,-4.0
1772794350.5043228,1509,1772794350,504169785,,0.0,0.0,9.0,-8.0,-15.0,-4.0
1772794350.505345,1510,1772794350,505168552,,1.0,-2.0,4.0,0.0,-6.0,-4.0
1772794350.5062988,1511,1772794350,506170974,,1.0,-2.0,4.0,0.0,-6.0,-4.0
1772794350.507339,1512,1772794350,507177883,,0.0,-3.0,0.0,-13.0,0.0,-7.0
1772794350.5083919,1513,1772794350,508146612,,0.0,-1.0,6.0,3.0,-21.0,-5.0
1772794350.5092819,1514,1772794350,509144809,,0.0,-1.0,6.0,3.0,-21.0,-5.0
1772794350.5103226,1515,1772794350,510150330,,0.0,-1.0,6.0,3.0,-21.0,-5.0
1772794350.5114152,1516,1772794350,511150322,,1.0,-2.0,7.0,19.0,-20.0,2.0
1772794350.5123572,1517,1772794350,512168956,,1.0,-2.0,7.0,19.0,-20.0,2.0
1772794350.513365,1518,1772794350,513168707,,1.0,-2.0,7.0,19.0,-20.0,2.0
1772794350.5145216,1519,1772794350,514177557,,0.0,-3.0,12.0,29.0,-18.0,0.0
1772794350.5153916,1520,1772794350,515178932,,1.0,0.0,2.0,7.0,-8.0,-3.0
1772794350.5163534,1521,1772794350,516172813,,1.0,0.0,2.0,7.0,-8.0,-3.0
1772794350.5174215,1522,1772794350,517172358,,1.0,0.0,5.0,-3.0,-10.0,-7.0
1772794350.5183187,1523,1772794350,518168821,,1.0,0.0,5.0,-3.0,-10.0,-7.0
1772794350.5193057,1524,1772794350,519176660,,1.0,-3.0,7.0,-1.0,-7.0,-7.0
1772794350.520402,1525,1772794350,520168933,,1.0,-3.0,7.0,-1.0,-7.0,-7.0
1772794350.521369,1526,1772794350,521175148,,3.0,-2.0,2.0,6.0,7.0,-2.0
1772794350.5223043,1527,1772794350,522168343,,2.0,-3.0,-1.0,-10.0,9.0,-13.0
1772794350.5234137,1528,1772794350,523146747,,2.0,-3.0,-1.0,-10.0,9.0,-13.0
1772794350.5243816,1529,1772794350,524148580,,2.0,-3.0,-1.0,-10.0,9.0,-13.0
1772794350.525338,1530,1772794350,525152894,,2.0,-2.0,9.0,-7.0,3.0,-11.0
1772794350.5265133,1531,1772794350,526168463,,2.0,-2.0,9.0,-7.0,3.0,-11.0
1772794350.5276747,1532,1772794350,527168824,,2.0,-2.0,9.0,-7.0,3.0,-11.0
1772794350.5283813,1533,1772794350,528176010,,1.0,-2.0,0.0,-21.0,2.0,-14.0
1772794350.529505,1534,1772794350,529170795,,1.0,-2.0,0.0,-21.0,2.0,-14.0
1772794350.5303771,1535,1772794350,530175408,,3.0,1.0,1.0,-14.0,3.0,-9.0
1772794350.5313249,1536,1772794350,531177366,,4.0,0.0,0.0,-29.0,17.0,-10.0
1772794350.5323343,1537,1772794350,532177083,,3.0,-2.0,11.0,10.0,-2.0,-5.0
1772794350.5333865,1538,1772794350,533165881,,3.0,-2.0,11.0,10.0,-2.0,-5.0
1772794350.5343258,1539,1772794350,534170755,,3.0,-2.0,11.0,10.0,-2.0,-5.0
1772794350.5354471,1540,1772794350,535171671,,3.0,-2.0,11.0,10.0,-2.0,-5.0
1772794350.53644,1541,1772794350,536172230,,2.0,-3.0,6.0,-16.0,16.0,-12.0
1772794350.5373802,1542,1772794350,537175785,,2.0,-3.0,10.0,8.0,2.0,-5.0
1772794350.538531,1543,1772794350,538169768,,2.0,-3.0,10.0,8.0,2.0,-5.0
1772794350.539435,1544,1772794350,539172163,,-1.0,-1.0,4.0,-15.0,-15.0,2.0
1772794350.540405,1545,1772794350,540167297,,-1.0,-1.0,4.0,-15.0,-15.0,2.0
1772794350.5414464,1546,1772794350,541171960,,1.0,-4.0,4.0,-11.0,1.0,-3.0
1772794350.5423827,1547,1772794350,542150954,,1.0,-4.0,4.0,-11.0,1.0,-3.0
1772794350.543454,1548,1772794350,543171688,,1.0,-4.0,4.0,-11.0,1.0,-3.0
1772794350.5444856,1549,1772794350,544179121,,2.0,-4.0,2.0,-7.0,4.0,-6.0
1772794350.545324,1550,1772794350,545174980,,3.0,-3.0,5.0,1.0,4.0,4.0
1772794350.5464509,1551,1772794350,546171497,,2.0,-3.0,7.0,-1.0,-12.0,0.0
1772794350.547497,1552,1772794350,547172121,,2.0,-3.0,7.0,-1.0,-12.0,0.0
1772794350.5485334,1553,1772794350,548173071,,2.0,-3.0,7.0,-1.0,-12.0,0.0
1772794350.5494187,1554,1772794350,549151439,,2.0,-3.0,7.0,-1.0,-12.0,0.0
1772794350.5503886,1555,1772794350,550176230,,1.0,-2.0,5.0,-4.0,-16.0,6.0
1772794350.5514185,1556,1772794350,551176750,,3.0,-3.0,9.0,14.0,-12.0,-4.0
1772794350.5524397,1557,1772794350,552171210,,3.0,-3.0,9.0,14.0,-12.0,-4.0
1772794350.5534904,1558,1772794350,553173422,,0.0,-2.0,3.0,-10.0,-9.0,-6.0
1772794350.554445,1559,1772794350,554163517,,0.0,-2.0,3.0,-10.0,-9.0,-6.0
1772794350.5554447,1560,1772794350,555173183,,3.0,-3.0,6.0,8.0,-6.0,-7.0
1772794350.5565116,1561,1772794350,556172308,,3.0,-3.0,6.0,8.0,-6.0,-7.0
1772794350.557411,1562,1772794350,557171412,,3.0,-3.0,6.0,8.0,-6.0,-7.0
1772794350.5584204,1563,1772794350,558168537,,2.0,-2.0,9.0,8.0,0.0,-5.0
1772794350.5594606,1564,1772794350,559172050,,1.0,-3.0,6.0,3.0,5.0,-6.0
1772794350.5605783,1565,1772794350,560161164,,1.0,-3.0,6.0,3.0,5.0,-6.0
1772794350.5614278,1566,1772794350,561163093,,1.0,-3.0,11.0,38.0,-13.0,-6.0
1772794350.5624108,1567,1772794350,562164515,,1.0,-3.0,11.0,38.0,-13.0,-6.0
1772794350.563518,1568,1772794350,563156451,,1.0,-3.0,11.0,38.0,-13.0,-6.0
1772794350.5643442,1569,1772794350,564142526,,5.0,-3.0,10.0,18.0,18.0,-2.0
1772794350.5654216,1570,1772794350,565165688,,0.0,-3.0,5.0,7.0,4.0,-6.0
1772794350.5663712,1571,1772794350,566156719,,0.0,-3.0,5.0,7.0,4.0,-6.0
1772794350.5675259,1572,1772794350,567160990,,1.0,-4.0,12.0,6.0,24.0,-5.0
1772794350.5684917,1573,1772794350,568163941,,0.0,-2.0,13.0,13.0,-4.0,-9.0
1772794350.5693614,1574,1772794350,569156578,,0.0,-2.0,13.0,13.0,-4.0,-9.0
1772794350.5703094,1575,1772794350,570167910,,0.0,-2.0,13.0,13.0,-4.0,-9.0
1772794350.5713208,1576,1772794350,571147248,,0.0,-2.0,13.0,13.0,-4.0,-9.0
1772794350.5723412,1577,1772794350,572157892,,-1.0,-5.0,13.0,7.0,0.0,-11.0
1772794350.5732636,1578,1772794350,573148354,,3.0,-3.0,14.0,20.0,0.0,-5.0
1772794350.5742497,1579,1772794350,574142626,,3.0,-3.0,14.0,20.0,0.0,-5.0
1772794350.5753353,1580,1772794350,575144731,,3.0,-1.0,11.0,7.0,6.0,-5.0
1772794350.576403,1581,1772794350,576144901,,3.0,-2.0,8.0,14.0,-3.0,-6.0
1772794350.5772862,1582,1772794350,577143082,,3.0,-2.0,8.0,14.0,-3.0,-6.0
1772794350.5783923,1583,1772794350,578165175,,3.0,-2.0,8.0,14.0,-3.0,-6.0
1772794350.5793207,1584,1772794350,579170712,,1.0,0.0,6.0,7.0,-7.0,-1.0
1772794350.5804372,1585,1772794350,580168255,,1.0,0.0,6.0,7.0,-7.0,-1.0
1772794350.5813415,1586,1772794350,581148671,,1.0,0.0,6.0,7.0,-7.0,-1.0
1772794350.582425,1587,1772794350,582171024,,3.0,-2.0,13.0,4.0,-10.0,1.0
1772794350.5833974,1588,1772794350,583152993,,3.0,-2.0,13.0,4.0,-10.0,1.0
1772794350.5843713,1589,1772794350,584173955,,1.0,-2.0,16.0,8.0,-17.0,-4.0
1772794350.5853922,1590,1772794350,585175104,,4.0,-2.0,3.0,-24.0,9.0,-5.0
1772794350.58632,1591,1772794350,586169247,,3.0,-1.0,4.0,-9.0,6.0,1.0
1772794350.587341,1592,1772794350,587170225,,3.0,-1.0,4.0,-9.0,6.0,1.0
1772794350.5885036,1593,1772794350,588154640,,3.0,-1.0,4.0,-9.0,6.0,1.0
1772794350.5895138,1594,1772794350,589171790,,2.0,-2.0,3.0,-27.0,7.0,-2.0
1772794350.5903625,1595,1772794350,590170505,,2.0,-2.0,3.0,-27.0,7.0,-2.0
1772794350.5914829,1596,1772794350,591167831,,0.0,-2.0,5.0,-25.0,-16.0,-4.0
1772794350.5925047,1597,1772794350,592166771,,0.0,-2.0,5.0,-25.0,-16.0,-4.0
1772794350.5933948,1598,1772794350,593176247,,1.0,-2.0,1.0,-27.0,-10.0,-3.0
1772794350.5945063,1599,1772794350,594144851,,1.0,-2.0,1.0,-27.0,-10.0,-3.0
1772794350.595544,1600,1772794350,595177325,,-1.0,-2.0,5.0,-24.0,-24.0,1.0
1772794350.5964313,1601,1772794350,596165625,,2.0,-2.0,5.0,-1.0,-6.0,-1.0
1772794350.5975173,1602,1772794350,597167044,,2.0,-2.0,5.0,-1.0,-6.0,-1.0
1772794350.5985749,1603,1772794350,598167677,,2.0,-2.0,5.0,-1.0,-6.0,-1.0
1772794350.599426,1604,1772794350,599167925,,2.0,-2.0,5.0,-1.0,-6.0,-1.0
1772794350.6004505,1605,1772794350,600178152,,1.0,0.0,3.0,-16.0,-6.0,5.0
1772794350.6015484,1606,1772794350,601179565,,2.0,0.0,12.0,4.0,-7.0,4.0
1772794350.6024451,1607,1772794350,602144812,,2.0,0.0,12.0,4.0,-7.0,4.0
1772794350.6034245,1608,1772794350,603169771,,2.0,0.0,1.0,-11.0,-6.0,2.0
1772794350.6044922,1609,1772794350,604169850,,2.0,0.0,1.0,-11.0,-6.0,2.0
1772794350.6053436,1610,1772794350,605166536,,4.0,-2.0,3.0,2.0,5.0,-8.0
1772794350.6063268,1611,1772794350,606168048,,4.0,-2.0,3.0,2.0,5.0,-8.0
1772794350.6074533,1612,1772794350,607167734,,4.0,-2.0,3.0,2.0,5.0,-8.0
1772794350.6083493,1613,1772794350,608168994,,0.0,-4.0,2.0,7.0,-16.0,-4.0
1772794350.609352,1614,1772794350,609170135,,-1.0,-4.0,8.0,-12.0,-12.0,-13.0
1772794350.610324,1615,1772794350,610166539,,-1.0,-4.0,8.0,-12.0,-12.0,-13.0
1772794350.6113622,1616,1772794350,611172102,,4.0,-4.0,7.0,-6.0,-4.0,-10.0
1772794350.6123488,1617,1772794350,612167648,,4.0,-4.0,7.0,-6.0,-4.0,-10.0
1772794350.6134574,1618,1772794350,613173080,,1.0,-2.0,5.0,1.0,-16.0,-2.0
1772794350.6143582,1619,1772794350,614172078,,1.0,-2.0,5.0,1.0,-16.0,-2.0
1772794350.6153932,1620,1772794350,615164146,,2.0,-2.0,5.0,12.0,-12.0,2.0
1772794350.616397,1621,1772794350,616165563,,2.0,-2.0,5.0,12.0,-12.0,2.0
1772794350.6173003,1622,1772794350,617169770,,2.0,-2.0,3.0,3.0,7.0,-5.0
1772794350.6183329,1623,1772794350,618163261,,2.0,-2.0,3.0,3.0,7.0,-5.0
1772794350.6193714,1624,1772794350,619165585,,2.0,-2.0,3.0,3.0,7.0,-5.0
1772794350.6203449,1625,1772794350,620172170,,2.0,-2.0,9.0,13.0,-4.0,-3.0
1772794350.62129,1626,1772794350,621171325,,2.0,-2.0,15.0,16.0,-3.0,-4.0
1772794350.622408,1627,1772794350,622165286,,2.0,-2.0,15.0,16.0,-3.0,-4.0
1772794350.6233103,1628,1772794350,623174020,,1.0,-2.0,16.0,41.0,-19.0,-2.0
1772794350.6243207,1629,1772794350,624172692,,3.0,-1.0,15.0,50.0,-13.0,-4.0
1772794350.6252923,1630,1772794350,625166031,,3.0,-1.0,15.0,50.0,-13.0,-4.0
1772794350.6262987,1631,1772794350,626166133,,3.0,-1.0,15.0,50.0,-13.0,-4.0
1772794350.6273515,1632,1772794350,627170562,,3.0,-1.0,15.0,50.0,-13.0,-4.0
1772794350.6283143,1633,1772794350,628172689,,3.0,-2.0,15.0,23.0,5.0,-9.0
1772794350.6293082,1634,1772794350,629168064,,2.0,-2.0,16.0,21.0,-2.0,-3.0
1772794350.630388,1635,1772794350,630173086,,2.0,-2.0,16.0,21.0,-2.0,-3.0
1772794350.631365,1636,1772794350,631175675,,2.0,0.0,7.0,27.0,0.0,-2.0
1772794350.632379,1637,1772794350,632169685,,1.0,0.0,12.0,23.0,-9.0,-1.0
1772794350.633343,1638,1772794350,633143383,,1.0,0.0,12.0,23.0,-9.0,-1.0
1772794350.634396,1639,1772794350,634163968,,1.0,0.0,12.0,23.0,-9.0,-1.0
1772794350.6353686,1640,1772794350,635167487,,1.0,0.0,12.0,23.0,-9.0,-1.0
1772794350.6363997,1641,1772794350,636171155,,4.0,-1.0,20.0,50.0,-14.0,-1.0
1772794350.6374476,1642,1772794350,637169405,,4.0,-1.0,20.0,50.0,-14.0,-1.0
1772794350.6385572,1643,1772794350,638166923,,1.0,-1.0,21.0,48.0,-25.0,-8.0
1772794350.639483,1644,1772794350,639153059,,-2.0,-2.0,8.0,27.0,-22.0,-12.0
1772794350.6404462,1645,1772794350,640164190,,-2.0,-2.0,8.0,27.0,-22.0,-12.0
1772794350.641571,1646,1772794350,641155138,,1.0,-3.0,13.0,19.0,-9.0,-9.0
1772794350.6424203,1647,1772794350,642156297,,1.0,-3.0,13.0,19.0,-9.0,-9.0
1772794350.643408,1648,1772794350,643171009,,1.0,-3.0,13.0,19.0,-9.0,-9.0
1772794350.6446176,1649,1772794350,644175481,,-1.0,-1.0,10.0,11.0,-13.0,-5.0
1772794350.6454358,1650,1772794350,645169605,,-1.0,0.0,6.0,14.0,-24.0,-4.0
1772794350.6465151,1651,1772794350,646173956,,1.0,-2.0,5.0,12.0,1.0,-8.0
1772794350.6476064,1652,1772794350,647152261,,1.0,-2.0,5.0,12.0,1.0,-8.0
1772794350.6484451,1653,1772794350,648154058,,1.0,-2.0,5.0,12.0,1.0,-8.0
1772794350.649338,1654,1772794350,649154395,,1.0,-2.0,5.0,12.0,1.0,-8.0
1772794350.6505618,1655,1772794350,650171993,,3.0,-1.0,10.0,8.0,1.0,-4.0
1772794350.6514192,1656,1772794350,651168942,,4.0,-3.0,7.0,5.0,16.0,-8.0
1772794350.652384,1657,1772794350,652167152,,4.0,-3.0,7.0,5.0,16.0,-8.0
1772794350.6535206,1658,1772794350,653176555,,3.0,0.0,4.0,5.0,-4.0,-9.0
1772794350.654465,1659,1772794350,654170287,,0.0,1.0,5.0,-20.0,9.0,-10.0
1772794350.6554005,1660,1772794350,655159761,,0.0,1.0,5.0,-20.0,9.0,-10.0
1772794350.6564384,1661,1772794350,656179901,,0.0,1.0,5.0,-20.0,9.0,-10.0
1772794350.6573987,1662,1772794350,657150875,,0.0,1.0,5.0,-20.0,9.0,-10.0
1772794350.6584184,1663,1772794350,658171351,,-1.0,0.0,2.0,-25.0,0.0,-9.0
1772794350.6593668,1664,1772794350,659162251,,1.0,-1.0,3.0,-12.0,3.0,-9.0
1772794350.6603942,1665,1772794350,660167340,,1.0,-1.0,3.0,-12.0,3.0,-9.0
1772794350.6614032,1666,1772794350,661167555,,3.0,-3.0,6.0,-6.0,8.0,-6.0
1772794350.6624348,1667,1772794350,662167618,,3.0,-3.0,6.0,-6.0,8.0,-6.0
1772794350.663407,1668,1772794350,663168635,,3.0,-3.0,6.0,-6.0,8.0,-6.0
1772794350.6643612,1669,1772794350,664168554,,0.0,-2.0,5.0,-1.0,-5.0,-2.0
1772794350.6654017,1670,1772794350,665168308,,-1.0,-1.0,2.0,-1.0,-22.0,-1.0
1772794350.6663532,1671,1772794350,666146490,,-1.0,-1.0,2.0,-1.0,-22.0,-1.0
1772794350.667433,1672,1772794350,667173759,,0.0,-3.0,2.0,-6.0,-22.0,0.0
1772794350.668432,1673,1772794350,668164863,,-2.0,-1.0,1.0,7.0,-37.0,0.0
1772794350.6694794,1674,1772794350,669164507,,-2.0,-1.0,1.0,7.0,-37.0,0.0
1772794350.6704268,1675,1772794350,670168859,,-2.0,-1.0,1.0,7.0,-37.0,0.0
1772794350.6714134,1676,1772794350,671167211,,-2.0,-1.0,1.0,7.0,-37.0,0.0
1772794350.6725864,1677,1772794350,672166846,,-2.0,0.0,9.0,10.0,-36.0,-5.0
1772794350.673422,1678,1772794350,673153391,,-1.0,0.0,4.0,-6.0,-12.0,0.0
1772794350.6744373,1679,1772794350,674150102,,-1.0,0.0,4.0,-6.0,-12.0,0.0
1772794350.6755648,1680,1772794350,675166422,,0.0,-3.0,2.0,-22.0,-12.0,-7.0
1772794350.6764636,1681,1772794350,676166141,,0.0,-3.0,2.0,-22.0,-12.0,-7.0
1772794350.6774476,1682,1772794350,677154147,,0.0,-3.0,7.0,-7.0,-15.0,-8.0
1772794350.6785598,1683,1772794350,678163607,,0.0,-3.0,7.0,-7.0,-15.0,-8.0
1772794350.6794431,1684,1772794350,679165686,,0.0,-3.0,7.0,-7.0,-15.0,-8.0
1772794350.6804547,1685,1772794350,680154432,,1.0,-2.0,7.0,-6.0,-12.0,-8.0
1772794350.68154,1686,1772794350,681151220,,1.0,-2.0,7.0,-6.0,-12.0,-8.0
1772794350.6826265,1687,1772794350,682165233,,1.0,-2.0,-1.0,-19.0,-9.0,-7.0
1772794350.683592,1688,1772794350,683172354,,2.0,-2.0,5.0,2.0,-6.0,-10.0
1772794350.6847017,1689,1772794350,684154500,,2.0,-2.0,5.0,2.0,-6.0,-10.0
1772794350.68551,1690,1772794350,685164206,,4.0,-1.0,12.0,10.0,-11.0,-5.0
1772794350.6865418,1691,1772794350,686174424,,4.0,0.0,11.0,11.0,-3.0,-2.0
1772794350.6875167,1692,1772794350,687154952,,4.0,0.0,11.0,11.0,-3.0,-2.0
1772794350.6885028,1693,1772794350,688168816,,4.0,0.0,11.0,11.0,-3.0,-2.0
1772794350.6895032,1694,1772794350,689169807,,4.0,0.0,11.0,11.0,-3.0,-2.0
1772794350.6905377,1695,1772794350,690180565,,4.0,-2.0,10.0,-28.0,9.0,-3.0
1772794350.691478,1696,1772794350,691146991,,4.0,-2.0,10.0,-28.0,9.0,-3.0
1772794350.6924984,1697,1772794350,692181246,,6.0,-1.0,9.0,5.0,6.0,-1.0
1772794350.6935155,1698,1772794350,693171610,,6.0,-1.0,9.0,5.0,6.0,-1.0
1772794350.6944401,1699,1772794350,694154892,,1.0,-3.0,6.0,2.0,10.0,-4.0
1772794350.695479,1700,1772794350,695177292,,1.0,-3.0,12.0,17.0,-5.0,-1.0
1772794350.6966212,1701,1772794350,696174803,,1.0,-3.0,12.0,17.0,-5.0,-1.0
1772794350.6974497,1702,1772794350,697182054,,2.0,-2.0,7.0,21.0,-19.0,-1.0
1772794350.698461,1703,1772794350,698176235,,2.0,-2.0,7.0,21.0,-19.0,-1.0
1772794350.6994464,1704,1772794350,699176610,,1.0,-1.0,11.0,18.0,-25.0,-4.0
1772794350.7005873,1705,1772794350,700168620,,2.0,0.0,8.0,20.0,-13.0,-9.0
1772794350.701586,1706,1772794350,701173428,,2.0,0.0,8.0,20.0,-13.0,-9.0
1772794350.7023983,1707,1772794350,702173066,,2.0,0.0,8.0,20.0,-13.0,-9.0
1772794350.7035234,1708,1772794350,703171789,,2.0,0.0,1.0,7.0,-7.0,-7.0
1772794350.7043803,1709,1772794350,704147770,,2.0,0.0,1.0,7.0,-7.0,-7.0
1772794350.7053857,1710,1772794350,705175448,,0.0,-1.0,8.0,40.0,-16.0,-5.0
1772794350.706408,1711,1772794350,706168892,,0.0,-1.0,8.0,40.0,-16.0,-5.0
1772794350.7074316,1712,1772794350,707170131,,0.0,-1.0,8.0,40.0,-16.0,-5.0
1772794350.7084286,1713,1772794350,708158767,,1.0,-3.0,8.0,9.0,-9.0,-7.0
1772794350.7093396,1714,1772794350,709175816,,1.0,-3.0,14.0,11.0,-10.0,-10.0
1772794350.710337,1715,1772794350,710167963,,1.0,-3.0,14.0,11.0,-10.0,-10.0
1772794350.7113445,1716,1772794350,711171510,,0.0,-2.0,6.0,24.0,-23.0,-6.0
1772794350.7122815,1717,1772794350,712167885,,0.0,-2.0,6.0,24.0,-23.0,-6.0
1772794350.713324,1718,1772794350,713170143,,1.0,-1.0,11.0,24.0,-15.0,-3.0
1772794350.7143552,1719,1772794350,714169717,,1.0,-1.0,11.0,24.0,-15.0,-3.0
1772794350.7154467,1720,1772794350,715172695,,2.0,-3.0,13.0,38.0,-15.0,-3.0
1772794350.7163663,1721,1772794350,716168787,,2.0,-3.0,13.0,38.0,-15.0,-3.0
1772794350.7173064,1722,1772794350,717151157,,2.0,-3.0,12.0,27.0,3.0,-6.0
1772794350.71835,1723,1772794350,718168567,,2.0,-3.0,12.0,27.0,3.0,-6.0
1772794350.7193282,1724,1772794350,719175789,,2.0,-1.0,10.0,29.0,2.0,1.0
1772794350.720317,1725,1772794350,720148015,,2.0,-1.0,10.0,29.0,2.0,1.0
1772794350.7213867,1726,1772794350,721171449,,2.0,-1.0,10.0,29.0,2.0,1.0
1772794350.7223396,1727,1772794350,722173723,,2.0,-2.0,20.0,29.0,-13.0,-3.0
1772794350.7233999,1728,1772794350,723172131,,3.0,-2.0,9.0,16.0,4.0,-2.0
1772794350.7243772,1729,1772794350,724153589,,3.0,-2.0,9.0,16.0,4.0,-2.0
1772794350.725351,1730,1772794350,725155236,,3.0,-2.0,9.0,16.0,4.0,-2.0
1772794350.7263627,1731,1772794350,726172826,,4.0,-3.0,9.0,28.0,10.0,0.0
1772794350.727422,1732,1772794350,727159561,,4.0,-3.0,13.0,35.0,3.0,-4.0
1772794350.728426,1733,1772794350,728169342,,4.0,-3.0,13.0,35.0,3.0,-4.0
1772794350.7293677,1734,1772794350,729175171,,2.0,-3.0,8.0,4.0,10.0,-9.0
1772794350.730425,1735,1772794350,730171745,,2.0,-3.0,8.0,4.0,10.0,-9.0
1772794350.7314105,1736,1772794350,731175470,,1.0,-3.0,5.0,10.0,1.0,-10.0
1772794350.732444,1737,1772794350,732169325,,1.0,-3.0,5.0,10.0,1.0,-10.0
1772794350.7333167,1738,1772794350,733156212,,0.0,-3.0,6.0,26.0,-14.0,-6.0
1772794350.7343342,1739,1772794350,734169325,,0.0,-3.0,6.0,26.0,-14.0,-6.0
1772794350.735409,1740,1772794350,735170076,,0.0,-3.0,6.0,26.0,-14.0,-6.0
1772794350.7363393,1741,1772794350,736174386,,0.0,-3.0,2.0,4.0,6.0,-7.0
1772794350.737388,1742,1772794350,737174684,,0.0,-3.0,2.0,4.0,6.0,-7.0
1772794350.738531,1743,1772794350,738174111,,3.0,-3.0,4.0,14.0,10.0,-1.0
1772794350.7393346,1744,1772794350,739152757,,3.0,-3.0,4.0,14.0,10.0,-1.0
1772794350.7403913,1745,1772794350,740176789,,3.0,-2.0,-5.0,2.0,-3.0,-2.0
1772794350.7413366,1746,1772794350,741157008,,1.0,-2.0,1.0,-12.0,-20.0,-6.0
1772794350.7424195,1747,1772794350,742165592,,1.0,-2.0,1.0,-12.0,-20.0,-6.0
1772794350.7433813,1748,1772794350,743176317,,4.0,-1.0,8.0,10.0,-11.0,-2.0
1772794350.7443578,1749,1772794350,744152741,,4.0,-1.0,8.0,10.0,-11.0,-2.0
1772794350.7453778,1750,1772794350,745175615,,4.0,-3.0,14.0,10.0,-9.0,-3.0
1772794350.7463162,1751,1772794350,746151221,,4.0,-3.0,14.0,10.0,-9.0,-3.0
1772794350.747393,1752,1772794350,747175483,,3.0,1.0,5.0,5.0,-15.0,-3.0
1772794350.7483153,1753,1772794350,748152196,,2.0,-1.0,6.0,-5.0,-8.0,1.0
1772794350.749396,1754,1772794350,749167729,,2.0,-1.0,6.0,-5.0,-8.0,1.0
1772794350.7503424,1755,1772794350,750169852,,2.0,-1.0,6.0,-5.0,-8.0,1.0
1772794350.7513952,1756,1772794350,751150846,,2.0,-1.0,6.0,-5.0,-8.0,1.0
1772794350.7523482,1757,1772794350,752176170,,1.0,-3.0,1.0,-8.0,-4.0,-7.0
1772794350.753319,1758,1772794350,753168447,,1.0,-3.0,1.0,-8.0,-4.0,-7.0
1772794350.7544148,1759,1772794350,754171459,,0.0,-2.0,10.0,-1.0,-9.0,-3.0
1772794350.7553911,1760,1772794350,755170688,,0.0,-2.0,10.0,-1.0,-9.0,-3.0
1772794350.7563725,1761,1772794350,756175677,,3.0,-1.0,4.0,-9.0,10.0,-3.0
1772794350.7574892,1762,1772794350,757179374,,1.0,-2.0,6.0,-8.0,0.0,-7.0
1772794350.7583299,1763,1772794350,758147751,,1.0,-2.0,6.0,-8.0,0.0,-7.0
1772794350.7593582,1764,1772794350,759169350,,3.0,-4.0,1.0,-16.0,28.0,-7.0
1772794350.7603126,1765,1772794350,760168988,,3.0,-4.0,1.0,-16.0,28.0,-7.0
1772794350.7613535,1766,1772794350,761171544,,1.0,-4.0,1.0,-3.0,0.0,-11.0
1772794350.76236,1767,1772794350,762169888,,1.0,-4.0,1.0,-3.0,0.0,-11.0
1772794350.7633786,1768,1772794350,763166147,,-1.0,-3.0,6.0,17.0,-7.0,-4.0
1772794350.764366,1769,1772794350,764169197,,-1.0,-3.0,6.0,17.0,-7.0,-4.0
1772794350.7653341,1770,1772794350,765155084,,0.0,-1.0,4.0,25.0,-8.0,-8.0
1772794350.7663674,1771,1772794350,766172290,,0.0,-1.0,4.0,25.0,-8.0,-8.0
1772794350.7673416,1772,1772794350,767174331,,1.0,-2.0,3.0,-5.0,-2.0,-13.0
1772794350.7683635,1773,1772794350,768170017,,1.0,-2.0,3.0,-5.0,-2.0,-13.0
1772794350.7693236,1774,1772794350,769169995,,1.0,-2.0,3.0,-5.0,-2.0,-13.0
1772794350.7704844,1775,1772794350,770168253,,1.0,-3.0,10.0,33.0,-10.0,-4.0
1772794350.771429,1776,1772794350,771173840,,3.0,-3.0,3.0,9.0,-6.0,-9.0
1772794350.7723246,1777,1772794350,772172083,,3.0,-3.0,3.0,9.0,-6.0,-9.0
1772794350.7735112,1778,1772794350,773171882,,3.0,0.0,7.0,23.0,-11.0,-6.0
1772794350.7743173,1779,1772794350,774169400,,3.0,0.0,7.0,23.0,-11.0,-6.0
1772794350.7753398,1780,1772794350,775171248,,3.0,-1.0,14.0,32.0,-19.0,0.0
1772794350.7764378,1781,1772794350,776150633,,3.0,-1.0,14.0,32.0,-19.0,0.0
1772794350.7773468,1782,1772794350,777168166,,1.0,1.0,10.0,36.0,-22.0,-5.0
1772794350.7783153,1783,1772794350,778153711,,1.0,1.0,10.0,36.0,-22.0,-5.0
1772794350.7794082,1784,1772794350,779169652,,2.0,-2.0,4.0,-4.0,-3.0,-6.0
1772794350.7803328,1785,1772794350,780146026,,2.0,-2.0,4.0,-4.0,-3.0,-6.0
1772794350.7813177,1786,1772794350,781145197,,2.0,-2.0,4.0,-4.0,-3.0,-6.0
1772794350.7823353,1787,1772794350,782149790,,3.0,-1.0,3.0,9.0,-1.0,-7.0
1772794350.7833707,1788,1772794350,783191146,,3.0,-1.0,3.0,9.0,-1.0,-7.0
1772794350.7843268,1789,1772794350,784186532,,3.0,-1.0,8.0,16.0,8.0,-5.0
1772794350.7853098,1790,1772794350,785176375,,3.0,-1.0,8.0,16.0,8.0,-5.0
1772794350.7863455,1791,1772794350,786181085,,3.0,-2.0,4.0,27.0,5.0,0.0
1772794350.7873473,1792,1772794350,787178041,,1.0,-1.0,6.0,22.0,-7.0,-5.0
1772794350.7883296,1793,1772794350,788170814,,1.0,-1.0,6.0,22.0,-7.0,-5.0
1772794350.7893817,1794,1772794350,789177946,,2.0,-1.0,2.0,6.0,9.0,-6.0
1772794350.7903924,1795,1772794350,790173384,,2.0,-1.0,2.0,6.0,9.0,-6.0
1772794350.7914207,1796,1772794350,791156884,,0.0,-2.0,4.0,-1.0,-1.0,-5.0
1772794350.7923458,1797,1772794350,792156195,,0.0,-4.0,7.0,-8.0,16.0,-9.0
1772794350.7933736,1798,1772794350,793152649,,0.0,-4.0,7.0,-8.0,16.0,-9.0
1772794350.7945373,1799,1772794350,794169609,,0.0,-4.0,7.0,-8.0,16.0,-9.0
1772794350.795451,1800,1772794350,795175792,,0.0,-4.0,7.0,-8.0,16.0,-9.0
1772794350.7964404,1801,1772794350,796184480,,0.0,-3.0,10.0,9.0,2.0,-7.0
1772794350.79751,1802,1772794350,797160482,,1.0,-4.0,8.0,11.0,5.0,-6.0
1772794350.798368,1803,1772794350,798157109,,1.0,-4.0,8.0,11.0,5.0,-6.0
1772794350.79932,1804,1772794350,799153776,,1.0,-4.0,8.0,11.0,5.0,-6.0
1772794350.8003292,1805,1772794350,800163802,,1.0,0.0,14.0,15.0,-7.0,1.0
1772794350.8013752,1806,1772794350,801174285,,2.0,-4.0,19.0,15.0,-11.0,-2.0
1772794350.802374,1807,1772794350,802168964,,2.0,-4.0,19.0,15.0,-11.0,-2.0
1772794350.803513,1808,1772794350,803175693,,0.0,-2.0,7.0,-2.0,-19.0,-2.0
1772794350.8044028,1809,1772794350,804167652,,0.0,-2.0,7.0,-2.0,-19.0,-2.0
1772794350.805415,1810,1772794350,805172157,,2.0,0.0,5.0,-2.0,-17.0,0.0
1772794350.8065245,1811,1772794350,806168785,,2.0,0.0,5.0,-2.0,-17.0,0.0
1772794350.8073292,1812,1772794350,807153434,,2.0,0.0,5.0,-2.0,-17.0,0.0
1772794350.8084147,1813,1772794350,808159669,,2.0,0.0,6.0,11.0,-18.0,0.0
1772794350.8095355,1814,1772794350,809160391,,1.0,-2.0,4.0,20.0,-14.0,-3.0
1772794350.8104227,1815,1772794350,810158463,,1.0,-2.0,4.0,20.0,-14.0,-3.0
1772794350.811514,1816,1772794350,811161922,,2.0,-3.0,3.0,9.0,1.0,-5.0
1772794350.8123417,1817,1772794350,812155600,,2.0,-3.0,3.0,9.0,1.0,-5.0
1772794350.8134296,1818,1772794350,813159908,,-1.0,-3.0,3.0,9.0,-14.0,-7.0
1772794350.814943,1819,1772794350,814171567,,-1.0,-3.0,3.0,9.0,-14.0,-7.0
1772794350.816344,1820,1772794350,815164485,,1.0,0.0,6.0,7.0,-12.0,3.0
1772794350.8163958,1821,1772794350,816157996,,1.0,0.0,6.0,7.0,-12.0,3.0
1772794350.8173497,1822,1772794350,817161731,,0.0,-2.0,7.0,9.0,-5.0,-3.0
1772794350.818352,1823,1772794350,818170300,,0.0,-2.0,7.0,9.0,-5.0,-3.0
1772794350.8193936,1824,1772794350,819174353,,3.0,-2.0,4.0,-10.0,18.0,0.0
1772794350.8204172,1825,1772794350,820170838,,3.0,-2.0,4.0,-10.0,18.0,0.0
1772794350.8213854,1826,1772794350,821169803,,2.0,-1.0,3.0,3.0,17.0,-1.0
1772794350.8224404,1827,1772794350,822168659,,2.0,-1.0,3.0,3.0,17.0,-1.0
1772794350.8234057,1828,1772794350,823164574,,2.0,-1.0,3.0,3.0,17.0,-1.0
1772794350.8244145,1829,1772794350,824170706,,4.0,0.0,13.0,14.0,22.0,-4.0
1772794350.8254974,1830,1772794350,825169617,,4.0,0.0,13.0,14.0,22.0,-4.0
1772794350.8265233,1831,1772794350,826173032,,1.0,1.0,2.0,3.0,13.0,-7.0
1772794350.827442,1832,1772794350,827156445,,2.0,-3.0,3.0,14.0,19.0,-4.0
1772794350.8284097,1833,1772794350,828169946,,5.0,-3.0,8.0,-17.0,21.0,-5.0
1772794350.829427,1834,1772794350,829169157,,5.0,-3.0,8.0,-17.0,21.0,-5.0
1772794350.8303998,1835,1772794350,830168278,,5.0,-3.0,8.0,-17.0,21.0,-5.0
1772794350.8314376,1836,1772794350,831169817,,5.0,-3.0,8.0,-17.0,21.0,-5.0
1772794350.832493,1837,1772794350,832167200,,3.0,-1.0,17.0,3.0,-7.0,1.0
1772794350.833418,1838,1772794350,833148097,,2.0,-2.0,12.0,9.0,-13.0,-3.0
1772794350.8345058,1839,1772794350,834168445,,2.0,-2.0,12.0,9.0,-13.0,-3.0
1772794350.835465,1840,1772794350,835172542,,0.0,-3.0,11.0,-11.0,-18.0,-9.0
1772794350.8364818,1841,1772794350,836170617,,0.0,-3.0,11.0,-11.0,-18.0,-9.0
1772794350.8374305,1842,1772794350,837176726,,3.0,-2.0,3.0,-34.0,-1.0,-6.0
1772794350.838452,1843,1772794350,838153539,,3.0,-2.0,3.0,-34.0,-1.0,-6.0
1772794350.8395116,1844,1772794350,839167306,,4.0,-3.0,6.0,-17.0,-2.0,-7.0
1772794350.8404083,1845,1772794350,840170112,,4.0,-3.0,6.0,-17.0,-2.0,-7.0
1772794350.841431,1846,1772794350,841172892,,4.0,-3.0,6.0,-17.0,-2.0,-7.0
1772794350.8424048,1847,1772794350,842167099,,0.0,-2.0,6.0,-14.0,-27.0,-12.0
1772794350.8434248,1848,1772794350,843166014,,1.0,-1.0,6.0,-10.0,-12.0,-3.0
1772794350.8444905,1849,1772794350,844170874,,1.0,-1.0,6.0,-10.0,-12.0,-3.0
1772794350.8454888,1850,1772794350,845176966,,2.0,-3.0,8.0,-20.0,-9.0,-1.0
1772794350.8464308,1851,1772794350,846149225,,2.0,-3.0,8.0,-20.0,-9.0,-1.0
1772794350.8474512,1852,1772794350,847173306,,2.0,-2.0,3.0,-16.0,-15.0,-3.0
1772794350.8484232,1853,1772794350,848168567,,1.0,-1.0,2.0,-24.0,-8.0,-1.0
1772794350.8494346,1854,1772794350,849169101,,1.0,-1.0,2.0,-24.0,-8.0,-1.0
1772794350.8505175,1855,1772794350,850172788,,1.0,-1.0,2.0,-24.0,-8.0,-1.0
1772794350.8513358,1856,1772794350,851145959,,1.0,-1.0,2.0,-24.0,-8.0,-1.0
1772794350.8525121,1857,1772794350,852174940,,2.0,-1.0,0.0,-17.0,-2.0,-7.0
1772794350.8533852,1858,1772794350,853150483,,4.0,-1.0,3.0,-7.0,-3.0,-3.0
1772794350.8544893,1859,1772794350,854170141,,4.0,-1.0,3.0,-7.0,-3.0,-3.0
1772794350.8555388,1860,1772794350,855155567,,4.0,-2.0,10.0,-3.0,-3.0,-2.0
1772794350.8565555,1861,1772794350,856156694,,4.0,-2.0,10.0,-3.0,-3.0,-2.0
1772794350.857416,1862,1772794350,857173004,,2.0,-1.0,8.0,2.0,1.0,1.0
1772794350.8583949,1863,1772794350,858151225,,2.0,-1.0,8.0,2.0,1.0,1.0
1772794350.859527,1864,1772794350,859170005,,0.0,0.0,3.0,-4.0,-16.0,0.0
1772794350.8604302,1865,1772794350,860166207,,0.0,0.0,3.0,-4.0,-16.0,0.0
1772794350.8614101,1866,1772794350,861148647,,0.0,0.0,3.0,-4.0,-16.0,0.0
1772794350.8625054,1867,1772794350,862152519,,3.0,-2.0,10.0,13.0,-1.0,-7.0
1772794350.8635786,1868,1772794350,863189160,,3.0,-2.0,7.0,13.0,-11.0,1.0
1772794350.8645203,1869,1772794350,864159232,,3.0,-2.0,7.0,13.0,-11.0,1.0
1772794350.8656242,1870,1772794350,865153789,,3.0,-2.0,7.0,13.0,-11.0,1.0
1772794350.8664982,1871,1772794350,866159566,,2.0,0.0,5.0,-3.0,-10.0,-2.0
1772794350.8674386,1872,1772794350,867168086,,1.0,0.0,9.0,13.0,-23.0,-6.0
1772794350.8684902,1873,1772794350,868169778,,1.0,0.0,9.0,13.0,-23.0,-6.0
1772794350.8695364,1874,1772794350,869179386,,1.0,-1.0,9.0,29.0,-16.0,-4.0
1772794350.870462,1875,1772794350,870173013,,1.0,-1.0,9.0,29.0,-16.0,-4.0
1772794350.871664,1876,1772794350,871173476,,3.0,-2.0,16.0,43.0,-18.0,-6.0
1772794350.8724575,1877,1772794350,872168481,,3.0,-2.0,16.0,43.0,-18.0,-6.0
1772794350.8734915,1878,1772794350,873166790,,4.0,-1.0,13.0,26.0,-12.0,-10.0
1772794350.8745716,1879,1772794350,874166022,,4.0,-1.0,13.0,26.0,-12.0,-10.0
1772794350.8755243,1880,1772794350,875173577,,4.0,-1.0,13.0,26.0,-12.0,-10.0
1772794350.8765938,1881,1772794350,876174939,,3.0,-1.0,7.0,29.0,-12.0,-9.0
1772794350.87779,1882,1772794350,877168893,,3.0,-1.0,7.0,29.0,-12.0,-9.0
1772794350.878571,1883,1772794350,878172392,,2.0,-2.0,10.0,13.0,-6.0,-12.0
1772794350.8795724,1884,1772794350,879172458,,2.0,-2.0,10.0,13.0,-6.0,-12.0
1772794350.8808117,1885,1772794350,880158268,,0.0,-1.0,4.0,19.0,-13.0,-9.0
1772794350.881649,1886,1772794350,881160866,,2.0,-1.0,7.0,29.0,-11.0,1.0
1772794350.88256,1887,1772794350,882169108,,2.0,-1.0,7.0,29.0,-11.0,1.0
1772794350.8837347,1888,1772794350,883180690,,2.0,-2.0,19.0,38.0,-2.0,-1.0
1772794350.8844943,1889,1772794350,884159291,,2.0,-2.0,19.0,38.0,-2.0,-1.0
1772794350.8854642,1890,1772794350,885171527,,1.0,-1.0,9.0,12.0,0.0,-7.0
1772794350.8864567,1891,1772794350,886168164,,1.0,-1.0,9.0,12.0,0.0,-7.0
1772794350.8875315,1892,1772794350,887172859,,3.0,0.0,12.0,22.0,13.0,-6.0
1772794350.8885484,1893,1772794350,888171301,,3.0,0.0,12.0,22.0,13.0,-6.0
1772794350.8898342,1894,1772794350,889166209,,3.0,0.0,12.0,22.0,13.0,-6.0
1772794350.8904986,1895,1772794350,890156990,,2.0,-2.0,10.0,17.0,-1.0,-3.0
1772794350.891447,1896,1772794350,891171751,,2.0,-2.0,10.0,17.0,-1.0,-3.0
1772794350.8926039,1897,1772794350,892171907,,2.0,-3.0,7.0,12.0,4.0,-8.0
1772794350.8935065,1898,1772794350,893171328,,2.0,-3.0,7.0,12.0,4.0,-8.0
1772794350.8945189,1899,1772794350,894171428,,2.0,-1.0,12.0,25.0,-5.0,-7.0
1772794350.8954873,1900,1772794350,895171288,,2.0,-1.0,12.0,25.0,-5.0,-7.0
1772794350.8965626,1901,1772794350,896178561,,1.0,-2.0,10.0,3.0,3.0,-5.0
1772794350.8975232,1902,1772794350,897171027,,4.0,-2.0,11.0,3.0,4.0,-4.0
1772794350.8984468,1903,1772794350,898155670,,4.0,-2.0,11.0,3.0,4.0,-4.0
1772794350.8998523,1904,1772794350,899176894,,2.0,0.0,6.0,-5.0,8.0,-6.0
1772794350.9003863,1905,1772794350,900151950,,2.0,0.0,6.0,-5.0,8.0,-6.0
1772794350.9016201,1906,1772794350,901172028,,2.0,0.0,4.0,-8.0,7.0,-1.0
1772794350.9023724,1907,1772794350,902151573,,3.0,1.0,10.0,1.0,-18.0,-4.0
1772794350.9033766,1908,1772794350,903169331,,3.0,1.0,10.0,1.0,-18.0,-4.0
1772794350.9046564,1909,1772794350,904171847,,3.0,1.0,10.0,1.0,-18.0,-4.0
1772794350.9054132,1910,1772794350,905172291,,3.0,1.0,10.0,1.0,-18.0,-4.0
1772794350.906404,1911,1772794350,906168291,,3.0,1.0,8.0,-7.0,-7.0,-2.0
1772794350.9074311,1912,1772794350,907171938,,3.0,1.0,8.0,-7.0,-7.0,-2.0
1772794350.9084618,1913,1772794350,908170311,,2.0,0.0,3.0,0.0,-7.0,-7.0
1772794350.9094002,1914,1772794350,909152996,,2.0,0.0,3.0,0.0,-7.0,-7.0
1772794350.9104333,1915,1772794350,910173701,,4.0,-3.0,5.0,-11.0,12.0,-10.0
1772794350.9115372,1916,1772794350,911177496,,5.0,-5.0,2.0,10.0,15.0,-9.0
1772794350.9125385,1917,1772794350,912170092,,5.0,-5.0,2.0,10.0,15.0,-9.0
1772794350.91358,1918,1772794350,913174261,,3.0,-5.0,0.0,-12.0,22.0,-7.0
1772794350.9144385,1919,1772794350,914168729,,3.0,-5.0,0.0,-12.0,22.0,-7.0
1772794350.9154367,1920,1772794350,915174507,,4.0,-5.0,4.0,-12.0,23.0,-3.0
1772794350.9163804,1921,1772794350,916154800,,3.0,-2.0,1.0,5.0,6.0,-3.0
1772794350.9173641,1922,1772794350,917173615,,3.0,-2.0,1.0,5.0,6.0,-3.0
1772794350.9184003,1923,1772794350,918171930,,3.0,-2.0,1.0,5.0,6.0,-3.0
1772794350.9193835,1924,1772794350,919171356,,3.0,-2.0,1.0,5.0,6.0,-3.0
1772794350.9202902,1925,1772794350,920149416,,1.0,-2.0,3.0,-2.0,-8.0,-8.0
1772794350.9213626,1926,1772794350,921178862,,1.0,-2.0,-1.0,-10.0,-6.0,-5.0
1772794350.9223435,1927,1772794350,922171090,,1.0,-2.0,-1.0,-10.0,-6.0,-5.0
1772794350.9235134,1928,1772794350,923170929,,1.0,-2.0,-1.0,-10.0,-6.0,-5.0
1772794350.924374,1929,1772794350,924171885,,0.0,-3.0,2.0,-14.0,3.0,-10.0
1772794350.9253893,1930,1772794350,925162613,,-1.0,-3.0,2.0,-20.0,-3.0,-10.0
1772794350.9263396,1931,1772794350,926153557,,-1.0,-3.0,2.0,-20.0,-3.0,-10.0
1772794350.927308,1932,1772794350,927156462,,1.0,-2.0,-3.0,-24.0,1.0,-3.0
1772794350.9283247,1933,1772794350,928146769,,1.0,-2.0,-3.0,-24.0,1.0,-3.0
1772794350.9295104,1934,1772794350,929169400,,0.0,-2.0,2.0,-26.0,-15.0,-7.0
1772794350.930302,1935,1772794350,930147803,,0.0,-3.0,2.0,-30.0,-32.0,-12.0
1772794350.9312918,1936,1772794350,931165321,,0.0,-3.0,2.0,-30.0,-32.0,-12.0
1772794350.9324493,1937,1772794350,932168298,,0.0,-3.0,2.0,-30.0,-32.0,-12.0
1772794350.9332979,1938,1772794350,933164770,,0.0,-3.0,2.0,-30.0,-32.0,-12.0
1772794350.9342973,1939,1772794350,934183738,,0.0,-2.0,9.0,-11.0,-24.0,-4.0
1772794350.935297,1940,1772794350,935157699,,0.0,-2.0,9.0,-11.0,-24.0,-4.0
1772794350.9363136,1941,1772794350,936170727,,1.0,-2.0,15.0,12.0,-25.0,1.0
1772794350.9373322,1942,1772794350,937173895,,2.0,-1.0,12.0,0.0,-14.0,-4.0
1772794350.938275,1943,1772794350,938146983,,2.0,-1.0,12.0,0.0,-14.0,-4.0
1772794350.939341,1944,1772794350,939151201,,4.0,1.0,9.0,-1.0,-2.0,0.0
1772794350.9403465,1945,1772794350,940150298,,4.0,1.0,9.0,-1.0,-2.0,0.0
1772794350.9413435,1946,1772794350,941163564,,3.0,-1.0,3.0,-7.0,5.0,-4.0
1772794350.9423125,1947,1772794350,942151280,,3.0,-1.0,3.0,-7.0,5.0,-4.0
1772794350.943351,1948,1772794350,943171771,,3.0,-1.0,3.0,-7.0,5.0,-4.0
1772794350.9443345,1949,1772794350,944169524,,2.0,-1.0,5.0,11.0,-10.0,-6.0
1772794350.9452984,1950,1772794350,945177565,,2.0,-2.0,9.0,9.0,-13.0,-6.0
1772794350.9463325,1951,1772794350,946170385,,2.0,-2.0,9.0,9.0,-13.0,-6.0
1772794350.9473603,1952,1772794350,947171700,,3.0,-2.0,10.0,12.0,-3.0,-6.0
1772794350.9498308,1953,1772794350,948151722,,2.0,-1.0,12.0,35.0,-9.0,-8.0
1772794350.9498408,1954,1772794350,949145745,,2.0,-1.0,12.0,35.0,-9.0,-8.0
1772794350.9503324,1955,1772794350,950142398,,2.0,-1.0,12.0,35.0,-9.0,-8.0
1772794350.9513264,1956,1772794350,951168392,,2.0,-1.0,12.0,35.0,-9.0,-8.0
1772794350.9522686,1957,1772794350,952147225,,3.0,-3.0,14.0,18.0,4.0,-19.0
1772794350.9533308,1958,1772794350,953177407,,0.0,-2.0,22.0,31.0,-31.0,-13.0
1772794350.9543164,1959,1772794350,954166946,,0.0,-2.0,22.0,31.0,-31.0,-13.0
1772794350.9553168,1960,1772794350,955170453,,2.0,-2.0,17.0,28.0,-15.0,-8.0
1772794350.9563286,1961,1772794350,956151166,,2.0,-2.0,17.0,28.0,-15.0,-8.0
1772794350.957375,1962,1772794350,957171438,,2.0,-2.0,17.0,28.0,-15.0,-8.0
1772794350.9583883,1963,1772794350,958173300,,2.0,-2.0,14.0,33.0,-7.0,-8.0
1772794350.9593663,1964,1772794350,959173986,,2.0,-2.0,14.0,33.0,-7.0,-8.0
1772794350.960396,1965,1772794350,960176327,,4.0,0.0,19.0,14.0,-4.0,-5.0
1772794350.9613516,1966,1772794350,961173574,,4.0,-2.0,11.0,4.0,22.0,-9.0
1772794350.9623785,1967,1772794350,962169968,,4.0,-2.0,11.0,4.0,22.0,-9.0
1772794350.9633749,1968,1772794350,963174732,,3.0,-1.0,15.0,25.0,0.0,-4.0
1772794350.9644136,1969,1772794350,964169881,,3.0,-1.0,15.0,25.0,0.0,-4.0
1772794350.9654922,1970,1772794350,965155394,,3.0,-1.0,15.0,25.0,0.0,-4.0
1772794350.9663575,1971,1772794350,966158181,,1.0,0.0,18.0,39.0,-26.0,-2.0
1772794350.9675248,1972,1772794350,967172880,,1.0,0.0,12.0,36.0,-17.0,0.0
1772794350.9683237,1973,1772794350,968170639,,1.0,0.0,12.0,36.0,-17.0,0.0
1772794350.969317,1974,1772794350,969176957,,1.0,-1.0,23.0,56.0,-10.0,-5.0
1772794350.9702961,1975,1772794350,970151371,,1.0,-1.0,16.0,28.0,-3.0,0.0
1772794350.9713042,1976,1772794350,971169793,,1.0,-1.0,16.0,28.0,-3.0,0.0
1772794350.972303,1977,1772794350,972170187,,1.0,-1.0,16.0,28.0,-3.0,0.0
1772794350.973327,1978,1772794350,973170608,,1.0,-1.0,16.0,28.0,-3.0,0.0
1772794350.9743207,1979,1772794350,974155209,,4.0,-1.0,11.0,22.0,2.0,2.0
1772794350.975651,1980,1772794350,975170027,,4.0,-1.0,4.0,-15.0,21.0,3.0
1772794350.9764469,1981,1772794350,976164326,,4.0,-1.0,4.0,-15.0,21.0,3.0
1772794350.9773953,1982,1772794350,977156727,,4.0,-1.0,4.0,-15.0,21.0,3.0
1772794350.9784143,1983,1772794350,978171884,,2.0,-1.0,5.0,-3.0,9.0,9.0
1772794350.9792771,1984,1772794350,979149465,,6.0,-1.0,15.0,17.0,15.0,7.0
1772794350.980283,1985,1772794350,980154830,,6.0,-1.0,15.0,17.0,15.0,7.0
1772794350.9812543,1986,1772794350,981152638,,4.0,1.0,4.0,9.0,14.0,-4.0
1772794350.9823089,1987,1772794350,982135853,,4.0,1.0,4.0,9.0,14.0,-4.0
1772794350.9832613,1988,1772794350,983135672,,4.0,-1.0,11.0,2.0,1.0,-5.0
1772794350.9843197,1989,1772794350,984162769,,4.0,-1.0,11.0,2.0,1.0,-5.0
1772794350.9853206,1990,1772794350,985151729,,4.0,-1.0,11.0,2.0,1.0,-5.0
1772794350.9863024,1991,1772794350,986159155,,4.0,-2.0,6.0,11.0,4.0,-9.0
1772794350.9872904,1992,1772794350,987149084,,4.0,-2.0,6.0,11.0,4.0,-9.0
1772794350.9883242,1993,1772794350,988153480,,3.0,-2.0,9.0,10.0,4.0,-8.0
1772794350.989311,1994,1772794350,989147501,,3.0,-2.0,9.0,10.0,4.0,-8.0
1772794350.9903836,1995,1772794350,990152184,,1.0,-2.0,15.0,16.0,-9.0,-6.0
1772794350.9913042,1996,1772794350,991149144,,1.0,-2.0,15.0,16.0,-9.0,-6.0
1772794350.9922812,1997,1772794350,992150207,,1.0,-1.0,2.0,-14.0,-14.0,-10.0
1772794350.9933844,1998,1772794350,993149266,,2.0,-1.0,5.0,-20.0,3.0,-3.0
1772794350.9943407,1999,1772794350,994138011,,2.0,-1.0,5.0,-20.0,3.0,-3.0
1772794350.9953098,2000,1772794350,995136639,,1.0,-2.0,7.0,-6.0,-27.0,-6.0
1772794350.9964097,2001,1772794350,996134843,,1.0,-2.0,7.0,-6.0,-27.0,-6.0
1772794350.997315,2002,1772794350,997135048,,1.0,-3.0,6.0,-21.0,-26.0,-11.0
1772794350.9982977,2003,1772794350,998135390,,2.0,-1.0,9.0,-14.0,-33.0,-9.0
1772794350.9993582,2004,1772794350,999152741,,2.0,-1.0,9.0,-14.0,-33.0,-9.0
1772794351.000356,2005,1772794351,149666,,2.0,-1.0,9.0,-14.0,-33.0,-9.0
1772794351.0013337,2006,1772794351,1148006,,2.0,-1.0,9.0,-14.0,-33.0,-9.0
1772794351.0022943,2007,1772794351,2155065,,3.0,-3.0,2.0,-45.0,-9.0,-8.0
1772794351.0033891,2008,1772794351,3154569,,1.0,-3.0,6.0,-18.0,-20.0,-7.0
1772794351.004437,2009,1772794351,4151124,,1.0,-3.0,6.0,-18.0,-20.0,-7.0
1772794351.0054903,2010,1772794351,5159323,,3.0,-1.0,7.0,-21.0,-18.0,-6.0
1772794351.0063338,2011,1772794351,6152359,,3.0,-1.0,7.0,-21.0,-18.0,-6.0
1772794351.0074236,2012,1772794351,7152204,,3.0,-1.0,7.0,-21.0,-18.0,-6.0
1772794351.0083296,2013,1772794351,8155125,,3.0,-2.0,3.0,-22.0,-11.0,-5.0
1772794351.0093224,2014,1772794351,9154493,,4.0,-2.0,6.0,-2.0,-2.0,-4.0
1772794351.0104444,2015,1772794351,10150264,,4.0,-2.0,6.0,-2.0,-2.0,-4.0
1772794351.0113578,2016,1772794351,11148335,,4.0,-2.0,6.0,-2.0,-2.0,-4.0
1772794351.0123084,2017,1772794351,12152058,,3.0,-1.0,6.0,-12.0,1.0,-2.0
1772794351.0133495,2018,1772794351,13143173,,1.0,-5.0,7.0,-28.0,6.0,-9.0
1772794351.0144246,2019,1772794351,14220243,,1.0,-5.0,7.0,-28.0,6.0,-9.0
1772794351.0153253,2020,1772794351,15169753,,0.0,-4.0,1.0,-16.0,1.0,0.0
1772794351.016391,2021,1772794351,16167419,,0.0,-4.0,1.0,-16.0,1.0,0.0
1772794351.0173767,2022,1772794351,17138804,,0.0,-4.0,1.0,-16.0,1.0,0.0
1772794351.0184093,2023,1772794351,18159039,,2.0,-2.0,2.0,-3.0,12.0,-6.0
1772794351.019348,2024,1772794351,19151103,,2.0,-2.0,2.0,-3.0,12.0,-6.0
1772794351.0203671,2025,1772794351,20152589,,3.0,-2.0,5.0,30.0,7.0,0.0
1772794351.0213041,2026,1772794351,21147891,,3.0,-2.0,5.0,30.0,7.0,0.0
1772794351.022298,2027,1772794351,22151912,,3.0,-3.0,4.0,20.0,1.0,-6.0
1772794351.0233173,2028,1772794351,23146814,,3.0,-3.0,4.0,20.0,1.0,-6.0
1772794351.0243034,2029,1772794351,24148560,,2.0,-3.0,10.0,24.0,-7.0,-8.0
1772794351.0252638,2030,1772794351,25150984,,2.0,-3.0,10.0,24.0,-7.0,-8.0
1772794351.0263245,2031,1772794351,26149327,,1.0,-3.0,10.0,53.0,-15.0,-4.0
1772794351.0273528,2032,1772794351,27150766,,1.0,-4.0,9.0,47.0,-19.0,-9.0
1772794351.0282726,2033,1772794351,28149330,,1.0,-4.0,9.0,47.0,-19.0,-9.0
1772794351.0292509,2034,1772794351,29131481,,1.0,-1.0,10.0,53.0,-22.0,-7.0
1772794351.03033,2035,1772794351,30146815,,1.0,-1.0,10.0,53.0,-22.0,-7.0
1772794351.0312412,2036,1772794351,31151582,,4.0,-2.0,7.0,38.0,-2.0,-4.0
1772794351.032268,2037,1772794351,32152034,,4.0,-2.0,7.0,38.0,-2.0,-4.0
1772794351.0333977,2038,1772794351,33146208,,4.0,-2.0,7.0,38.0,-2.0,-4.0
1772794351.0342076,2039,1772794351,34150124,,3.0,-3.0,23.0,48.0,-11.0,-13.0
1772794351.0352762,2040,1772794351,35151359,,-1.0,-3.0,17.0,37.0,-27.0,-13.0
1772794351.0363781,2041,1772794351,36147621,,-1.0,-3.0,17.0,37.0,-27.0,-13.0
1772794351.0372996,2042,1772794351,37152059,,-1.0,-3.0,17.0,37.0,-27.0,-13.0
1772794351.0382938,2043,1772794351,38149366,,0.0,-2.0,19.0,49.0,-14.0,-6.0
1772794351.039399,2044,1772794351,39225449,,0.0,-1.0,15.0,27.0,-11.0,-5.0
1772794351.040301,2045,1772794351,40160202,,0.0,-1.0,15.0,27.0,-11.0,-5.0
1772794351.0412927,2046,1772794351,41133273,,0.0,-1.0,15.0,27.0,-11.0,-5.0
1772794351.0422895,2047,1772794351,42126066,,1.0,-1.0,15.0,37.0,-8.0,-8.0
1772794351.043301,2048,1772794351,43152584,,3.0,-1.0,3.0,14.0,15.0,-3.0
1772794351.0443575,2049,1772794351,44152397,,3.0,-1.0,3.0,14.0,15.0,-3.0
1772794351.0453484,2050,1772794351,45150492,,2.0,-1.0,11.0,35.0,18.0,0.0
1772794351.0462654,2051,1772794351,46149483,,2.0,-1.0,11.0,35.0,18.0,0.0
1772794351.047352,2052,1772794351,47149508,,1.0,-3.0,14.0,6.0,16.0,-8.0
1772794351.048294,2053,1772794351,48147886,,1.0,-3.0,14.0,6.0,16.0,-8.0
1772794351.049296,2054,1772794351,49152166,,1.0,-4.0,11.0,19.0,6.0,-5.0
1772794351.0503647,2055,1772794351,50148933,,3.0,-3.0,7.0,0.0,12.0,-5.0
1772794351.0513945,2056,1772794351,51147849,,3.0,-3.0,7.0,0.0,12.0,-5.0
1772794351.052348,2057,1772794351,52150486,,3.0,-3.0,7.0,0.0,12.0,-5.0
1772794351.0533783,2058,1772794351,53150416,,3.0,-3.0,7.0,0.0,12.0,-5.0
1772794351.0544474,2059,1772794351,54151644,,3.0,-2.0,8.0,9.0,5.0,-7.0
1772794351.055301,2060,1772794351,55150780,,4.0,-2.0,10.0,12.0,-1.0,-5.0
1772794351.056438,2061,1772794351,56148849,,4.0,-2.0,10.0,12.0,-1.0,-5.0
1772794351.0574937,2062,1772794351,57149200,,4.0,-2.0,10.0,12.0,-1.0,-5.0
1772794351.0583506,2063,1772794351,58150433,,2.0,-2.0,8.0,-8.0,-9.0,-5.0
1772794351.0594034,2064,1772794351,59149367,,2.0,-2.0,8.0,-8.0,-9.0,-5.0
1772794351.0604072,2065,1772794351,60149971,,3.0,-3.0,2.0,-26.0,15.0,-8.0
1772794351.0613058,2066,1772794351,61148218,,3.0,-3.0,2.0,-26.0,15.0,-8.0
1772794351.062269,2067,1772794351,62145103,,3.0,-1.0,2.0,-23.0,3.0,-6.0
1772794351.0633361,2068,1772794351,63136999,,1.0,0.0,1.0,-17.0,-3.0,-5.0
1772794351.0645113,2069,1772794351,64139856,,1.0,0.0,1.0,-17.0,-3.0,-5.0
1772794351.0655715,2070,1772794351,65312255,,1.0,0.0,1.0,-17.0,-3.0,-5.0
1772794351.0664167,2071,1772794351,66176061,,2.0,-1.0,7.0,-14.0,-3.0,-9.0
1772794351.0674214,2072,1772794351,67151643,,2.0,-1.0,7.0,-14.0,-3.0,-9.0
1772794351.068337,2073,1772794351,68152035,,2.0,-4.0,-3.0,-44.0,11.0,-11.0
1772794351.06942,2074,1772794351,69150124,,2.0,-4.0,-3.0,-44.0,11.0,-11.0
1772794351.0704618,2075,1772794351,70151332,,6.0,-3.0,5.0,-22.0,6.0,-9.0
1772794351.0713081,2076,1772794351,71148984,,6.0,-3.0,5.0,-22.0,6.0,-9.0
1772794351.072433,2077,1772794351,72150741,,4.0,-3.0,0.0,-30.0,1.0,-11.0
1772794351.073328,2078,1772794351,73148061,,4.0,-3.0,0.0,-30.0,1.0,-11.0
1772794351.0743144,2079,1772794351,74149398,,0.0,-4.0,2.0,-25.0,-4.0,-12.0
1772794351.0754347,2080,1772794351,75149171,,0.0,-2.0,7.0,7.0,-4.0,-5.0
1772794351.0763404,2081,1772794351,76150443,,0.0,-2.0,7.0,7.0,-4.0,-5.0
1772794351.0773253,2082,1772794351,77149449,,4.0,-2.0,9.0,6.0,8.0,-6.0
1772794351.078292,2083,1772794351,78148924,,4.0,-2.0,9.0,6.0,8.0,-6.0
1772794351.079375,2084,1772794351,79150137,,4.0,-2.0,9.0,6.0,8.0,-6.0
1772794351.0803068,2085,1772794351,80149881,,4.0,-2.0,3.0,-8.0,2.0,1.0
1772794351.0813134,2086,1772794351,81149810,,4.0,-2.0,3.0,-8.0,2.0,1.0
1772794351.0823088,2087,1772794351,82151081,,2.0,0.0,6.0,-6.0,11.0,-4.0
1772794351.083322,2088,1772794351,83149364,,2.0,0.0,6.0,-6.0,11.0,-4.0
1772794351.0844035,2089,1772794351,84152936,,2.0,-1.0,5.0,-5.0,3.0,-3.0
1772794351.085421,2090,1772794351,85152095,,1.0,-1.0,8.0,-2.0,-9.0,0.0
1772794351.0863252,2091,1772794351,86149542,,1.0,-1.0,8.0,-2.0,-9.0,0.0
1772794351.0875483,2092,1772794351,87148845,,1.0,-1.0,8.0,-2.0,-9.0,0.0
1772794351.088312,2093,1772794351,88157846,,0.0,0.0,2.0,-12.0,5.0,1.0
1772794351.0892956,2094,1772794351,89138750,,-1.0,-1.0,0.0,-12.0,-11.0,-1.0
1772794351.0905123,2095,1772794351,90136893,,-1.0,-1.0,0.0,-12.0,-11.0,-1.0
1772794351.091557,2096,1772794351,91137030,,2.0,-2.0,-5.0,-22.0,-6.0,0.0
1772794351.0924103,2097,1772794351,92136702,,2.0,-2.0,-5.0,-22.0,-6.0,0.0
1772794351.093453,2098,1772794351,93156516,,2.0,-2.0,-5.0,-22.0,-6.0,0.0
1772794351.094586,2099,1772794351,94154653,,2.0,-2.0,6.0,9.0,0.0,-5.0
1772794351.09546,2100,1772794351,95149872,,2.0,-2.0,6.0,9.0,0.0,-5.0
1772794351.0965083,2101,1772794351,96153831,,0.0,-3.0,4.0,12.0,-4.0,-3.0
1772794351.0975842,2102,1772794351,97140211,,0.0,-3.0,4.0,12.0,-4.0,-3.0
1772794351.0985138,2103,1772794351,98153004,,1.0,-3.0,2.0,-5.0,7.0,-8.0
1772794351.0995052,2104,1772794351,99155363,,2.0,-4.0,9.0,14.0,-3.0,-8.0
1772794351.1006224,2105,1772794351,100154375,,2.0,-4.0,9.0,14.0,-3.0,-8.0
1772794351.1013744,2106,1772794351,101138922,,2.0,-4.0,9.0,14.0,-3.0,-8.0
1772794351.1025405,2107,1772794351,102151805,,2.0,-2.0,14.0,38.0,-3.0,-5.0
1772794351.1035352,2108,1772794351,103149593,,2.0,-2.0,14.0,38.0,-3.0,-5.0
1772794351.104458,2109,1772794351,104152271,,-1.0,0.0,8.0,42.0,-24.0,-6.0
1772794351.105454,2110,1772794351,105151609,,-1.0,0.0,8.0,42.0,-24.0,-6.0
1772794351.1065853,2111,1772794351,106153760,,-1.0,0.0,17.0,43.0,-23.0,-11.0
1772794351.1074977,2112,1772794351,107152220,,-1.0,0.0,17.0,43.0,-23.0,-11.0
1772794351.1085534,2113,1772794351,108154435,,0.0,-1.0,21.0,38.0,-7.0,-17.0
1772794351.1095982,2114,1772794351,109155804,,1.0,-2.0,20.0,32.0,5.0,-11.0
1772794351.1105568,2115,1772794351,110154929,,1.0,-2.0,20.0,32.0,5.0,-11.0
1772794351.1116064,2116,1772794351,111157295,,1.0,-4.0,19.0,31.0,-6.0,-13.0
1772794351.1126816,2117,1772794351,112155921,,1.0,-4.0,19.0,31.0,-6.0,-13.0
1772794351.1135788,2118,1772794351,113155318,,3.0,-1.0,20.0,35.0,8.0,-12.0
1772794351.1145947,2119,1772794351,114153841,,3.0,-1.0,20.0,35.0,8.0,-12.0
1772794351.1155403,2120,1772794351,115150022,,3.0,-1.0,20.0,35.0,8.0,-12.0
1772794351.1165888,2121,1772794351,116143853,,2.0,-1.0,22.0,67.0,-13.0,-10.0
1772794351.1176584,2122,1772794351,117254055,,2.0,-1.0,22.0,67.0,-13.0,-10.0
1772794351.118537,2123,1772794351,118171453,,2.0,-2.0,19.0,47.0,-14.0,-6.0
1772794351.119563,2124,1772794351,119157426,,3.0,-2.0,15.0,45.0,-9.0,-3.0
1772794351.1205025,2125,1772794351,120155729,,3.0,-2.0,15.0,45.0,-9.0,-3.0
1772794351.1215303,2126,1772794351,121151714,,3.0,-2.0,15.0,45.0,-9.0,-3.0
1772794351.1224089,2127,1772794351,122153157,,2.0,-3.0,3.0,31.0,-8.0,-1.0
1772794351.1233895,2128,1772794351,123143788,,2.0,-2.0,11.0,55.0,-37.0,-1.0
1772794351.124345,2129,1772794351,124140056,,2.0,-2.0,11.0,55.0,-37.0,-1.0
1772794351.1253853,2130,1772794351,125158088,,1.0,-1.0,13.0,52.0,-29.0,0.0
1772794351.1262825,2131,1772794351,126148489,,1.0,-1.0,13.0,52.0,-29.0,0.0
1772794351.1273005,2132,1772794351,127153161,,3.0,-2.0,12.0,48.0,-9.0,-3.0
1772794351.1283672,2133,1772794351,128149339,,3.0,-2.0,12.0,48.0,-9.0,-3.0
1772794351.1292953,2134,1772794351,129149439,,3.0,-2.0,12.0,48.0,-9.0,-3.0
1772794351.1303325,2135,1772794351,130154056,,5.0,-3.0,17.0,46.0,0.0,4.0
1772794351.131329,2136,1772794351,131150868,,5.0,-3.0,17.0,46.0,0.0,4.0
1772794351.1323967,2137,1772794351,132151003,,1.0,-2.0,9.0,17.0,-12.0,-3.0
1772794351.1333468,2138,1772794351,133151649,,1.0,-2.0,9.0,17.0,-12.0,-3.0
1772794351.134433,2139,1772794351,134151604,,3.0,-2.0,5.0,2.0,7.0,-2.0
1772794351.1354508,2140,1772794351,135148865,,3.0,-2.0,5.0,2.0,7.0,-2.0
1772794351.1363475,2141,1772794351,136152808,,5.0,-3.0,8.0,-5.0,20.0,-1.0
1772794351.1373043,2142,1772794351,137149461,,5.0,-3.0,8.0,-5.0,20.0,-1.0
1772794351.1383858,2143,1772794351,138151129,,5.0,-1.0,9.0,17.0,23.0,7.0
1772794351.1393008,2144,1772794351,139144215,,5.0,-1.0,5.0,-3.0,17.0,3.0
1772794351.14031,2145,1772794351,140151629,,5.0,-2.0,8.0,-7.0,12.0,-5.0
1772794351.1412883,2146,1772794351,141151142,,5.0,-2.0,8.0,-7.0,12.0,-5.0
1772794351.1423335,2147,1772794351,142152037,,5.0,-2.0,8.0,-7.0,12.0,-5.0
1772794351.143311,2148,1772794351,143148037,,5.0,-2.0,8.0,-7.0,12.0,-5.0
1772794351.1443937,2149,1772794351,144152809,,7.0,-4.0,16.0,-8.0,26.0,-12.0
1772794351.1453006,2150,1772794351,145152310,,2.0,-2.0,-3.0,-41.0,10.0,-9.0
1772794351.1463132,2151,1772794351,146148816,,2.0,-2.0,-3.0,-41.0,10.0,-9.0
1772794351.1472843,2152,1772794351,147149494,,2.0,-2.0,-3.0,-41.0,10.0,-9.0
1772794351.1489499,2153,1772794351,148154646,,-1.0,-3.0,-3.0,-41.0,0.0,-4.0
1772794351.1497025,2154,1772794351,149149859,,-1.0,-3.0,-3.0,-41.0,0.0,-4.0
1772794351.1503925,2155,1772794351,150150725,,0.0,0.0,0.0,-30.0,-10.0,-11.0
1772794351.151421,2156,1772794351,151153148,,0.0,-1.0,-1.0,-23.0,2.0,-15.0
1772794351.1522815,2157,1772794351,152148560,,0.0,-1.0,-1.0,-23.0,2.0,-15.0
